,timestamp,x,y,z,yaw,roll,pitch,latency,student,session,success
0,1629264794.953,-640,4288,750,0.076,-1.288,-2.717,98.7,red,181,TRUE
1,1629264796.466,-227,3815,3354,2.796,-1.285,0.329,100.7,blue,181,TRUE
2,1629264796.569,-319,3896,750,6.056,-1.262,-2.673,96.7,red,181,TRUE
3,1629264796.964,214,3554,3354,2.794,-1.292,0.386,95.7,blue,181,TRUE
4,1629264797.061,-55,3612,750,5.906,-1.317,-2.907,87.8,red,181,TRUE
5,1629264797.355,651,3295,3354,2.726,-1.322,0.485,97.7,blue,181,TRUE
6,1629264797.454,276,3267,750,5.752,-1.325,-3.063,96.7,red,181,TRUE
7,1629264797.754,1083,3022,3354,2.127,-1.341,0.148,95.7,blue,181,TRUE
8,1629264797.851,579,2914,750,5.607,-1.33,-2.872,95.7,red,181,TRUE
9,1629264798.149,1545,2733,3354,1.708,-1.29,-0.122,90.8,blue,181,TRUE
10,1629264798.241,889,2562,750,5.548,-1.273,-2.766,99.7,red,181,TRUE
11,1629264798.635,1933,2419,3354,1.525,-1.268,-0.425,98.7,blue,181,TRUE
12,1629264798.734,1199,2205,750,5.708,-1.337,-2.83,97.7,red,181,TRUE
13,1629264799.033,2357,2093,3354,1.501,-1.225,-0.315,84.8,blue,181,TRUE
14,1629264799.122,1482,1886,750,5.751,-1.389,-2.926,97.7,red,181,TRUE
15,1629264799.418,2763,1816,3354,1.501,-1.248,-0.333,92.8,blue,181,TRUE
16,1629264799.511,1824,1546,750,5.778,-1.413,-2.994,100.7,red,181,TRUE
17,1629264799.814,3185,1514,3354,1.599,-1.289,-0.433,96.7,blue,181,TRUE
18,1629264799.912,2183,1260,750,5.773,-1.42,-3.03,98.7,red,181,TRUE
19,1629264801.389,2517,974,750,5.729,-1.405,-3.023,95.7,red,181,TRUE
20,1629264801.783,3667,1224,3354,1.844,-1.451,-0.453,95.7,blue,181,TRUE
21,1629264801.88,2637,1191,750,5.499,-1.365,-2.894,97.7,red,181,TRUE
22,1629264802.182,3936,1518,3354,1.763,-1.402,-0.463,90.8,blue,181,TRUE
23,1629264802.275,2697,1272,750,5.297,-1.305,-2.779,98.7,red,181,TRUE
24,1629264802.575,3985,1558,3354,1.718,-1.366,-0.411,98.7,blue,181,TRUE
25,1629264802.676,2701,1327,750,5.277,-1.313,-2.918,95.7,red,181,TRUE
26,1629264802.972,3966,1534,3354,1.688,-1.352,-0.382,97.7,blue,181,TRUE
27,1629264803.071,2763,1330,750,5.299,-1.338,-2.976,95.7,red,181,TRUE
28,1629264803.466,3927,1521,3354,1.676,-1.346,-0.421,97.7,blue,181,TRUE
29,1629264803.564,2776,1357,750,5.27,-1.326,-2.964,99.7,red,181,TRUE
30,1629264803.869,3901,1507,3354,1.676,-1.34,-0.42,89.8,blue,181,TRUE
31,1629264803.959,2773,1379,750,5.257,-1.325,-2.956,95.7,red,181,TRUE
32,1629264804.256,3873,1514,3354,1.677,-1.338,-0.46,91.8,blue,181,TRUE
33,1629264804.348,2756,1398,750,5.264,-1.326,-2.959,97.2,red,181,TRUE
34,1629264804.646,3827,1525,3354,1.683,-1.317,-0.437,95.7,blue,181,TRUE
35,1629264804.743,2744,1413,750,5.272,-1.326,-2.968,95.7,red,181,TRUE
36,1629264805.134,3828,1540,3354,1.681,-1.298,-0.405,99.7,blue,181,TRUE
37,1629264805.235,2756,1400,750,5.272,-1.326,-2.969,96.7,red,181,TRUE
38,1629264805.534,3801,1527,3354,1.678,-1.293,-0.389,97.7,blue,181,TRUE
39,1629264805.633,2765,1400,750,5.265,-1.323,-2.966,97.7,red,181,TRUE
40,1629264805.933,3784,1518,3354,1.678,-1.293,-0.384,97.7,blue,181,TRUE
41,1629264806.032,2766,1403,750,5.267,-1.32,-2.964,97.7,red,181,TRUE
42,1629264806.334,3767,1533,3354,1.672,-1.29,-0.374,95.7,blue,181,TRUE
43,1629264806.479,2777,1419,750,5.264,-1.317,-2.964,97.7,red,181,TRUE
44,1629264806.875,3734,1559,3354,1.679,-1.29,-0.373,96.7,blue,181,TRUE
45,1629264806.971,2810,1391,750,5.274,-1.32,-2.968,92.8,red,181,TRUE
46,1629264807.266,3709,1579,3354,1.678,-1.294,-0.373,95.7,blue,181,TRUE
47,1629264807.363,2804,1416,750,5.281,-1.323,-2.968,96.7,red,181,TRUE
48,1629264807.659,3708,1591,3354,1.679,-1.293,-0.372,93.8,blue,181,TRUE
49,1629264807.753,2801,1423,750,5.288,-1.323,-2.974,97.2,red,181,TRUE
50,1629264808.049,3704,1603,3354,1.682,-1.297,-0.384,91.8,blue,181,TRUE
51,1629264808.145,2792,1432,750,5.299,-1.322,-2.982,97.7,red,181,TRUE
52,1629264808.535,3887,1485,3354,1.726,-1.305,-0.358,80.8,blue,181,TRUE
53,1629264808.619,2773,1450,750,5.269,-1.311,-2.956,95.7,red,181,TRUE
54,1629264808.916,3838,1483,3354,1.766,-1.302,-0.38,91.8,blue,181,TRUE
55,1629264809.009,2775,1444,750,5.162,-1.294,-2.925,97.7,red,181,TRUE
56,1629264809.313,3837,1462,3354,1.645,-1.261,-0.416,91.8,blue,181,TRUE
57,1629264809.405,2768,1443,750,5.155,-1.3,-3.087,97.7,red,181,TRUE
58,1629264809.706,3818,1469,3354,1.409,-1.317,-0.595,96.7,blue,181,TRUE
59,1629264809.803,2739,1454,750,5.044,-1.295,3.096,97.2,red,181,TRUE
60,1629264810.198,3802,1476,3354,1.437,-1.359,-0.451,99.7,blue,181,TRUE
61,1629264810.299,2712,1434,750,4.74,-1.293,-3.011,97.7,red,181,TRUE
62,1629264810.597,3790,1485,3354,1.416,-1.344,-0.413,98.7,blue,181,TRUE
63,1629264810.699,2712,1417,750,4.589,-1.245,-2.862,97.7,red,181,TRUE
64,1629264810.998,3800,1479,3354,1.355,-1.343,-0.411,97.7,blue,181,TRUE
65,1629264811.096,2717,1370,750,4.531,-1.247,-2.781,90.8,red,181,TRUE
66,1629264811.392,3779,1492,3354,1.331,-1.344,-0.428,96.7,blue,181,TRUE
67,1629264811.536,2680,1333,750,4.555,-1.251,-2.897,97.7,red,181,TRUE
68,1629264811.928,3759,1501,3354,1.333,-1.342,-0.448,97.7,blue,181,TRUE
69,1629264812.026,2623,1355,750,4.692,-1.282,-3.071,97.7,red,181,TRUE
70,1629264812.328,3733,1517,3354,1.349,-1.335,-0.439,95.7,blue,181,TRUE
71,1629264812.425,2612,1328,750,4.813,-1.293,3.103,97.7,red,181,TRUE
72,1629264812.725,3694,1530,3354,1.349,-1.334,-0.437,100.7,blue,181,TRUE
73,1629264812.827,2592,1305,750,4.781,-1.316,3.093,96.7,red,181,TRUE
74,1629264813.127,3658,1540,3354,1.335,-1.334,-0.457,96.7,blue,181,TRUE
75,1629264813.226,2557,1265,750,4.747,-1.292,3.131,97.7,red,181,TRUE
76,1629264813.621,3456,1674,3354,1.326,-1.344,-0.512,97.7,blue,181,TRUE
77,1629264813.719,2544,1238,750,4.676,-1.265,-3.076,96.7,red,181,TRUE
78,1629264814.017,3498,1686,3354,1.318,-1.345,-0.525,91.8,blue,181,TRUE
79,1629264814.11,2523,1223,750,4.635,-1.257,-3.048,100.3,red,181,TRUE
80,1629264814.412,3482,1704,3354,1.322,-1.342,-0.52,92.8,blue,181,TRUE
81,1629264814.505,2519,1212,750,4.645,-1.26,-3.06,97.7,red,181,TRUE
82,1629264814.805,3485,1709,3354,1.323,-1.341,-0.515,91.8,blue,181,TRUE
83,1629264814.898,2534,1187,750,4.641,-1.262,-3.053,98.7,red,181,TRUE
84,1629264815.297,3483,1714,3354,1.323,-1.337,-0.511,90.8,blue,181,TRUE
85,1629264815.389,2546,1189,750,4.609,-1.265,-3.025,97.7,red,181,TRUE
86,1629264815.688,3486,1716,3354,1.322,-1.334,-0.507,91.8,blue,181,TRUE
87,1629264815.781,2528,1190,750,4.607,-1.27,-3.021,97.7,red,181,TRUE
88,1629264816.08,3453,1728,3354,1.293,-1.34,-0.503,92.7,blue,181,TRUE
89,1629264816.175,2509,1214,750,4.604,-1.271,-3.015,100.7,red,181,TRUE
90,1629264816.476,3451,1728,3354,1.28,-1.34,-0.484,91.8,blue,181,TRUE
91,1629264816.614,2522,1231,750,4.608,-1.274,-3.012,98.7,red,181,TRUE
92,1629264817.009,3451,1735,3354,1.283,-1.346,-0.454,97.7,blue,181,TRUE
93,1629264817.108,2517,1235,750,4.624,-1.276,-3.023,97.7,red,181,TRUE
94,1629264817.411,3436,1741,3354,1.28,-1.338,-0.403,95.7,blue,181,TRUE
95,1629264817.508,2519,1241,750,4.633,-1.273,-3.03,96.7,red,181,TRUE
96,1629264817.807,3435,1746,3354,1.281,-1.329,-0.377,98.7,blue,181,TRUE
97,1629264817.907,2524,1239,750,4.638,-1.266,-3.037,94.7,red,181,TRUE
98,1629264818.205,3429,1755,3354,1.292,-1.332,-0.363,96.7,blue,181,TRUE
99,1629264818.302,2543,1251,750,4.628,-1.266,-3.029,97.7,red,181,TRUE
100,1629264818.695,3414,1762,3354,1.287,-1.344,-0.276,96.7,blue,181,TRUE
101,1629264818.793,2547,1255,750,4.624,-1.271,-3.024,97.7,red,181,TRUE
102,1629264819.096,3399,1759,3354,1.394,-1.367,-0.23,95.7,blue,181,TRUE
103,1629264819.196,2544,1260,750,4.631,-1.275,-3.026,96.7,red,181,TRUE
104,1629264819.494,3365,1767,3354,1.534,-1.362,-0.214,97.7,blue,181,TRUE
105,1629264819.592,2535,1257,750,4.635,-1.277,-3.027,99.7,red,181,TRUE
106,1629264819.895,3334,1775,3354,1.53,-1.372,-0.311,97.7,blue,181,TRUE
107,1629264819.994,2530,1256,750,4.634,-1.276,-3.027,95.7,red,181,TRUE
108,1629264820.387,3309,1782,3354,1.503,-1.368,-0.296,95.7,blue,181,TRUE
109,1629264820.483,2547,1234,750,4.629,-1.274,-3.023,93.7,red,181,TRUE
110,1629264820.796,3285,1778,3354,1.376,-1.343,-0.187,96.7,blue,181,TRUE
111,1629264820.893,2545,1234,750,4.627,-1.274,-3.022,97.7,red,181,TRUE
112,1629264821.195,3273,1764,3354,1.377,-1.344,-0.112,97.7,blue,181,TRUE
113,1629264821.293,2540,1236,750,4.623,-1.274,-3.018,98.7,red,181,TRUE
114,1629264821.686,3259,1760,3354,1.348,-1.338,-0.084,95.7,blue,181,TRUE
115,1629264821.783,2538,1232,750,4.609,-1.274,-3.001,96.7,red,181,TRUE
116,1629264822.127,3243,1756,3354,1.35,-1.341,-0.083,95.7,blue,181,TRUE
117,1629264822.226,2548,1232,750,4.612,-1.274,-3.0,96.7,red,181,TRUE
118,1629264822.523,3248,1744,3354,1.381,-1.349,-0.14,95.7,blue,181,TRUE
119,1629264822.622,2559,1229,750,4.604,-1.272,-2.995,95.7,red,181,TRUE
120,1629264822.966,3232,1733,3354,1.439,-1.349,-0.18,95.7,blue,181,TRUE
121,1629264823.063,2571,1207,750,4.614,-1.273,-3.002,97.7,red,181,TRUE
122,1629264823.364,3219,1724,3354,1.456,-1.349,-0.185,97.7,blue,181,TRUE
123,1629264823.462,2562,1218,750,4.619,-1.272,-3.005,100.7,red,181,TRUE
124,1629264823.813,3222,1712,3354,1.475,-1.355,-0.221,98.7,blue,181,TRUE
125,1629264823.912,2557,1210,750,4.622,-1.276,-3.006,96.7,red,181,TRUE
126,1629264824.214,3194,1711,3354,1.468,-1.357,-0.215,96.7,blue,181,TRUE
127,1629264824.312,2562,1210,750,4.623,-1.278,-3.006,96.7,red,181,TRUE
128,1629264824.657,3211,1695,3354,1.476,-1.361,-0.179,96.7,blue,181,TRUE
129,1629264824.755,2558,1205,750,4.623,-1.28,-3.006,96.7,red,181,TRUE
130,1629264825.055,3225,1679,3354,1.477,-1.361,-0.2,97.7,blue,181,TRUE
131,1629264825.158,2553,1203,750,4.622,-1.277,-3.005,95.7,red,181,TRUE
132,1629264825.503,3228,1664,3354,1.479,-1.357,-0.202,97.7,blue,181,TRUE
133,1629264825.602,2531,1228,750,4.621,-1.277,-3.004,97.7,red,181,TRUE
134,1629264825.905,3229,1662,3354,1.48,-1.355,-0.201,98.7,blue,181,TRUE
135,1629264826.005,2531,1231,750,4.621,-1.276,-3.005,98.7,red,181,TRUE
136,1629264826.358,3224,1671,3354,1.472,-1.346,-0.191,96.7,blue,181,TRUE
137,1629264826.454,2549,1207,750,4.624,-1.276,-3.007,90.8,red,181,TRUE
138,1629264826.794,3229,1672,3354,1.467,-1.345,-0.189,97.7,blue,181,TRUE
139,1629264826.892,2546,1207,750,4.627,-1.274,-3.011,96.7,red,181,TRUE
140,1629264827.239,3234,1670,3354,1.461,-1.34,-0.191,95.7,blue,181,TRUE
141,1629264827.337,2538,1205,750,4.626,-1.273,-3.011,99.7,red,181,TRUE
142,1629264827.684,3234,1674,3354,1.446,-1.333,-0.17,97.7,blue,181,TRUE
143,1629264827.784,2535,1205,750,4.62,-1.273,-3.006,97.7,red,181,TRUE
144,1629264828.084,3241,1674,3354,1.429,-1.334,-0.151,97.7,blue,181,TRUE
145,1629264828.186,2516,1232,750,4.608,-1.275,-2.998,96.7,red,181,TRUE
146,1629264828.486,3249,1671,3354,1.433,-1.334,-0.151,96.7,blue,181,TRUE
147,1629264828.584,2534,1223,750,4.592,-1.274,-2.988,95.7,red,181,TRUE
148,1629264828.928,3241,1675,3354,1.436,-1.333,-0.157,95.7,blue,181,TRUE
149,1629264829.025,2541,1227,750,4.607,-1.276,-3.0,95.7,red,181,TRUE
150,1629264829.373,3242,1682,3354,1.433,-1.331,-0.164,95.7,blue,181,TRUE
151,1629264829.468,2533,1228,750,4.605,-1.278,-2.998,96.7,red,181,TRUE
152,1629264829.767,3232,1694,3354,1.426,-1.333,-0.17,95.7,blue,181,TRUE
153,1629264829.863,2539,1237,750,4.597,-1.281,-2.992,95.7,red,181,TRUE
154,1629264830.162,3223,1703,3354,1.428,-1.333,-0.167,96.7,blue,181,TRUE
155,1629264830.259,2540,1236,750,4.599,-1.282,-2.993,96.7,red,181,TRUE
156,1629264830.603,3225,1709,3354,1.426,-1.338,-0.169,100.7,blue,181,TRUE
157,1629264830.706,2544,1234,750,4.601,-1.282,-2.994,95.7,red,181,TRUE
158,1629264831.048,3233,1709,3354,1.427,-1.336,-0.17,96.7,blue,181,TRUE
159,1629264831.149,2545,1228,750,4.603,-1.28,-2.998,97.7,red,181,TRUE
160,1629264831.448,3225,1710,3354,1.436,-1.336,-0.19,97.7,blue,181,TRUE
161,1629264831.546,2528,1251,750,4.602,-1.28,-2.997,97.7,red,181,TRUE
162,1629264831.894,3208,1711,3354,1.438,-1.338,-0.199,96.7,blue,181,TRUE
163,1629264831.992,2538,1252,750,4.6,-1.278,-2.995,97.7,red,181,TRUE
164,1629264832.339,3202,1709,3354,1.441,-1.337,-0.214,97.7,blue,181,TRUE
165,1629264832.437,2546,1250,750,4.593,-1.28,-2.991,98.7,red,181,TRUE
166,1629264832.786,3199,1708,3354,1.44,-1.335,-0.219,99.7,blue,181,TRUE
167,1629264832.886,2536,1256,750,4.584,-1.276,-2.986,96.7,red,181,TRUE
168,1629264833.186,3196,1707,3354,1.44,-1.333,-0.216,97.7,blue,181,TRUE
169,1629264833.285,2532,1260,750,4.581,-1.275,-2.986,95.7,red,181,TRUE
170,1629264833.581,3209,1703,3354,1.44,-1.332,-0.214,95.7,blue,181,TRUE
171,1629264833.68,2514,1261,750,4.581,-1.274,-2.986,95.7,red,181,TRUE
172,1629264834.022,3215,1702,3354,1.439,-1.33,-0.212,97.7,blue,181,TRUE
173,1629264834.121,2504,1262,750,4.58,-1.273,-2.982,97.7,red,181,TRUE
174,1629264834.469,3226,1699,3354,1.439,-1.328,-0.209,96.7,blue,181,TRUE
175,1629264834.567,2559,1268,750,4.584,-1.275,-2.988,96.7,red,181,TRUE
176,1629264834.865,3241,1694,3354,1.439,-1.326,-0.208,97.7,blue,181,TRUE
177,1629264834.964,2546,1273,750,4.587,-1.271,-2.991,97.7,red,181,TRUE
178,1629264835.268,3248,1687,3354,1.439,-1.325,-0.207,96.7,blue,181,TRUE
179,1629264835.366,2532,1289,750,4.595,-1.268,-2.999,96.7,red,181,TRUE
180,1629264835.713,3253,1678,3354,1.439,-1.325,-0.207,100.7,blue,181,TRUE
181,1629264835.814,2523,1295,750,4.611,-1.261,-3.014,97.7,red,181,TRUE
182,1629264836.161,3245,1679,3354,1.443,-1.325,-0.213,96.7,blue,181,TRUE
183,1629264836.259,2527,1300,750,4.609,-1.261,-3.013,95.7,red,181,TRUE
184,1629264836.556,3261,1670,3354,1.443,-1.326,-0.216,95.7,blue,181,TRUE
185,1629264836.654,2522,1303,750,4.607,-1.262,-3.011,96.7,red,181,TRUE
186,1629264836.998,3275,1662,3354,1.433,-1.323,-0.209,97.7,blue,181,TRUE
187,1629264837.097,2535,1278,750,4.601,-1.265,-3.006,93.7,red,181,TRUE
188,1629264837.442,3282,1661,3354,1.431,-1.328,-0.206,99.7,blue,181,TRUE
189,1629264837.543,2529,1278,750,4.601,-1.266,-3.004,97.7,red,181,TRUE
190,1629264837.89,3291,1660,3354,1.416,-1.323,-0.183,97.7,blue,181,TRUE
191,1629264837.989,2517,1287,750,4.599,-1.268,-3.002,97.7,red,181,TRUE
192,1629264838.29,3303,1659,3354,1.419,-1.325,-0.185,95.7,blue,181,TRUE
193,1629264838.387,2526,1302,750,4.601,-1.268,-3.003,95.7,red,181,TRUE
194,1629264838.685,3295,1660,3354,1.417,-1.321,-0.187,97.7,blue,181,TRUE
195,1629264838.784,2524,1308,750,4.601,-1.268,-3.004,96.7,red,181,TRUE
196,1629264839.128,3292,1658,3354,1.422,-1.322,-0.19,97.7,blue,181,TRUE
197,1629264839.229,2524,1306,750,4.604,-1.268,-3.006,98.7,red,181,TRUE
198,1629264839.576,3280,1662,3354,1.429,-1.32,-0.191,95.7,blue,181,TRUE
199,1629264839.674,2467,1304,750,4.603,-1.268,-3.005,102.7,red,181,TRUE
200,1629264839.978,3263,1664,3354,1.432,-1.318,-0.193,98.7,blue,181,TRUE
201,1629264840.078,2465,1303,750,4.608,-1.269,-3.009,98.7,red,181,TRUE
202,1629264840.382,3259,1671,3354,1.432,-1.313,-0.191,97.7,blue,181,TRUE
203,1629264840.481,2468,1297,750,4.61,-1.272,-3.007,97.7,red,181,TRUE
204,1629264840.828,3245,1684,3354,1.434,-1.307,-0.188,96.7,blue,181,TRUE
205,1629264840.926,2465,1300,750,4.614,-1.274,-3.01,96.7,red,181,TRUE
206,1629264841.279,3237,1692,3354,1.43,-1.304,-0.189,95.7,blue,181,TRUE
207,1629264841.376,2483,1273,750,4.614,-1.275,-3.009,98.7,red,181,TRUE
208,1629264841.678,3237,1701,3354,1.426,-1.302,-0.185,97.7,blue,181,TRUE
209,1629264841.776,2510,1244,750,4.617,-1.273,-3.012,94.7,red,181,TRUE
210,1629264842.121,3236,1709,3354,1.426,-1.304,-0.187,98.7,blue,181,TRUE
211,1629264842.223,2533,1229,750,4.62,-1.271,-3.014,92.8,red,181,TRUE
212,1629264842.567,3228,1716,3354,1.425,-1.308,-0.181,95.7,blue,181,TRUE
213,1629264842.666,2524,1239,750,4.62,-1.271,-3.014,96.7,red,181,TRUE
214,1629264843.014,3214,1722,3354,1.425,-1.309,-0.172,96.7,blue,181,TRUE
215,1629264843.111,2538,1217,750,4.62,-1.271,-3.014,98.7,red,181,TRUE
216,1629264843.416,3194,1727,3354,1.428,-1.311,-0.17,97.7,blue,181,TRUE
217,1629264843.515,2550,1170,750,4.62,-1.271,-3.015,94.8,red,181,TRUE
218,1629264843.815,3186,1726,3354,1.45,-1.325,-0.221,95.7,blue,181,TRUE
219,1629264843.912,2559,1156,750,4.62,-1.269,-3.016,98.7,red,181,TRUE
220,1629264844.261,3172,1737,3354,1.524,-1.347,-0.327,97.7,blue,181,TRUE
221,1629264844.36,2583,1150,750,4.623,-1.268,-3.018,97.7,red,181,TRUE
222,1629264844.705,3169,1745,3354,1.525,-1.32,-0.346,96.7,blue,181,TRUE
223,1629264844.802,2588,1139,750,4.624,-1.268,-3.019,95.7,red,181,TRUE
224,1629264845.102,3173,1748,3354,1.509,-1.313,-0.336,95.7,blue,181,TRUE
225,1629264845.201,2619,1104,750,4.624,-1.264,-3.021,90.8,red,181,TRUE
226,1629264845.496,3173,1754,3354,1.554,-1.328,-0.292,97.7,blue,181,TRUE
227,1629264845.594,2650,1068,750,4.623,-1.265,-3.018,92.7,red,181,TRUE
228,1629264845.937,3179,1749,3354,1.566,-1.33,-0.289,96.7,blue,181,TRUE
229,1629264846.034,2650,1072,750,4.622,-1.269,-3.015,100.7,red,181,TRUE
230,1629264846.385,3179,1747,3354,1.538,-1.338,-0.273,96.7,blue,181,TRUE
231,1629264846.483,2614,1109,750,4.622,-1.27,-3.014,96.7,red,181,TRUE
232,1629264846.781,3181,1736,3354,1.474,-1.334,-0.241,96.7,blue,181,TRUE
233,1629264846.879,2586,1137,750,4.623,-1.271,-3.014,95.7,red,181,TRUE
234,1629264847.225,3182,1732,3354,1.42,-1.337,-0.181,97.7,blue,181,TRUE
235,1629264847.324,2527,1193,750,4.619,-1.276,-3.011,95.7,red,181,TRUE
236,1629264847.67,3185,1731,3354,1.382,-1.341,-0.161,96.7,blue,181,TRUE
237,1629264847.767,2537,1181,750,4.614,-1.275,-3.011,95.7,red,181,TRUE
238,1629264848.112,3181,1722,3354,1.381,-1.348,-0.154,97.7,blue,181,TRUE
239,1629264848.214,2538,1184,750,4.615,-1.276,-3.014,97.7,red,181,TRUE
240,1629264848.514,3193,1711,3354,1.369,-1.355,-0.132,96.7,blue,181,TRUE
241,1629264848.612,2510,1219,750,4.619,-1.278,-3.014,97.7,red,181,TRUE
242,1629264848.914,3194,1707,3354,1.388,-1.359,-0.133,97.7,blue,181,TRUE
243,1629264849.013,2505,1227,750,4.612,-1.278,-3.007,97.7,red,181,TRUE
244,1629264849.362,3210,1692,3354,1.426,-1.361,-0.164,95.7,blue,181,TRUE
245,1629264849.46,2489,1241,750,4.61,-1.278,-3.005,93.7,red,181,TRUE
246,1629264849.801,3219,1679,3354,1.47,-1.362,-0.184,97.7,blue,181,TRUE
247,1629264849.901,2477,1264,750,4.603,-1.278,-3.001,96.7,red,181,TRUE
248,1629264850.201,3203,1672,3354,1.465,-1.356,-0.16,96.7,blue,181,TRUE
249,1629264850.3,2443,1307,750,4.599,-1.28,-2.997,97.7,red,181,TRUE
250,1629264850.599,3205,1665,3354,1.481,-1.357,-0.166,95.7,blue,181,TRUE
251,1629264850.697,2422,1335,750,4.599,-1.282,-2.997,96.7,red,181,TRUE
252,1629264851.044,3226,1655,3354,1.484,-1.358,-0.16,97.7,blue,181,TRUE
253,1629264851.142,2426,1329,750,4.599,-1.283,-2.995,96.7,red,181,TRUE
254,1629264851.494,3240,1646,3354,1.481,-1.358,-0.163,98.7,blue,181,TRUE
255,1629264851.593,2434,1322,750,4.6,-1.282,-2.997,95.7,red,181,TRUE
256,1629264851.894,3255,1620,3354,1.482,-1.356,-0.161,97.7,blue,181,TRUE
257,1629264851.993,2437,1323,750,4.603,-1.281,-3.0,98.7,red,181,TRUE
258,1629264852.389,3264,1615,3354,1.477,-1.356,-0.155,96.7,blue,181,TRUE
259,1629264852.487,2447,1307,750,4.611,-1.28,-3.006,98.7,red,181,TRUE
260,1629264852.836,3272,1611,3354,1.477,-1.355,-0.155,96.7,blue,181,TRUE
261,1629264852.934,2441,1315,750,4.615,-1.282,-3.009,97.7,red,181,TRUE
262,1629264853.236,3290,1611,3354,1.477,-1.352,-0.153,95.7,blue,181,TRUE
263,1629264853.334,2435,1325,750,4.615,-1.285,-3.006,95.7,red,181,TRUE
264,1629264853.679,3285,1616,3354,1.478,-1.347,-0.151,96.7,blue,181,TRUE
265,1629264853.776,2443,1321,750,4.615,-1.286,-3.006,97.7,red,181,TRUE
266,1629264854.077,3301,1620,3354,1.478,-1.344,-0.148,98.7,blue,181,TRUE
267,1629264854.179,2443,1325,750,4.622,-1.287,-3.011,99.7,red,181,TRUE
268,1629264854.527,3294,1622,3354,1.477,-1.341,-0.144,98.7,blue,181,TRUE
269,1629264854.627,2441,1316,750,4.62,-1.284,-3.011,97.7,red,181,TRUE
270,1629264854.926,3296,1622,3354,1.477,-1.341,-0.145,96.7,blue,181,TRUE
271,1629264855.024,2451,1302,750,4.621,-1.285,-3.011,96.7,red,181,TRUE
272,1629264855.376,3315,1622,3354,1.474,-1.34,-0.149,97.7,blue,181,TRUE
273,1629264855.475,2467,1289,750,4.617,-1.285,-3.007,97.7,red,181,TRUE
274,1629264855.776,3312,1629,3354,1.478,-1.346,-0.142,97.7,blue,181,TRUE
275,1629264855.874,2458,1298,750,4.621,-1.286,-3.009,98.7,red,181,TRUE
276,1629264856.224,3301,1641,3354,1.481,-1.348,-0.145,97.7,blue,181,TRUE
277,1629264856.323,2462,1298,750,4.625,-1.286,-3.012,96.7,red,181,TRUE
278,1629264856.624,3317,1616,3354,1.482,-1.353,-0.145,92.8,blue,181,TRUE
279,1629264856.72,2466,1306,750,4.621,-1.285,-3.009,98.7,red,181,TRUE
280,1629264857.066,3279,1657,3354,1.482,-1.352,-0.144,98.7,blue,181,TRUE
281,1629264857.166,2466,1311,750,4.624,-1.284,-3.012,95.7,red,181,TRUE
282,1629264857.513,3257,1670,3354,1.482,-1.348,-0.142,96.7,blue,181,TRUE
283,1629264857.61,2468,1311,750,4.623,-1.283,-3.012,96.7,red,181,TRUE
284,1629264857.961,3297,1632,3354,1.482,-1.345,-0.14,90.8,blue,181,TRUE
285,1629264858.053,2497,1281,750,4.623,-1.282,-3.012,91.8,red,181,TRUE
286,1629264858.394,3317,1636,3354,1.482,-1.343,-0.139,97.7,blue,181,TRUE
287,1629264858.493,2527,1249,750,4.623,-1.283,-3.012,91.8,red,181,TRUE
288,1629264858.787,3357,1632,3354,1.482,-1.342,-0.137,98.7,blue,181,TRUE
289,1629264858.888,2553,1218,750,4.623,-1.282,-3.012,97.7,red,181,TRUE
290,1629264859.187,3382,1631,3354,1.482,-1.337,-0.136,98.7,blue,181,TRUE
291,1629264859.287,2558,1217,750,4.624,-1.282,-3.013,96.7,red,181,TRUE
292,1629264859.632,3410,1639,3354,1.484,-1.334,-0.133,92.8,blue,181,TRUE
293,1629264859.727,2556,1219,750,4.624,-1.282,-3.013,96.7,red,181,TRUE
294,1629264860.072,3395,1648,3354,1.481,-1.336,-0.123,95.7,blue,181,TRUE
295,1629264860.171,2557,1216,750,4.624,-1.283,-3.013,97.7,red,181,TRUE
296,1629264860.472,3385,1651,3354,1.461,-1.332,-0.115,95.7,blue,181,TRUE
297,1629264860.568,2556,1213,750,4.624,-1.285,-3.012,98.7,red,181,TRUE
298,1629264860.87,3378,1647,3354,1.466,-1.34,-0.112,99.7,blue,181,TRUE
299,1629264860.971,2554,1220,750,4.624,-1.285,-3.012,95.7,red,181,TRUE
300,1629264861.321,3363,1647,3354,1.461,-1.34,-0.095,97.7,blue,181,TRUE
301,1629264861.421,2555,1231,750,4.616,-1.284,-3.005,92.8,red,181,TRUE
302,1629264861.767,3334,1680,3354,1.457,-1.342,-0.089,95.7,blue,181,TRUE
303,1629264861.864,2563,1218,750,4.614,-1.283,-3.005,97.7,red,181,TRUE
304,1629264862.165,3344,1674,3354,1.458,-1.356,-0.083,95.7,blue,181,TRUE
305,1629264862.263,2566,1222,750,4.617,-1.283,-3.007,92.8,red,181,TRUE
306,1629264862.603,3362,1635,3354,1.45,-1.352,-0.08,90.8,blue,181,TRUE
307,1629264862.695,2578,1222,750,4.625,-1.284,-3.013,95.7,red,181,TRUE
308,1629264863.089,3316,1676,3354,1.452,-1.352,-0.091,98.7,blue,181,TRUE
309,1629264863.191,2568,1249,750,4.625,-1.286,-3.012,91.8,red,181,TRUE
310,1629264863.48,3297,1678,3354,1.462,-1.345,-0.118,97.7,blue,181,TRUE
311,1629264863.579,2554,1279,750,4.631,-1.289,-3.014,91.8,red,181,TRUE
312,1629264863.878,3249,1690,3354,1.456,-1.343,-0.119,96.7,blue,181,TRUE
313,1629264863.976,2527,1317,750,4.64,-1.292,-3.018,98.7,red,181,TRUE
314,1629264864.281,3208,1700,3354,1.461,-1.347,-0.121,95.7,blue,181,TRUE
315,1629264864.379,2534,1321,750,4.639,-1.294,-3.015,89.8,red,181,TRUE
316,1629264864.768,3175,1701,3354,1.462,-1.344,-0.123,96.7,blue,181,TRUE
317,1629264864.866,2532,1322,750,4.639,-1.296,-3.014,97.7,red,181,TRUE
318,1629264865.168,3200,1698,3354,1.464,-1.342,-0.127,95.7,blue,181,TRUE
319,1629264865.266,2531,1319,750,4.646,-1.296,-3.018,97.7,red,181,TRUE
320,1629264865.566,3203,1703,3354,1.467,-1.341,-0.134,97.7,blue,181,TRUE
321,1629264865.665,2527,1322,750,4.634,-1.296,-3.01,96.7,red,181,TRUE
322,1629264865.964,3212,1709,3354,1.467,-1.336,-0.132,97.7,blue,181,TRUE
323,1629264866.063,2537,1307,750,4.621,-1.295,-3.0,100.7,red,181,TRUE
324,1629264866.462,3217,1690,3354,1.465,-1.329,-0.124,99.7,blue,181,TRUE
325,1629264866.562,2536,1300,750,4.632,-1.299,-3.006,96.7,red,181,TRUE
326,1629264866.862,3246,1677,3354,1.46,-1.335,-0.116,97.7,blue,181,TRUE
327,1629264866.961,2519,1305,750,4.659,-1.314,-3.024,95.7,red,181,TRUE
328,1629264867.261,3243,1685,3354,1.449,-1.34,-0.118,95.7,blue,181,TRUE
329,1629264867.358,2512,1298,750,4.78,-1.343,-3.063,95.7,red,181,TRUE
330,1629264867.705,3277,1708,3354,1.431,-1.346,-0.167,96.7,blue,181,TRUE
331,1629264867.804,2490,1307,750,4.818,-1.358,-3.076,96.7,red,181,TRUE
332,1629264868.2,3287,1704,3354,1.455,-1.353,-0.268,98.7,blue,181,TRUE
333,1629264868.3,2486,1304,750,4.804,-1.356,-3.071,98.7,red,181,TRUE
334,1629264868.604,3283,1707,3354,1.47,-1.349,-0.264,98.7,blue,181,TRUE
335,1629264868.705,2477,1308,750,4.88,-1.364,-3.113,95.7,red,181,TRUE
336,1629264869.004,3315,1692,3354,1.525,-1.359,-0.275,92.8,blue,181,TRUE
337,1629264869.097,2465,1307,750,4.924,-1.377,-3.139,96.7,red,181,TRUE
338,1629264869.399,3321,1693,3354,1.55,-1.357,-0.268,90.8,blue,181,TRUE
339,1629264869.49,2435,1310,750,4.936,-1.385,3.121,96.2,red,181,TRUE
340,1629264869.883,3330,1695,3354,1.563,-1.36,-0.279,92.8,blue,181,TRUE
341,1629264869.976,2419,1312,750,4.949,-1.397,3.108,97.7,red,181,TRUE
342,1629264870.277,3313,1702,3354,1.575,-1.369,-0.295,91.8,blue,181,TRUE
343,1629264870.371,2404,1323,750,4.937,-1.403,3.118,97.7,red,181,TRUE
344,1629264870.673,3331,1696,3354,1.57,-1.371,-0.301,91.8,blue,181,TRUE
345,1629264870.766,2403,1313,750,4.932,-1.407,3.136,96.7,red,181,TRUE
346,1629264871.065,3328,1693,3354,1.562,-1.377,-0.319,97.7,blue,181,TRUE
347,1629264871.165,2406,1300,750,4.921,-1.405,-3.136,96.7,red,181,TRUE
348,1629264871.56,3333,1712,3354,1.666,-1.436,-0.251,95.7,blue,181,TRUE
349,1629264871.657,2411,1295,750,4.921,-1.402,-3.135,95.7,red,181,TRUE
350,1629264871.957,3316,1722,3354,1.906,-1.376,-0.016,95.7,blue,181,TRUE
351,1629264872.054,2429,1288,750,4.931,-1.395,3.132,97.7,red,181,TRUE
352,1629264872.355,3351,1707,3354,1.871,-1.433,-0.307,95.7,blue,181,TRUE
353,1629264872.452,2420,1303,750,5.079,-1.39,3.037,97.7,red,181,TRUE
354,1629264872.799,3311,1712,3354,1.826,-1.429,-0.555,97.7,blue,181,TRUE
355,1629264872.897,2450,1303,750,5.313,-1.354,3.103,97.7,red,181,TRUE
356,1629264873.293,3341,1699,3354,1.828,-1.438,-0.663,98.7,blue,181,TRUE
357,1629264873.393,2453,1322,750,5.315,-1.357,-2.974,95.7,red,181,TRUE
358,1629264873.691,3379,1676,3354,1.865,-1.444,-0.791,95.7,blue,181,TRUE
359,1629264873.789,2473,1332,750,5.296,-1.342,-2.873,95.7,red,181,TRUE
360,1629264874.087,3402,1675,3354,1.965,-1.448,-0.815,96.7,blue,181,TRUE
361,1629264874.188,2507,1343,750,5.241,-1.323,-2.7,97.7,red,181,TRUE
362,1629264874.487,3437,1648,3354,2.347,-1.385,-0.35,99.8,blue,181,TRUE
363,1629264874.587,2550,1361,750,5.405,-1.311,-2.776,97.7,red,181,TRUE
364,1629264874.981,3560,1538,3354,2.733,-1.4,-0.253,98.7,blue,181,TRUE
365,1629264875.081,2579,1379,750,5.618,-1.333,-2.92,97.7,red,181,TRUE
366,1629264875.384,3595,1524,3354,2.718,-1.333,-0.536,96.7,blue,181,TRUE
367,1629264875.482,2637,1347,750,5.813,-1.321,-3.04,92.8,red,181,TRUE
368,1629264875.775,3660,1498,3354,2.774,-1.367,-0.324,97.7,blue,181,TRUE
369,1629264875.875,2669,1418,750,5.822,-1.295,-2.927,97.7,red,181,TRUE
370,1629264876.174,3733,1472,3354,3.006,-1.356,0.42,98.7,blue,181,TRUE
371,1629264876.275,2679,1548,750,5.557,-1.268,-2.859,99.7,red,181,TRUE
372,1629264876.669,3815,1499,3354,2.629,-1.333,-0.551,86.8,blue,181,TRUE
373,1629264876.758,2723,1673,750,5.56,-1.287,-3.043,97.7,red,181,TRUE
374,1629264877.056,3879,1583,3354,2.629,-1.346,-0.292,93.7,blue,181,TRUE
375,1629264877.149,2787,1825,750,5.502,-1.292,-3.063,98.7,red,181,TRUE
376,1629264877.454,3889,1713,3354,2.709,-1.371,-0.08,84.8,blue,181,TRUE
377,1629264877.539,2849,1994,750,5.281,-1.288,-2.879,96.7,red,181,TRUE
378,1629264877.885,3939,1907,3354,2.329,-1.325,-0.892,97.7,blue,181,TRUE
379,1629264877.983,2868,2192,750,5.331,-1.277,-3.041,91.8,red,181,TRUE
380,1629264878.372,3962,2134,3354,2.547,-1.355,-0.17,89.8,blue,181,TRUE
381,1629264878.463,2889,2437,750,5.344,-1.284,-3.021,97.7,red,181,TRUE
382,1629264878.76,3939,2414,3354,2.236,-1.367,-0.514,91.8,blue,181,TRUE
383,1629264878.853,2863,2703,750,5.252,-1.301,-2.946,98.7,red,181,TRUE
384,1629264879.151,3924,2666,3354,1.994,-1.275,-0.636,85.8,blue,181,TRUE
385,1629264879.241,2856,2987,750,5.337,-1.288,-3.053,96.7,red,181,TRUE
386,1629264879.535,3894,2953,3354,2.183,-1.353,-0.151,79.8,blue,181,TRUE
387,1629264879.616,2846,3287,750,5.234,-1.252,-2.999,97.7,red,181,TRUE
388,1629264880.009,3744,3375,3354,2.114,-1.345,-0.293,85.8,blue,181,TRUE
389,1629264880.096,2832,3617,750,5.236,-1.253,-3.015,91.8,red,181,TRUE
390,1629264880.396,3700,3735,3354,1.778,-1.312,-0.436,85.8,blue,181,TRUE
391,1629264880.483,2786,3996,750,5.212,-1.247,-3.086,91.8,red,181,TRUE
392,1629264880.777,3631,4090,3354,1.72,-1.329,-0.32,79.8,blue,181,TRUE
393,1629264880.858,2761,4296,750,5.059,-1.278,-3.004,89.8,red,181,TRUE
394,1629264881.147,3524,4457,3354,1.678,-1.344,-0.23,88.8,blue,181,TRUE
395,1629264881.24,2746,4546,750,4.995,-1.332,-2.946,97.7,red,181,TRUE
396,1629264881.629,3461,4702,3354,1.564,-1.319,-0.252,78.8,blue,181,TRUE
397,1629264881.71,2694,4786,750,4.982,-1.345,-2.966,99.2,red,181,TRUE
398,1629264882.01,3422,4974,3354,1.598,-1.322,-0.184,85.8,blue,181,TRUE
399,1629264882.096,2617,5007,750,5.006,-1.348,-2.982,97.8,red,181,TRUE
400,1629264882.397,3368,5225,3354,1.634,-1.349,-0.2,92.8,blue,181,TRUE
401,1629264882.49,2564,5185,750,4.983,-1.348,-2.97,94.7,red,181,TRUE
402,1629264882.785,3295,5414,3354,1.608,-1.368,-0.195,98.7,blue,181,TRUE
403,1629264882.932,2529,5339,750,4.974,-1.348,-2.965,85.8,red,181,TRUE
404,1629264883.316,3220,5570,3354,1.596,-1.369,-0.127,87.8,blue,181,TRUE
405,1629264883.404,2500,5442,750,4.995,-1.348,-2.975,85.8,red,181,TRUE
406,1629264883.692,3212,5631,3354,1.587,-1.374,-0.113,91.8,blue,181,TRUE
407,1629264883.784,2509,5521,750,5.055,-1.347,-3.015,85.8,red,181,TRUE
408,1629264884.073,3206,5720,3354,1.59,-1.381,-0.153,85.8,blue,181,TRUE
409,1629264884.16,2496,5590,750,5.132,-1.34,-3.061,90.8,red,181,TRUE
410,1629264884.453,3189,5813,3354,1.604,-1.383,-0.166,89.8,blue,181,TRUE
411,1629264884.543,2491,5626,750,5.204,-1.328,-3.082,93.3,red,181,TRUE
412,1629264884.934,3186,5869,3354,1.604,-1.381,-0.154,90.8,blue,181,TRUE
413,1629264885.026,2489,5645,750,5.207,-1.306,-3.053,91.8,red,181,TRUE
414,1629264885.322,3186,5874,3354,1.602,-1.376,-0.166,97.7,blue,181,TRUE
415,1629264885.421,2493,5665,750,5.185,-1.309,-3.055,89.8,red,181,TRUE
416,1629264885.713,3161,5928,3354,1.6,-1.372,-0.172,97.7,blue,181,TRUE
417,1629264885.812,2488,5672,750,5.167,-1.309,-3.039,89.8,red,181,TRUE
418,1629264886.103,3213,5890,3354,1.598,-1.372,-0.19,84.8,blue,181,TRUE
419,1629264886.193,2490,5676,750,5.173,-1.306,-3.042,89.7,red,181,TRUE
420,1629264886.574,3219,5929,3354,1.6,-1.37,-0.177,87.8,blue,181,TRUE
421,1629264886.663,2499,5679,750,5.183,-1.307,-3.048,93.7,red,181,TRUE
422,1629264886.958,3184,5937,3354,1.597,-1.362,-0.217,91.8,blue,181,TRUE
423,1629264887.051,2499,5684,750,5.173,-1.308,-3.04,91.8,red,181,TRUE
424,1629264887.347,3196,5927,3354,1.597,-1.367,-0.24,92.8,blue,181,TRUE
425,1629264887.442,2503,5693,750,5.173,-1.309,-3.04,89.8,red,181,TRUE
426,1629264887.735,3195,5898,3354,1.598,-1.354,-0.231,91.8,blue,181,TRUE
427,1629264887.829,2497,5708,750,5.165,-1.309,-3.034,89.8,red,181,TRUE
428,1629264888.265,3190,5872,3354,1.608,-1.374,-0.261,89.8,blue,181,TRUE
429,1629264888.356,2486,5720,750,5.161,-1.309,-3.03,91.8,red,181,TRUE
430,1629264888.648,3153,5892,3354,1.612,-1.376,-0.283,100.7,blue,181,TRUE
431,1629264888.751,2481,5735,750,5.164,-1.308,-3.035,92.8,red,181,TRUE
432,1629264889.045,3111,5938,3354,1.64,-1.381,-0.23,90.8,blue,181,TRUE
433,1629264889.136,2479,5742,750,5.176,-1.307,-3.043,95.7,red,181,TRUE
434,1629264889.483,3105,5938,3354,1.653,-1.383,-0.218,85.8,blue,181,TRUE
435,1629264889.57,2469,5756,750,5.185,-1.307,-3.051,89.6,red,181,TRUE
436,1629264889.908,3117,5916,3354,1.659,-1.382,-0.214,85.8,blue,181,TRUE
437,1629264889.995,2467,5760,750,5.2,-1.307,-3.062,91.8,red,181,TRUE
438,1629264890.292,3113,5913,3354,1.662,-1.382,-0.213,85.8,blue,181,TRUE
439,1629264890.379,2467,5761,750,5.2,-1.307,-3.062,91.8,red,181,TRUE
440,1629264890.672,3125,5889,3354,1.664,-1.381,-0.204,85.8,blue,181,TRUE
441,1629264890.76,2455,5741,750,5.2,-1.307,-3.062,87.8,red,181,TRUE
442,1629264891.095,3097,5934,3354,1.661,-1.388,-0.224,86.8,blue,181,TRUE
443,1629264891.184,2456,5744,750,5.204,-1.307,-3.065,92.8,red,181,TRUE
444,1629264891.527,3053,5978,3354,1.652,-1.379,-0.197,89.8,blue,181,TRUE
445,1629264891.618,2449,5747,750,5.205,-1.307,-3.066,89.8,red,181,TRUE
446,1629264891.908,3053,5980,3354,1.647,-1.372,-0.185,92.8,blue,181,TRUE
447,1629264892.001,2453,5746,750,5.204,-1.307,-3.066,92.8,red,181,TRUE
448,1629264892.297,3033,5983,3354,1.646,-1.371,-0.184,97.7,blue,181,TRUE
449,1629264892.397,2455,5740,750,5.204,-1.307,-3.065,94.7,red,181,TRUE
450,1629264892.741,3035,5998,3354,1.646,-1.369,-0.181,91.8,blue,181,TRUE
451,1629264892.834,2455,5741,750,5.209,-1.305,-3.07,91.8,red,181,TRUE
452,1629264893.22,3047,6025,3354,1.643,-1.362,-0.173,98.7,blue,181,TRUE
453,1629264893.322,2459,5740,750,5.211,-1.305,-3.072,92.8,red,181,TRUE
454,1629264893.609,3043,6046,3354,1.643,-1.36,-0.175,98.7,blue,181,TRUE
455,1629264893.709,2455,5740,750,5.211,-1.306,-3.071,91.8,red,181,TRUE
456,1629264894.052,3026,6017,3354,1.647,-1.357,-0.182,94.7,blue,181,TRUE
457,1629264894.148,2452,5735,750,5.215,-1.308,-3.074,90.8,red,181,TRUE
458,1629264894.491,3020,5981,3354,1.656,-1.369,-0.19,78.8,blue,181,TRUE
459,1629264894.57,2455,5734,750,5.204,-1.307,-3.066,94.7,red,181,TRUE
460,1629264894.866,2999,5970,3354,1.657,-1.374,-0.194,92.7,blue,181,TRUE
461,1629264894.96,2458,5735,750,5.236,-1.306,-3.088,90.8,red,181,TRUE
462,1629264895.254,2999,5964,3354,1.655,-1.373,-0.171,83.8,blue,181,TRUE
463,1629264895.34,2456,5728,750,5.246,-1.305,-3.096,91.8,red,181,TRUE
464,1629264895.679,2970,5977,3354,1.658,-1.374,-0.172,90.8,blue,181,TRUE
465,1629264895.772,2471,5749,750,5.237,-1.304,-3.087,91.8,red,181,TRUE
466,1629264896.111,2951,5990,3354,1.658,-1.372,-0.185,91.8,blue,181,TRUE
467,1629264896.207,2471,5747,750,5.21,-1.3,-3.065,93.7,red,181,TRUE
468,1629264896.499,2951,5988,3354,1.655,-1.37,-0.19,86.8,blue,181,TRUE
469,1629264896.586,2473,5749,750,5.208,-1.297,-3.062,91.8,red,181,TRUE
470,1629264896.88,2938,5984,3354,1.656,-1.367,-0.18,84.8,blue,181,TRUE
471,1629264896.966,2476,5750,750,5.208,-1.295,-3.062,90.8,red,181,TRUE
472,1629264897.31,2932,5987,3354,1.659,-1.368,-0.175,91.7,blue,181,TRUE
473,1629264897.403,2476,5752,750,5.212,-1.29,-3.066,89.8,red,181,TRUE
474,1629264897.742,2932,5951,3354,1.66,-1.362,-0.176,85.8,blue,181,TRUE
475,1629264897.829,2477,5753,750,5.214,-1.289,-3.069,89.8,red,181,TRUE
476,1629264898.12,2912,5910,3354,1.661,-1.358,-0.175,86.8,blue,181,TRUE
477,1629264898.258,2477,5752,750,5.215,-1.285,-3.071,90.8,red,181,TRUE
478,1629264898.548,2922,5872,3354,1.671,-1.365,-0.196,78.8,blue,181,TRUE
479,1629264898.628,2477,5748,750,5.215,-1.286,-3.071,91.8,red,181,TRUE
480,1629264898.968,2937,5870,3354,1.669,-1.364,-0.217,85.8,blue,181,TRUE
481,1629264899.054,2477,5746,750,5.21,-1.286,-3.066,92.8,red,181,TRUE
482,1629264899.396,2940,5913,3354,1.665,-1.36,-0.23,90.8,blue,181,TRUE
483,1629264899.487,2474,5746,750,5.214,-1.286,-3.069,90.8,red,181,TRUE
484,1629264899.781,2959,5937,3354,1.661,-1.356,-0.244,89.7,blue,181,TRUE
485,1629264899.872,2474,5745,750,5.211,-1.289,-3.062,91.8,red,181,TRUE
486,1629264900.163,2944,5951,3354,1.666,-1.356,-0.25,91.8,blue,181,TRUE
487,1629264900.259,2478,5749,750,5.211,-1.293,-3.058,91.8,red,181,TRUE
488,1629264900.601,2950,5946,3354,1.67,-1.357,-0.244,92.8,blue,181,TRUE
489,1629264900.695,2482,5754,750,5.21,-1.293,-3.055,89.8,red,181,TRUE
490,1629264901.035,2956,5905,3354,1.673,-1.353,-0.229,94.7,blue,181,TRUE
491,1629264901.129,2482,5755,750,5.2,-1.293,-3.046,91.3,red,181,TRUE
492,1629264901.423,2961,5906,3354,1.673,-1.348,-0.226,93.7,blue,181,TRUE
493,1629264901.518,2481,5754,750,5.176,-1.292,-3.03,89.8,red,181,TRUE
494,1629264901.81,2966,5906,3354,1.674,-1.346,-0.224,86.8,blue,181,TRUE
495,1629264901.898,2481,5755,750,5.164,-1.292,-3.022,89.8,red,181,TRUE
496,1629264902.236,2982,5898,3354,1.676,-1.345,-0.224,85.8,blue,181,TRUE
497,1629264902.323,2481,5756,750,5.162,-1.292,-3.028,91.8,red,181,TRUE
498,1629264902.66,2993,5928,3354,1.677,-1.344,-0.22,85.8,blue,181,TRUE
499,1629264902.748,2479,5757,750,5.132,-1.284,-3.03,98.7,red,181,TRUE
500,1629264903.047,3002,5961,3354,1.668,-1.345,-0.219,94.7,blue,181,TRUE
501,1629264903.142,2479,5758,750,5.055,-1.262,-3.004,97.7,red,181,TRUE
502,1629264903.493,3009,6000,3354,1.662,-1.344,-0.221,91.8,blue,181,TRUE
503,1629264903.585,2482,5760,750,4.993,-1.247,-2.991,90.8,red,181,TRUE
504,1629264903.967,3013,6031,3354,1.664,-1.336,-0.218,90.8,blue,181,TRUE
505,1629264904.059,2485,5765,750,5.005,-1.247,-3.0,91.8,red,181,TRUE
506,1629264904.356,3017,6024,3354,1.666,-1.34,-0.223,85.8,blue,181,TRUE
507,1629264904.444,2484,5766,750,5.001,-1.245,-2.998,91.8,red,181,TRUE
508,1629264904.735,3016,6021,3354,1.664,-1.341,-0.232,85.8,blue,181,TRUE
509,1629264904.823,2480,5769,750,5.007,-1.246,-3.003,98.7,red,181,TRUE
510,1629264905.123,3078,5999,3354,1.666,-1.345,-0.24,79.8,blue,181,TRUE
511,1629264905.207,2469,5770,750,5.02,-1.246,-3.012,91.8,red,181,TRUE
512,1629264905.592,3088,5995,3354,1.673,-1.35,-0.231,86.8,blue,181,TRUE
513,1629264905.679,2462,5772,750,5.027,-1.253,-3.014,99.7,red,181,TRUE
514,1629264905.979,3099,6022,3354,1.679,-1.355,-0.216,87.8,blue,181,TRUE
515,1629264906.068,2457,5775,750,5.045,-1.257,-3.026,95.7,red,181,TRUE
516,1629264906.369,3096,6023,3354,1.688,-1.359,-0.207,85.8,blue,181,TRUE
517,1629264906.456,2453,5780,750,5.095,-1.254,-3.049,91.8,red,181,TRUE
518,1629264906.745,3089,6022,3354,1.69,-1.361,-0.201,94.7,blue,181,TRUE
519,1629264906.841,2451,5783,750,5.129,-1.252,-3.069,89.8,red,181,TRUE
520,1629264907.231,3070,6037,3354,1.694,-1.361,-0.206,90.8,blue,181,TRUE
521,1629264907.323,2450,5785,750,5.201,-1.26,-3.095,97.7,red,181,TRUE
522,1629264907.619,3051,6056,3354,1.696,-1.368,-0.216,91.8,blue,181,TRUE
523,1629264907.713,2450,5783,750,5.221,-1.259,-3.098,92.8,red,181,TRUE
524,1629264908.007,3028,6077,3354,1.7,-1.367,-0.214,91.8,blue,181,TRUE
525,1629264908.099,2452,5787,750,5.188,-1.258,-3.076,98.7,red,181,TRUE
526,1629264908.45,3020,6078,3354,1.708,-1.374,-0.208,85.8,blue,181,TRUE
527,1629264908.536,2453,5792,750,5.138,-1.252,-3.055,96.7,red,181,TRUE
528,1629264908.928,3020,6068,3354,1.717,-1.382,-0.207,85.8,blue,181,TRUE
529,1629264909.015,2453,5790,750,5.096,-1.249,-3.039,96.7,red,181,TRUE
530,1629264909.315,3031,6062,3354,1.717,-1.38,-0.214,86.8,blue,181,TRUE
531,1629264909.403,2463,5790,750,5.104,-1.249,-3.043,98.7,red,181,TRUE
532,1629264909.705,3025,6069,3354,1.72,-1.391,-0.248,91.8,blue,181,TRUE
533,1629264909.799,2469,5792,750,5.123,-1.249,-3.055,97.7,red,181,TRUE
534,1629264910.095,2973,6092,3354,1.724,-1.388,-0.255,92.8,blue,181,TRUE
535,1629264910.19,2473,5794,750,5.149,-1.248,-3.072,97.7,red,181,TRUE
536,1629264910.583,2985,6084,3354,1.728,-1.377,-0.236,85.8,blue,181,TRUE
537,1629264910.67,2476,5794,750,5.15,-1.247,-3.07,97.7,red,181,TRUE
538,1629264910.967,2984,6092,3354,1.717,-1.37,-0.215,92.8,blue,181,TRUE
539,1629264911.06,2480,5795,750,5.131,-1.241,-3.059,96.7,red,181,TRUE
540,1629264911.364,2986,6099,3354,1.69,-1.36,-0.206,91.8,blue,181,TRUE
541,1629264911.456,2478,5791,750,5.088,-1.236,-3.038,97.7,red,181,TRUE
542,1629264911.754,2979,6109,3354,1.688,-1.357,-0.194,93.7,blue,181,TRUE
543,1629264911.849,2477,5792,750,5.052,-1.237,-3.018,95.7,red,181,TRUE
544,1629264912.242,3003,6081,3354,1.691,-1.354,-0.196,85.8,blue,181,TRUE
545,1629264912.329,2478,5794,750,5.061,-1.242,-3.024,95.7,red,181,TRUE
546,1629264912.625,3027,6051,3354,1.679,-1.343,-0.193,91.8,blue,181,TRUE
547,1629264912.719,2479,5798,750,5.08,-1.246,-3.036,91.8,red,181,TRUE
548,1629264913.011,3053,6033,3354,1.674,-1.347,-0.206,85.8,blue,181,TRUE
549,1629264913.098,2476,5799,750,5.105,-1.247,-3.053,97.7,red,181,TRUE
550,1629264913.401,3041,6043,3354,1.692,-1.359,-0.201,91.3,blue,181,TRUE
551,1629264913.539,2481,5792,750,5.143,-1.248,-3.081,93.7,red,181,TRUE
552,1629264913.93,3045,6044,3354,1.713,-1.371,-0.19,86.8,blue,181,TRUE
553,1629264914.017,2476,5791,750,5.162,-1.25,-3.09,96.7,red,181,TRUE
554,1629264914.319,3030,6054,3354,1.715,-1.373,-0.194,85.8,blue,181,TRUE
555,1629264914.406,2475,5790,750,5.16,-1.25,-3.087,97.7,red,181,TRUE
556,1629264914.705,3036,6046,3354,1.706,-1.371,-0.215,85.8,blue,181,TRUE
557,1629264914.793,2479,5784,750,5.164,-1.251,-3.088,92.8,red,181,TRUE
558,1629264915.088,3037,6043,3354,1.712,-1.374,-0.22,85.8,blue,181,TRUE
559,1629264915.175,2493,5780,750,5.164,-1.25,-3.088,95.7,red,181,TRUE
560,1629264915.569,3025,6054,3354,1.715,-1.379,-0.216,84.8,blue,181,TRUE
561,1629264915.655,2494,5779,750,5.169,-1.25,-3.091,97.7,red,181,TRUE
562,1629264915.957,3025,6055,3354,1.716,-1.379,-0.219,86.8,blue,181,TRUE
563,1629264916.044,2491,5775,750,5.167,-1.252,-3.091,97.7,red,181,TRUE
564,1629264916.35,3014,6066,3354,1.721,-1.376,-0.221,93.8,blue,181,TRUE
565,1629264916.445,2499,5778,750,5.164,-1.251,-3.089,97.7,red,181,TRUE
566,1629264916.748,3020,6059,3354,1.719,-1.37,-0.232,85.8,blue,181,TRUE
567,1629264916.834,2503,5775,750,5.165,-1.251,-3.091,97.7,red,181,TRUE
568,1629264917.231,3017,6072,3354,1.705,-1.358,-0.247,94.7,blue,181,TRUE
569,1629264917.327,2502,5773,750,5.18,-1.249,-3.102,98.7,red,181,TRUE
570,1629264917.627,3001,6086,3354,1.7,-1.348,-0.253,91.8,blue,181,TRUE
571,1629264917.722,2503,5772,750,5.178,-1.246,-3.1,97.7,red,181,TRUE
572,1629264918.02,2999,6079,3354,1.697,-1.352,-0.255,90.8,blue,181,TRUE
573,1629264918.112,2502,5769,750,5.175,-1.247,-3.091,96.7,red,181,TRUE
574,1629264918.415,3022,6056,3354,1.701,-1.359,-0.259,86.8,blue,181,TRUE
575,1629264918.503,2494,5795,750,5.171,-1.248,-3.084,95.7,red,181,TRUE
576,1629264918.938,3026,6048,3354,1.704,-1.372,-0.26,86.8,blue,181,TRUE
577,1629264919.026,2494,5814,750,5.166,-1.248,-3.075,97.7,red,181,TRUE
578,1629264919.328,3018,6057,3354,1.708,-1.381,-0.266,92.8,blue,181,TRUE
579,1629264919.421,2489,5820,750,5.163,-1.249,-3.071,95.7,red,181,TRUE
580,1629264919.715,3007,6068,3354,1.713,-1.384,-0.264,91.8,blue,181,TRUE
581,1629264919.808,2483,5819,750,5.163,-1.25,-3.071,92.8,red,181,TRUE
582,1629264920.107,2998,6070,3354,1.712,-1.381,-0.266,90.8,blue,181,TRUE
583,1629264920.199,2472,5820,750,5.163,-1.251,-3.069,89.8,red,181,TRUE
584,1629264920.586,2975,6050,3354,1.705,-1.365,-0.259,91.8,blue,181,TRUE
585,1629264920.679,2477,5817,750,5.164,-1.254,-3.065,91.8,red,181,TRUE
586,1629264920.972,2975,6040,3354,1.714,-1.368,-0.276,84.8,blue,181,TRUE
587,1629264921.058,2476,5822,750,5.164,-1.253,-3.063,98.7,red,181,TRUE
588,1629264921.361,2981,6022,3354,1.714,-1.359,-0.273,84.8,blue,181,TRUE
589,1629264921.447,2476,5820,750,5.169,-1.251,-3.066,97.7,red,181,TRUE
590,1629264921.745,2987,6020,3354,1.724,-1.362,-0.266,88.8,blue,181,TRUE
591,1629264921.835,2480,5812,750,5.174,-1.252,-3.067,85.8,red,181,TRUE
592,1629264922.217,2982,6015,3354,1.727,-1.359,-0.275,86.8,blue,181,TRUE
593,1629264922.307,2491,5802,750,5.177,-1.252,-3.07,91.8,red,181,TRUE
594,1629264922.602,2984,6007,3354,1.715,-1.356,-0.279,84.8,blue,181,TRUE
595,1629264922.688,2488,5800,750,5.181,-1.251,-3.073,92.8,red,181,TRUE
596,1629264922.982,2981,6005,3354,1.705,-1.352,-0.273,84.8,blue,181,TRUE
597,1629264923.068,2487,5798,750,5.183,-1.252,-3.073,91.8,red,181,TRUE
598,1629264923.367,2960,6012,3354,1.707,-1.357,-0.265,85.8,blue,181,TRUE
599,1629264923.455,2494,5778,750,5.18,-1.253,-3.071,96.7,red,181,TRUE
600,1629264923.893,2966,6012,3354,1.724,-1.369,-0.257,84.8,blue,181,TRUE
601,1629264923.978,2496,5758,750,5.163,-1.254,-3.059,91.8,red,181,TRUE
602,1629264924.276,3004,5989,3354,1.721,-1.368,-0.25,84.8,blue,181,TRUE
603,1629264924.363,2498,5750,750,5.145,-1.256,-3.04,90.8,red,181,TRUE
604,1629264924.66,3014,5969,3354,1.724,-1.361,-0.215,87.8,blue,181,TRUE
605,1629264924.75,2502,5749,750,5.133,-1.253,-3.028,90.8,red,181,TRUE
606,1629264925.041,3021,5967,3354,1.694,-1.372,-0.175,85.8,blue,181,TRUE
607,1629264925.128,2501,5750,750,5.132,-1.25,-3.026,98.7,red,181,TRUE
608,1629264925.521,3048,5981,3354,1.65,-1.365,-0.128,85.8,blue,181,TRUE
609,1629264925.608,2494,5752,750,5.138,-1.252,-3.033,95.7,red,181,TRUE
610,1629264925.908,3064,5986,3354,1.616,-1.358,-0.134,91.8,blue,181,TRUE
611,1629264926.001,2502,5739,750,5.142,-1.253,-3.035,99.7,red,181,TRUE
612,1629264926.308,3062,6002,3354,1.605,-1.353,-0.143,97.7,blue,181,TRUE
613,1629264926.407,2499,5732,750,5.145,-1.253,-3.038,90.8,red,181,TRUE
614,1629264926.698,3111,5995,3354,1.597,-1.352,-0.147,92.8,blue,181,TRUE
615,1629264926.794,2490,5758,750,5.149,-1.253,-3.04,95.7,red,181,TRUE
616,1629264927.19,3080,6013,3354,1.585,-1.361,-0.156,97.7,blue,181,TRUE
617,1629264927.292,2484,5765,750,5.15,-1.252,-3.041,91.8,red,181,TRUE
618,1629264927.587,3090,6017,3354,1.582,-1.358,-0.166,91.8,blue,181,TRUE
619,1629264927.678,2484,5767,750,5.15,-1.252,-3.041,99.7,red,181,TRUE
620,1629264927.981,3115,5996,3354,1.587,-1.356,-0.165,91.8,blue,181,TRUE
621,1629264928.073,2483,5767,750,5.149,-1.252,-3.04,90.8,red,181,TRUE
622,1629264928.363,3137,5994,3354,1.586,-1.357,-0.156,98.7,blue,181,TRUE
623,1629264928.462,2475,5764,750,5.149,-1.252,-3.04,91.8,red,181,TRUE
624,1629264928.899,3127,5999,3354,1.602,-1.352,-0.149,95.7,blue,181,TRUE
625,1629264928.997,2468,5764,750,5.143,-1.251,-3.037,90.8,red,181,TRUE
626,1629264929.292,3100,6021,3354,1.612,-1.348,-0.143,98.7,blue,181,TRUE
627,1629264929.392,2463,5768,750,5.143,-1.251,-3.037,93.7,red,181,TRUE
628,1629264929.688,3080,6026,3354,1.608,-1.342,-0.145,97.7,blue,181,TRUE
629,1629264929.789,2466,5763,750,5.147,-1.252,-3.039,90.8,red,181,TRUE
630,1629264930.177,3074,6029,3354,1.617,-1.342,-0.152,96.7,blue,181,TRUE
631,1629264930.277,2467,5762,750,5.15,-1.254,-3.04,90.8,red,181,TRUE
632,1629264930.571,3049,6037,3354,1.621,-1.346,-0.17,97.7,blue,181,TRUE
633,1629264930.669,2467,5763,750,5.151,-1.259,-3.04,96.7,red,181,TRUE
634,1629264930.971,3014,6038,3354,1.623,-1.348,-0.166,96.7,blue,181,TRUE
635,1629264931.068,2453,5790,750,5.152,-1.261,-3.04,96.7,red,181,TRUE
636,1629264931.367,3012,6031,3354,1.623,-1.349,-0.167,91.8,blue,181,TRUE
637,1629264931.459,2451,5795,750,5.156,-1.266,-3.041,92.8,red,181,TRUE
638,1629264932.92,2983,6036,3354,1.62,-1.369,-0.152,85.8,blue,181,TRUE
639,1629264933.008,2453,5774,750,5.119,-1.273,-3.057,89.8,red,181,TRUE
640,1629264934.511,3054,6024,3354,1.645,-1.367,-0.062,85.8,blue,181,TRUE
641,1629264934.598,2444,5774,750,5.08,-1.307,-3.021,91.8,red,181,TRUE
642,1629264936.058,3058,6011,3354,1.643,-1.364,-0.122,85.8,blue,181,TRUE
643,1629264936.144,2447,5768,750,5.1,-1.31,-3.063,90.8,red,181,TRUE
644,1629264936.537,3035,6022,3354,1.637,-1.37,-0.143,84.8,blue,181,TRUE
645,1629264936.623,2448,5763,750,5.108,-1.309,-3.066,90.8,red,181,TRUE
646,1629264936.917,3027,6036,3354,1.645,-1.376,-0.131,86.3,blue,181,TRUE
647,1629264937.005,2452,5758,750,5.114,-1.308,-3.065,90.8,red,181,TRUE
648,1629264937.301,3044,5997,3354,1.644,-1.366,-0.141,85.8,blue,181,TRUE
649,1629264937.388,2460,5759,750,5.129,-1.308,-3.071,91.8,red,181,TRUE
650,1629264937.681,3041,5994,3354,1.643,-1.365,-0.141,86.8,blue,181,TRUE
651,1629264937.77,2463,5753,750,5.135,-1.308,-3.071,91.8,red,181,TRUE
652,1629264938.155,3057,5995,3354,1.636,-1.364,-0.142,83.8,blue,181,TRUE
653,1629264938.242,2459,5754,750,5.135,-1.308,-3.065,91.8,red,181,TRUE
654,1629264938.537,3090,5950,3354,1.64,-1.362,-0.141,85.8,blue,181,TRUE
655,1629264938.623,2464,5747,750,5.144,-1.311,-3.067,89.3,red,181,TRUE
656,1629264938.914,3115,5933,3354,1.641,-1.358,-0.14,84.8,blue,181,TRUE
657,1629264939.0,2468,5741,750,5.144,-1.31,-3.066,89.8,red,181,TRUE
658,1629264939.292,3158,5894,3354,1.642,-1.355,-0.139,92.8,blue,181,TRUE
659,1629264939.433,2475,5718,750,5.155,-1.31,-3.075,89.8,red,181,TRUE
660,1629264939.82,3216,5886,3354,1.648,-1.354,-0.143,92.8,blue,181,TRUE
661,1629264939.913,2479,5715,750,5.147,-1.308,-3.062,91.8,red,181,TRUE
662,1629264940.208,3239,5892,3354,1.648,-1.348,-0.14,84.8,blue,181,TRUE
663,1629264940.295,2482,5713,750,5.145,-1.307,-3.057,91.8,red,181,TRUE
664,1629264940.59,3239,5877,3354,1.655,-1.352,-0.147,92.8,blue,181,TRUE
665,1629264940.683,2490,5712,750,5.152,-1.306,-3.06,89.8,red,181,TRUE
666,1629264940.977,3230,5892,3354,1.665,-1.35,-0.147,85.8,blue,181,TRUE
667,1629264941.064,2492,5713,750,5.157,-1.305,-3.063,91.8,red,181,TRUE
668,1629264941.454,3234,5914,3354,1.666,-1.347,-0.142,85.8,blue,181,TRUE
669,1629264941.541,2494,5716,750,5.162,-1.307,-3.067,91.8,red,181,TRUE
670,1629264941.833,3237,5898,3354,1.666,-1.345,-0.141,87.8,blue,181,TRUE
671,1629264941.923,2500,5717,750,5.172,-1.308,-3.071,91.8,red,181,TRUE
672,1629264942.215,3220,5938,3354,1.668,-1.347,-0.145,98.7,blue,181,TRUE
673,1629264942.315,2500,5716,750,5.176,-1.304,-3.065,91.8,red,181,TRUE
674,1629264942.605,3230,5936,3354,1.677,-1.36,-0.157,84.8,blue,181,TRUE
675,1629264942.69,2501,5718,750,5.171,-1.311,-3.057,90.8,red,181,TRUE
676,1629264943.077,3244,5936,3354,1.684,-1.359,-0.157,84.8,blue,181,TRUE
677,1629264943.163,2500,5717,750,5.164,-1.313,-3.046,89.8,red,181,TRUE
678,1629264943.456,3226,5979,3354,1.678,-1.36,-0.167,85.8,blue,181,TRUE
679,1629264943.543,2496,5716,750,5.162,-1.314,-3.041,91.8,red,181,TRUE
680,1629264943.837,3224,5997,3354,1.679,-1.361,-0.175,93.8,blue,181,TRUE
681,1629264943.933,2495,5717,750,5.161,-1.32,-3.038,92.8,red,181,TRUE
682,1629264944.227,3196,6041,3354,1.681,-1.361,-0.173,88.8,blue,181,TRUE
683,1629264944.318,2496,5712,750,5.161,-1.323,-3.037,92.8,red,181,TRUE
684,1629264944.752,3142,6046,3354,1.681,-1.359,-0.172,87.8,blue,181,TRUE
685,1629264944.841,2494,5709,750,5.162,-1.328,-3.036,89.8,red,181,TRUE
686,1629264945.129,3078,6019,3354,1.682,-1.358,-0.172,86.8,blue,181,TRUE
687,1629264945.218,2501,5699,750,5.163,-1.33,-3.036,90.8,red,181,TRUE
688,1629264945.51,3035,6041,3354,1.682,-1.355,-0.169,85.8,blue,181,TRUE
689,1629264945.597,2501,5694,750,5.164,-1.33,-3.037,91.8,red,181,TRUE
690,1629264945.888,3030,6048,3354,1.681,-1.354,-0.171,84.8,blue,181,TRUE
691,1629264945.974,2498,5692,750,5.164,-1.33,-3.037,94.7,red,181,TRUE
692,1629264946.364,3014,6011,3354,1.681,-1.352,-0.169,79.3,blue,181,TRUE
693,1629264946.444,2495,5706,750,5.165,-1.329,-3.038,97.7,red,181,TRUE
694,1629264946.745,3019,6010,3354,1.681,-1.352,-0.172,85.8,blue,181,TRUE
695,1629264946.834,2489,5706,750,5.165,-1.325,-3.039,91.8,red,181,TRUE
696,1629264947.124,3029,6006,3354,1.682,-1.356,-0.171,86.8,blue,181,TRUE
697,1629264947.213,2489,5705,750,5.165,-1.325,-3.039,91.8,red,181,TRUE
698,1629264947.506,3030,5997,3354,1.676,-1.36,-0.182,87.8,blue,181,TRUE
699,1629264947.595,2488,5704,750,5.171,-1.324,-3.042,91.8,red,181,TRUE
700,1629264947.987,3032,5993,3354,1.671,-1.361,-0.166,84.8,blue,181,TRUE
701,1629264948.073,2491,5710,750,5.173,-1.329,-3.037,91.8,red,181,TRUE
702,1629264948.369,3037,5995,3354,1.676,-1.365,-0.167,84.8,blue,181,TRUE
703,1629264948.455,2492,5718,750,5.18,-1.33,-3.038,89.8,red,181,TRUE
704,1629264948.743,3047,5994,3354,1.677,-1.367,-0.165,85.8,blue,181,TRUE
705,1629264948.831,2493,5720,750,5.215,-1.324,-3.041,91.8,red,181,TRUE
706,1629264949.123,3048,5994,3354,1.704,-1.37,-0.227,85.8,blue,181,TRUE
707,1629264949.211,2496,5718,750,5.301,-1.319,-3.048,90.8,red,181,TRUE
708,1629264949.643,3051,5957,3354,2.412,-1.35,-0.23,81.8,blue,181,TRUE
709,1629264949.725,2501,5719,750,5.388,-1.278,-3.049,90.8,red,181,TRUE
710,1629264950.016,3088,5977,3354,2.893,-1.416,-0.279,91.8,blue,181,TRUE
711,1629264950.109,2493,5734,750,5.579,-1.23,-2.969,92.3,red,181,TRUE
712,1629264950.407,3140,5926,3354,3.546,-1.44,0.44,90.8,blue,181,TRUE
713,1629264950.499,2480,5718,750,5.865,-1.212,-2.934,85.8,red,181,TRUE
714,1629264950.785,3202,5896,3354,3.959,-1.412,0.425,96.7,blue,181,TRUE
715,1629264950.883,2471,5725,750,0.083,-1.223,3.129,89.8,red,181,TRUE
716,1629264951.272,3264,5890,3354,3.762,-1.392,-0.004,89.8,blue,181,TRUE
717,1629264951.362,2521,5776,750,0.201,-1.277,-3.003,98.7,red,181,TRUE
718,1629264951.662,3313,5859,3354,3.64,-1.373,-0.212,89.8,blue,181,TRUE
719,1629264951.753,2549,5804,750,0.268,-1.247,-2.809,93.7,red,181,TRUE
720,1629264952.046,3352,5813,3354,3.613,-1.38,-0.173,93.7,blue,181,TRUE
721,1629264952.141,2599,5838,750,0.422,-1.242,-2.831,96.8,red,181,TRUE
722,1629264952.44,3383,5793,3354,3.699,-1.419,0.0,84.8,blue,181,TRUE
723,1629264952.526,2667,5888,750,0.611,-1.201,-3.049,97.7,red,181,TRUE
724,1629264952.915,3465,5726,3354,3.826,-1.358,-0.092,91.3,blue,181,TRUE
725,1629264953.008,2737,5935,750,0.745,-1.188,3.133,97.7,red,181,TRUE
726,1629264953.312,3527,5708,3354,3.656,-1.378,-0.379,113.7,blue,181,TRUE
727,1629264953.426,2821,5975,750,0.613,-1.216,-3.049,95.7,red,181,TRUE
728,1629264953.726,3560,5616,3354,3.451,-1.368,-0.576,97.7,blue,181,TRUE
729,1629264953.826,2899,6016,750,0.513,-1.21,-3.017,97.7,red,181,TRUE
730,1629264954.218,3651,5587,3354,3.344,-1.396,-0.634,91.8,blue,181,TRUE
731,1629264954.313,2979,6079,750,0.471,-1.298,-2.982,97.7,red,181,TRUE
732,1629264954.61,3728,5589,3354,3.195,-1.369,-0.569,90.8,blue,181,TRUE
733,1629264954.749,3062,6138,750,0.527,-1.313,-3.011,95.7,red,181,TRUE
734,1629264955.044,3779,5549,3354,3.099,-1.36,-0.629,93.8,blue,181,TRUE
735,1629264955.139,3147,6188,750,0.54,-1.316,-3.016,96.7,red,181,TRUE
736,1629264955.533,3773,5515,3354,3.058,-1.366,-0.629,92.8,blue,181,TRUE
737,1629264955.625,3246,6266,750,0.53,-1.323,-3.028,96.7,red,181,TRUE
738,1629264955.925,3793,5515,3354,2.968,-1.35,-0.617,90.8,blue,181,TRUE
739,1629264956.016,3338,6321,750,0.456,-1.307,-2.998,97.7,red,181,TRUE
740,1629264956.318,3811,5538,3354,2.971,-1.355,-0.612,92.8,blue,181,TRUE
741,1629264956.412,3372,6313,750,0.409,-1.297,-2.979,95.7,red,181,TRUE
742,1629264956.706,3832,5542,3354,2.986,-1.353,-0.608,90.8,blue,181,TRUE
743,1629264956.799,3430,6345,750,0.468,-1.296,-2.992,96.7,red,181,TRUE
744,1629264957.191,3857,5563,3354,2.971,-1.343,-0.566,92.8,blue,181,TRUE
745,1629264957.288,3465,6373,750,0.489,-1.295,-2.992,96.7,red,181,TRUE
746,1629264957.585,3894,5556,3354,2.992,-1.337,-0.567,91.8,blue,181,TRUE
747,1629264957.676,3488,6380,750,0.499,-1.295,-2.997,90.8,red,181,TRUE
748,1629264957.967,3879,5594,3354,2.993,-1.337,-0.561,92.8,blue,181,TRUE
749,1629264958.06,3497,6389,750,0.497,-1.294,-2.994,97.7,red,181,TRUE
750,1629264958.359,3890,5591,3354,2.995,-1.336,-0.552,89.8,blue,181,TRUE
751,1629264958.45,3495,6401,750,0.509,-1.294,-3.003,97.7,red,181,TRUE
752,1629264958.839,3913,5658,3354,3.03,-1.347,-0.572,89.8,blue,181,TRUE
753,1629264958.93,3501,6418,750,0.512,-1.294,-3.005,97.7,red,181,TRUE
754,1629264959.225,3890,5649,3354,3.133,-1.369,-0.665,89.8,blue,181,TRUE
755,1629264959.318,3488,6414,750,0.517,-1.294,-3.01,95.7,red,181,TRUE
756,1629264959.614,3883,5643,3354,3.174,-1.372,-0.671,92.8,blue,181,TRUE
757,1629264959.707,3470,6405,750,0.53,-1.293,-3.017,96.7,red,181,TRUE
758,1629264960.149,3859,5603,3354,3.156,-1.374,-0.67,84.8,blue,181,TRUE
759,1629264960.236,3453,6403,750,0.561,-1.292,-3.034,98.7,red,181,TRUE
760,1629264960.538,3887,5640,3354,3.15,-1.368,-0.656,91.8,blue,181,TRUE
761,1629264960.631,3437,6396,750,0.559,-1.297,-3.034,98.7,red,181,TRUE
762,1629264960.933,3892,5634,3354,2.992,-1.352,-0.669,91.8,blue,181,TRUE
763,1629264961.026,3438,6392,750,0.557,-1.297,-3.036,98.7,red,181,TRUE
764,1629264961.327,3871,5560,3354,2.986,-1.346,-0.683,84.8,blue,181,TRUE
765,1629264961.412,3429,6379,750,0.479,-1.285,-3.017,96.7,red,181,TRUE
766,1629264961.8,3867,5562,3354,2.98,-1.349,-0.69,90.8,blue,181,TRUE
767,1629264961.891,3419,6369,750,0.466,-1.283,-3.025,98.7,red,181,TRUE
768,1629264962.191,3831,5519,3354,3.006,-1.359,-0.716,91.8,blue,181,TRUE
769,1629264962.287,3417,6362,750,0.521,-1.283,-3.042,98.7,red,181,TRUE
770,1629264962.586,3838,5493,3354,3.036,-1.37,-0.741,90.8,blue,181,TRUE
771,1629264962.678,3410,6360,750,0.53,-1.28,-3.05,98.8,red,181,TRUE
772,1629264962.977,3815,5497,3354,3.06,-1.374,-0.749,89.8,blue,181,TRUE
773,1629264963.068,3413,6357,750,0.542,-1.28,-3.059,95.7,red,181,TRUE
774,1629264963.462,3798,5482,3354,3.055,-1.367,-0.724,89.8,blue,181,TRUE
775,1629264963.554,3419,6356,750,0.551,-1.278,-3.057,95.7,red,181,TRUE
776,1629264963.85,3794,5477,3354,3.13,-1.372,-0.71,91.8,blue,181,TRUE
777,1629264963.943,3420,6350,750,0.539,-1.277,-3.039,97.7,red,181,TRUE
778,1629264964.241,3768,5424,3354,3.161,-1.371,-0.707,85.8,blue,181,TRUE
779,1629264964.329,3432,6358,750,0.536,-1.277,-3.034,96.7,red,181,TRUE
780,1629264964.626,3762,5425,3354,3.156,-1.367,-0.693,91.8,blue,181,TRUE
781,1629264964.719,3445,6370,750,0.543,-1.276,-3.033,95.7,red,181,TRUE
782,1629264965.154,3774,5478,3354,3.144,-1.366,-0.717,91.8,blue,181,TRUE
783,1629264965.248,3455,6376,750,0.548,-1.272,-3.035,97.7,red,181,TRUE
784,1629264965.548,3775,5472,3354,3.144,-1.361,-0.698,92.8,blue,181,TRUE
785,1629264965.641,3470,6382,750,0.556,-1.27,-3.041,97.3,red,181,TRUE
786,1629264965.942,3767,5452,3354,3.132,-1.356,-0.682,90.7,blue,181,TRUE
787,1629264966.034,3472,6382,750,0.56,-1.266,-3.039,97.7,red,181,TRUE
788,1629264966.384,3787,5533,3354,2.958,-1.356,-0.619,89.8,blue,181,TRUE
789,1629264966.475,3488,6390,750,0.561,-1.26,-3.037,96.7,red,181,TRUE
790,1629264966.82,3764,5509,3354,2.97,-1.357,-0.635,85.8,blue,181,TRUE
791,1629264966.906,3499,6396,750,0.555,-1.257,-3.028,97.7,red,181,TRUE
792,1629264967.206,3817,5543,3354,2.983,-1.362,-0.654,90.8,blue,181,TRUE
793,1629264967.3,3507,6399,750,0.552,-1.262,-3.022,95.7,red,181,TRUE
794,1629264967.599,3820,5571,3354,2.979,-1.357,-0.637,91.8,blue,181,TRUE
795,1629264967.691,3507,6401,750,0.553,-1.27,-3.018,95.7,red,181,TRUE
796,1629264968.036,3848,5571,3354,2.978,-1.354,-0.624,92.8,blue,181,TRUE
797,1629264968.13,3503,6398,750,0.552,-1.275,-3.015,97.7,red,181,TRUE
798,1629264968.478,3861,5570,3354,2.979,-1.355,-0.631,90.8,blue,181,TRUE
799,1629264968.571,3497,6394,750,0.552,-1.28,-3.013,99.7,red,181,TRUE
800,1629264968.871,3885,5557,3354,2.98,-1.356,-0.635,89.8,blue,181,TRUE
801,1629264968.962,3493,6393,750,0.553,-1.283,-3.012,97.7,red,181,TRUE
802,1629264969.257,3912,5629,3354,2.976,-1.356,-0.636,90.8,blue,181,TRUE
803,1629264969.35,3492,6389,750,0.561,-1.283,-3.016,97.0,red,181,TRUE
804,1629264969.696,3893,5609,3354,2.964,-1.356,-0.649,94.7,blue,181,TRUE
805,1629264969.793,3494,6385,750,0.574,-1.282,-3.023,95.7,red,181,TRUE
806,1629264970.183,3884,5586,3354,2.952,-1.356,-0.649,83.8,blue,181,TRUE
807,1629264970.271,3499,6383,750,0.575,-1.281,-3.023,97.7,red,181,TRUE
808,1629264970.568,3862,5580,3354,2.952,-1.348,-0.632,83.8,blue,181,TRUE
809,1629264970.653,3492,6377,750,0.573,-1.281,-3.022,97.7,red,181,TRUE
810,1629264970.997,3865,5605,3354,2.965,-1.338,-0.612,90.8,blue,181,TRUE
811,1629264971.088,3487,6377,750,0.573,-1.282,-3.021,97.7,red,181,TRUE
812,1629264971.386,3863,5600,3354,2.981,-1.332,-0.593,91.8,blue,181,TRUE
813,1629264971.479,3479,6380,750,0.573,-1.283,-3.021,96.7,red,181,TRUE
814,1629264971.822,3899,5662,3354,2.988,-1.321,-0.569,90.8,blue,181,TRUE
815,1629264971.914,3465,6372,750,0.573,-1.287,-3.018,96.7,red,181,TRUE
816,1629264972.214,3896,5682,3354,2.983,-1.317,-0.552,89.8,blue,181,TRUE
817,1629264972.308,3448,6363,750,0.574,-1.288,-3.018,95.7,red,181,TRUE
818,1629264972.653,3899,5721,3354,2.97,-1.317,-0.554,90.8,blue,181,TRUE
819,1629264972.744,3442,6358,750,0.577,-1.285,-3.022,99.7,red,181,TRUE
820,1629264973.047,3895,5722,3354,2.877,-1.37,-0.684,90.8,blue,181,TRUE
821,1629264973.137,3410,6342,750,0.573,-1.282,-3.019,97.7,red,181,TRUE
822,1629264973.487,3903,5715,3354,2.839,-1.377,-0.653,90.8,blue,181,TRUE
823,1629264973.579,3406,6349,750,0.557,-1.276,-3.01,97.7,red,181,TRUE
824,1629264973.878,3900,5750,3354,2.854,-1.364,-0.665,91.8,blue,181,TRUE
825,1629264973.971,3402,6351,750,0.548,-1.264,-3.007,97.7,red,181,TRUE
826,1629264974.321,3918,5791,3354,2.832,-1.36,-0.677,90.8,blue,181,TRUE
827,1629264974.412,3406,6354,750,0.537,-1.262,-3.001,98.7,red,181,TRUE
828,1629264974.713,3918,5794,3354,2.809,-1.364,-0.713,85.8,blue,181,TRUE
829,1629264974.801,3396,6339,750,0.54,-1.26,-3.005,96.3,red,181,TRUE
830,1629264975.191,3931,5801,3354,2.805,-1.373,-0.776,85.8,blue,181,TRUE
831,1629264975.279,3395,6338,750,0.544,-1.261,-3.007,95.7,red,181,TRUE
832,1629264975.624,3967,5817,3354,2.815,-1.383,-0.781,89.8,blue,181,TRUE
833,1629264975.715,3400,6340,750,0.549,-1.261,-3.011,97.7,red,181,TRUE
834,1629264976.017,3967,5811,3354,2.845,-1.392,-0.743,89.8,blue,181,TRUE
835,1629264976.108,3407,6344,750,0.548,-1.261,-3.01,97.7,red,181,TRUE
836,1629264976.456,3979,5792,3354,2.855,-1.391,-0.714,89.8,blue,181,TRUE
837,1629264976.547,3407,6346,750,0.566,-1.262,-3.017,99.7,red,181,TRUE
