,timestamp,x,y,z,yaw,roll,pitch,latency,student,session,success
0,1659999866,-1390,5003,750,0.53,0.038,0.216,90.4,red,219,TRUE
1,1659999866,-1290,5832,882,5.315,0.083,-0.013,89.1,yellow,219,TRUE
2,1659999866,-1651,5775,2526,4.59,0.019,0.036,83.4,green,219,TRUE
3,1659999868,-1386,5003,750,0.53,0.038,0.216,91.9,red,219,TRUE
4,1659999868,-1282,5835,882,5.315,0.083,-0.013,88.9,yellow,219,TRUE
5,1659999868,-1637,5764,2526,4.59,0.019,0.036,94.1,green,219,TRUE
6,1659999868,3033,-2574,3350,5.331,-0.869,-0.136,90.4,blue,219,TRUE
7,1659999868,-1381,5007,750,0.53,0.038,0.216,89.2,red,219,TRUE
8,1659999868,-1288,5834,882,5.315,0.083,-0.013,87.4,yellow,219,TRUE
9,1659999869,-1632,5761,2526,4.59,0.019,0.036,89.6,green,219,TRUE
10,1659999870,-1383,5008,750,0.53,0.038,0.216,91.8,red,219,TRUE
11,1659999870,-1299,5824,882,5.315,0.083,-0.013,84.5,yellow,219,TRUE
12,1659999870,-1599,5728,2526,4.59,0.019,0.036,81.5,green,219,TRUE
13,1659999872,-1384,5011,750,0.53,0.038,0.216,89.6,red,219,TRUE
14,1659999872,-1296,5824,882,5.315,0.083,-0.013,90.9,yellow,219,TRUE
15,1659999872,-1563,5683,2526,4.59,0.019,0.036,85,green,219,TRUE
16,1659999872,3025,-2558,3350,5.334,-1,-0.159,88.5,blue,219,TRUE
17,1659999872,-1388,5012,750,0.53,0.038,0.216,92.7,red,219,TRUE
18,1659999872,-1285,5824,882,5.315,0.083,-0.013,89.4,yellow,219,TRUE
19,1659999872,-1536,5649,2526,4.59,0.019,0.036,90.9,green,219,TRUE
20,1659999874,-1390,5014,750,0.53,0.038,0.216,91.5,red,219,TRUE
21,1659999874,-1286,5836,882,5.315,0.083,-0.013,87.4,yellow,219,TRUE
22,1659999875,-1401,5017,750,0.53,0.038,0.216,91.7,red,219,TRUE
23,1659999876,-1309,5827,882,5.315,0.083,-0.013,86.9,yellow,219,TRUE
24,1659999876,-1504,5657,2526,4.59,0.019,0.036,79.6,green,219,TRUE
25,1659999877,-1407,5020,750,0.53,0.038,0.216,88.1,red,219,TRUE
26,1659999877,-1278,5823,882,5.315,0.083,-0.013,85.8,yellow,219,TRUE
27,1659999877,-1538,5695,2526,4.59,0.019,0.036,83.4,green,219,TRUE
28,1659999877,2956,-2516,3350,5.317,-1.013,-0.202,87.2,blue,219,TRUE
29,1659999878,-1413,5021,750,0.53,0.038,0.216,88.6,red,219,TRUE
30,1659999878,-1281,5819,882,5.315,0.083,-0.013,76.4,yellow,219,TRUE
31,1659999878,-1530,5697,2526,4.59,0.019,0.036,88.4,green,219,TRUE
32,1659999879,-1413,5021,750,0.53,0.038,0.216,89,red,219,TRUE
33,1659999879,-1289,5819,882,5.315,0.083,-0.013,90.6,yellow,219,TRUE
34,1659999879,-1560,5731,2526,4.59,0.019,0.036,83.8,green,219,TRUE
35,1659999880,2967,-2493,3350,5.345,-0.997,-0.177,92.3,blue,219,TRUE
36,1659999880,-1412,5023,750,0.53,0.038,0.216,90.8,red,219,TRUE
37,1659999880,-1303,5824,882,5.315,0.083,-0.013,73.7,yellow,219,TRUE
38,1659999880,-1571,5740,2526,4.59,0.019,0.036,87.4,green,219,TRUE
39,1659999880,2959,-2480,3350,5.347,-0.987,-0.172,106.5,blue,219,TRUE
40,1659999880,-1411,5020,750,0.53,0.038,0.216,74.6,red,219,TRUE
41,1659999880,-1302,5820,882,5.315,0.083,-0.013,91.3,yellow,219,TRUE
42,1659999880,-1573,5741,2526,4.59,0.019,0.036,86.2,green,219,TRUE
43,1659999882,-1407,5022,750,0.53,0.038,0.216,79.5,red,219,TRUE
44,1659999882,-1291,5817,882,5.315,0.083,-0.013,94.3,yellow,219,TRUE
45,1659999882,-1573,5741,2526,4.59,0.019,0.036,78.2,green,219,TRUE
46,1659999882,2964,-2486,3350,5.349,-0.994,-0.179,104,blue,219,TRUE
47,1659999882,-1415,5023,750,0.53,0.038,0.216,88,red,219,TRUE
48,1659999883,-1297,5812,882,5.315,0.083,-0.013,89.9,yellow,219,TRUE
49,1659999883,-1587,5744,2526,4.59,0.019,0.036,78.5,green,219,TRUE
50,1659999884,-1417,5023,750,0.53,0.038,0.216,87.1,red,219,TRUE
51,1659999884,-1285,5819,882,5.315,0.083,-0.013,89.6,yellow,219,TRUE
52,1659999884,-1577,5740,2526,4.59,0.019,0.036,90.6,green,219,TRUE
53,1659999884,3010,-2502,3350,5.373,-0.938,-0.155,86.8,blue,219,TRUE
54,1659999885,-1422,5020,750,0.53,0.038,0.216,90.8,red,219,TRUE
55,1659999885,-1310,5821,882,5.315,0.083,-0.013,94,yellow,219,TRUE
56,1659999885,-1606,5768,2526,4.59,0.019,0.036,91.7,green,219,TRUE
57,1659999886,-1412,5011,750,0.53,0.038,0.216,86.6,red,219,TRUE
58,1659999886,-1311,5827,882,5.315,0.083,-0.013,90.6,yellow,219,TRUE
59,1659999886,-1634,5800,2526,4.59,0.019,0.036,96.1,green,219,TRUE
60,1659999887,3022,-2506,3350,5.376,-0.933,-0.151,91.1,blue,219,TRUE
61,1659999887,-1413,5009,750,0.53,0.038,0.216,91.8,red,219,TRUE
62,1659999887,-1320,5818,882,5.315,0.083,-0.013,73.3,yellow,219,TRUE
63,1659999887,-1652,5829,2526,4.59,0.019,0.036,87.9,green,219,TRUE
64,1659999887,3009,-2510,3350,5.372,-0.94,-0.134,89.1,blue,219,TRUE
65,1659999887,-1403,5006,750,0.53,0.038,0.216,90.3,red,219,TRUE
66,1659999887,-1285,5814,882,5.315,0.083,-0.013,90,yellow,219,TRUE
67,1659999887,-1643,5824,2526,4.59,0.019,0.036,86.2,green,219,TRUE
68,1659999888,3022,-2512,3350,5.38,-0.942,-0.13,90.4,blue,219,TRUE
69,1659999888,-1402,5017,750,0.53,0.038,0.216,89.8,red,219,TRUE
70,1659999888,-1277,5819,882,5.315,0.083,-0.013,86.7,yellow,219,TRUE
71,1659999888,-1613,5789,2526,4.59,0.019,0.036,91.3,green,219,TRUE
72,1659999888,3037,-2518,3350,5.343,-0.939,-0.132,105.5,blue,219,TRUE
73,1659999888,-1396,5019,750,0.53,0.038,0.216,88.9,red,219,TRUE
74,1659999889,-1283,5817,882,5.315,0.083,-0.013,88.6,yellow,219,TRUE
75,1659999889,-1611,5782,2526,4.59,0.019,0.036,88.2,green,219,TRUE
76,1659999889,3061,-2532,3350,5.328,-0.973,-0.132,105.1,blue,219,TRUE
77,1659999889,-1401,5023,750,0.53,0.038,0.216,87.3,red,219,TRUE
78,1659999889,-1283,5817,882,5.315,0.083,-0.013,74.4,yellow,219,TRUE
79,1659999889,-1606,5779,2526,4.59,0.019,0.036,87.4,green,219,TRUE
80,1659999890,-1410,5028,750,0.53,0.038,0.216,87.4,red,219,TRUE
81,1659999891,-1286,5831,882,5.315,0.083,-0.013,89.9,yellow,219,TRUE
82,1659999891,-1598,5771,2526,4.59,0.019,0.036,81.3,green,219,TRUE
83,1659999892,-1422,5035,750,0.53,0.038,0.216,88.7,red,219,TRUE
84,1659999892,-1286,5831,882,5.315,0.083,-0.013,72.6,yellow,219,TRUE
85,1659999892,-1596,5773,2526,4.59,0.019,0.036,78.7,green,219,TRUE
86,1659999894,-1429,5033,750,0.53,0.038,0.216,90.2,red,219,TRUE
87,1659999894,-1290,5824,882,5.315,0.083,-0.013,88.5,yellow,219,TRUE
88,1659999894,-1587,5772,2526,4.59,0.019,0.036,86,green,219,TRUE
89,1659999894,-1436,5033,750,0.53,0.038,0.216,75.1,red,219,TRUE
90,1659999894,-1291,5828,882,5.315,0.083,-0.013,91.2,yellow,219,TRUE
91,1659999894,-1555,5740,2526,4.59,0.019,0.036,91.6,green,219,TRUE
92,1659999895,-1445,5034,750,0.53,0.038,0.216,78,red,219,TRUE
93,1659999895,-1313,5836,882,5.315,0.083,-0.013,91.7,yellow,219,TRUE
94,1659999895,-1541,5711,2526,4.59,0.019,0.036,75.2,green,219,TRUE
95,1659999895,-1443,5038,750,0.53,0.038,0.216,85.5,red,219,TRUE
96,1659999895,-1318,5840,882,5.315,0.083,-0.013,89.6,yellow,219,TRUE
97,1659999895,-1534,5709,2526,4.59,0.019,0.036,89.2,green,219,TRUE
98,1659999896,-1448,5050,750,0.53,0.038,0.216,92.6,red,219,TRUE
99,1659999896,-1344,5835,882,5.315,0.083,-0.013,90.1,yellow,219,TRUE
100,1659999896,-1528,5709,2526,4.59,0.019,0.036,89.6,green,219,TRUE
101,1659999896,-1442,5051,750,0.53,0.038,0.216,85,red,219,TRUE
102,1659999896,-1340,5832,882,5.315,0.083,-0.013,74.1,yellow,219,TRUE
103,1659999896,-1526,5710,2526,4.59,0.019,0.036,89.1,green,219,TRUE
104,1659999897,-1447,5053,750,0.53,0.038,0.216,77.9,red,219,TRUE
105,1659999897,-1334,5828,882,5.315,0.083,-0.013,92.4,yellow,219,TRUE
106,1659999897,-1540,5724,2526,4.59,0.019,0.036,91.9,green,219,TRUE
107,1659999897,-1442,5040,750,0.53,0.038,0.216,91.7,red,219,TRUE
108,1659999897,-1322,5829,882,5.315,0.083,-0.013,87.6,yellow,219,TRUE
109,1659999897,-1570,5760,2526,4.59,0.019,0.036,89.1,green,219,TRUE
110,1659999898,-1444,5037,750,0.53,0.038,0.216,86.9,red,219,TRUE
111,1659999898,-1347,5835,882,5.315,0.083,-0.013,92.2,yellow,219,TRUE
112,1659999898,-1581,5763,2526,4.59,0.019,0.036,92.5,green,219,TRUE
113,1659999898,-1446,5038,750,0.53,0.038,0.216,86.2,red,219,TRUE
114,1659999898,-1360,5830,882,5.315,0.083,-0.013,87.5,yellow,219,TRUE
115,1659999898,-1555,5732,2526,4.59,0.019,0.036,87.6,green,219,TRUE
116,1659999899,-1435,5031,750,0.53,0.038,0.216,91.6,red,219,TRUE
117,1659999899,-1367,5832,882,5.315,0.083,-0.013,73.9,yellow,219,TRUE
118,1659999899,-1560,5735,2526,4.59,0.019,0.036,92,green,219,TRUE
119,1659999899,-1426,5028,750,0.53,0.038,0.216,89.3,red,219,TRUE
120,1659999899,-1374,5819,882,5.315,0.083,-0.013,75.2,yellow,219,TRUE
121,1659999899,-1536,5699,2526,4.59,0.019,0.036,74.5,green,219,TRUE
122,1659999899,-1428,5034,750,0.53,0.038,0.216,87.9,red,219,TRUE
123,1659999899,-1370,5823,882,5.315,0.083,-0.013,90.4,yellow,219,TRUE
124,1659999900,-1546,5699,2526,4.59,0.019,0.036,92.8,green,219,TRUE
125,1659999900,3087,-2556,3350,5.392,-0.873,-0.063,117.2,blue,219,TRUE
126,1659999900,-1413,5030,750,0.53,0.038,0.216,90,red,219,TRUE
127,1659999900,-1410,5804,882,5.315,0.083,-0.013,88.6,yellow,219,TRUE
128,1659999900,-1572,5731,2526,4.59,0.019,0.036,87.2,green,219,TRUE
129,1659999902,-1411,5029,750,0.53,0.038,0.216,89.8,red,219,TRUE
130,1659999902,-1391,5797,882,5.315,0.083,-0.013,88.8,yellow,219,TRUE
131,1659999902,-1568,5731,2526,4.59,0.019,0.036,80.6,green,219,TRUE
132,1659999903,-1408,5029,750,0.53,0.038,0.216,93.3,red,219,TRUE
133,1659999903,-1384,5803,882,5.315,0.083,-0.013,84.1,yellow,219,TRUE
134,1659999905,-1412,5024,750,0.53,0.038,0.216,92.1,red,219,TRUE
135,1659999905,-1354,5803,882,5.315,0.083,-0.013,91,yellow,219,TRUE
136,1659999905,-1564,5731,2526,4.59,0.019,0.036,97.5,green,219,TRUE
137,1659999905,-1418,5026,750,0.53,0.038,0.216,88.6,red,219,TRUE
138,1659999905,-1330,5804,882,5.315,0.083,-0.013,89.8,yellow,219,TRUE
139,1659999905,-1570,5736,2526,4.59,0.019,0.036,86.2,green,219,TRUE
140,1659999906,-1417,5027,750,0.53,0.038,0.216,78.1,red,219,TRUE
141,1659999906,-1332,5811,882,5.315,0.083,-0.013,89.5,yellow,219,TRUE
142,1659999906,-1580,5735,2526,4.59,0.019,0.036,88.2,green,219,TRUE
143,1659999906,-1418,5031,750,0.53,0.038,0.216,71.4,red,219,TRUE
144,1659999906,-1332,5810,882,5.315,0.083,-0.013,90.1,yellow,219,TRUE
145,1659999906,-1564,5723,2526,4.59,0.019,0.036,88.6,green,219,TRUE
146,1659999907,-1418,5036,750,0.53,0.038,0.216,92.4,red,219,TRUE
147,1659999907,-1318,5814,882,5.315,0.083,-0.013,91.9,yellow,219,TRUE
148,1659999907,-1547,5714,2526,4.59,0.019,0.036,90.1,green,219,TRUE
149,1659999907,-1414,5032,750,0.53,0.038,0.216,88,red,219,TRUE
150,1659999907,-1306,5817,882,5.315,0.083,-0.013,89.1,yellow,219,TRUE
151,1659999907,-1546,5714,2526,4.59,0.019,0.036,89.8,green,219,TRUE
152,1659999908,-1409,5032,750,0.53,0.038,0.216,93.9,red,219,TRUE
153,1659999908,-1289,5821,882,5.315,0.083,-0.013,92.5,yellow,219,TRUE
154,1659999908,-1562,5742,2526,4.59,0.019,0.036,90.3,green,219,TRUE
155,1659999908,-1406,5027,750,0.53,0.038,0.216,90.9,red,219,TRUE
156,1659999908,-1286,5823,882,5.315,0.083,-0.013,89.8,yellow,219,TRUE
157,1659999908,-1552,5743,2526,4.59,0.019,0.036,90,green,219,TRUE
158,1659999909,-1400,5021,750,0.53,0.038,0.216,93.1,red,219,TRUE
159,1659999909,-1279,5831,882,5.315,0.083,-0.013,88.7,yellow,219,TRUE
160,1659999909,-1579,5780,2526,4.59,0.019,0.036,89.9,green,219,TRUE
161,1659999909,-1407,5025,750,0.53,0.038,0.216,89.6,red,219,TRUE
162,1659999909,-1240,5846,882,5.315,0.083,-0.013,86.6,yellow,219,TRUE
163,1659999909,-1565,5777,2526,4.59,0.019,0.036,89.9,green,219,TRUE
164,1659999910,3010,-2462,3350,5.84,-1.353,-0.103,88.8,blue,219,TRUE
165,1659999910,-1459,5021,750,0.53,0.038,0.216,90.5,red,219,TRUE
166,1659999910,-1240,5846,882,5.315,0.083,-0.013,74.2,yellow,219,TRUE
167,1659999910,-1557,5776,2526,4.59,0.019,0.036,91.1,green,219,TRUE
168,1659999911,-1470,5012,750,0.53,0.038,0.216,90.7,red,219,TRUE
169,1659999911,-1251,5855,882,5.315,0.083,-0.013,87.6,yellow,219,TRUE
170,1659999912,-1576,5806,2526,4.59,0.019,0.036,93.3,green,219,TRUE
171,1659999912,3035,-2457,3350,5.527,-1.148,-0.26,90,blue,219,TRUE
172,1659999912,-1472,5009,750,0.53,0.038,0.216,73.3,red,219,TRUE
173,1659999912,-1256,5855,882,5.315,0.083,-0.013,85.7,yellow,219,TRUE
174,1659999912,-1582,5812,2526,4.59,0.019,0.036,89.5,green,219,TRUE
175,1659999913,-1471,5005,750,0.53,0.038,0.216,90.4,red,219,TRUE
176,1659999913,-1260,5861,882,5.315,0.083,-0.013,86,yellow,219,TRUE
177,1659999914,-1569,5801,2526,4.59,0.019,0.036,85.3,green,219,TRUE
178,1659999915,-1471,5006,750,0.53,0.038,0.216,89.9,red,219,TRUE
179,1659999915,-1262,5862,882,5.315,0.083,-0.013,86.7,yellow,219,TRUE
180,1659999915,-1560,5798,2526,4.59,0.019,0.036,95.6,green,219,TRUE
181,1659999915,3010,-2455,3350,5.538,-1.012,-0.242,88.2,blue,219,TRUE
182,1659999916,-1467,5005,750,0.53,0.038,0.216,86.9,red,219,TRUE
183,1659999916,-1267,5856,882,5.315,0.083,-0.013,89.2,yellow,219,TRUE
184,1659999916,-1599,5789,2526,4.59,0.019,0.036,89.9,green,219,TRUE
185,1659999917,-1466,5006,750,0.53,0.038,0.216,90.3,red,219,TRUE
186,1659999917,-1265,5860,882,5.315,0.083,-0.013,87,yellow,219,TRUE
187,1659999917,-1609,5791,2526,4.59,0.019,0.036,85.3,green,219,TRUE
188,1659999918,2967,-2455,3350,5.531,-1.02,-0.256,89.8,blue,219,TRUE
189,1659999918,-1474,5012,750,0.53,0.038,0.216,93.4,red,219,TRUE
190,1659999918,-1272,5858,882,5.315,0.083,-0.013,91.4,yellow,219,TRUE
191,1659999918,-1602,5791,2526,4.59,0.019,0.036,91,green,219,TRUE
192,1659999918,2950,-2453,3350,5.532,-1.013,-0.256,106.2,blue,219,TRUE
193,1659999918,-1481,5019,750,0.53,0.038,0.216,90,red,219,TRUE
194,1659999918,-1299,5852,882,5.315,0.083,-0.013,89.6,yellow,219,TRUE
195,1659999918,-1605,5792,2526,4.59,0.019,0.036,86.7,green,219,TRUE
196,1659999919,2932,-2443,3350,5.535,-0.992,-0.253,92.8,blue,219,TRUE
197,1659999919,-1485,5021,750,0.53,0.038,0.216,75.3,red,219,TRUE
198,1659999919,-1301,5853,882,5.315,0.083,-0.013,90.5,yellow,219,TRUE
199,1659999919,-1587,5759,2526,4.59,0.019,0.036,74.1,green,219,TRUE
200,1659999920,-1485,5021,750,0.53,0.038,0.216,88.9,red,219,TRUE
201,1659999920,-1284,5854,882,5.315,0.083,-0.013,86.7,yellow,219,TRUE
202,1659999921,-1561,5723,2526,4.59,0.019,0.036,81.4,green,219,TRUE
203,1659999922,-1511,5010,750,0.53,0.038,0.216,95.5,red,219,TRUE
204,1659999922,-1276,5852,882,5.315,0.083,-0.013,93.1,yellow,219,TRUE
205,1659999922,-1548,5698,2526,4.59,0.019,0.036,81.5,green,219,TRUE
206,1659999922,2872,-2412,3350,5.538,-1.021,-0.272,89.7,blue,219,TRUE
207,1659999922,-1520,5012,750,0.53,0.038,0.216,87,red,219,TRUE
208,1659999923,-1304,5851,882,5.315,0.083,-0.013,86.8,yellow,219,TRUE
209,1659999923,-1535,5670,2526,4.59,0.019,0.036,89.6,green,219,TRUE
210,1659999924,-1470,5016,750,0.53,0.038,0.216,74.2,red,219,TRUE
211,1659999924,-1289,5840,882,5.315,0.083,-0.013,89.1,yellow,219,TRUE
212,1659999924,-1541,5673,2526,4.59,0.019,0.036,95.5,green,219,TRUE
213,1659999924,2903,-2506,3350,5.536,-1.031,-0.327,91.8,blue,219,TRUE
214,1659999924,-1462,5031,750,0.53,0.038,0.216,83.9,red,219,TRUE
215,1659999925,-1272,5826,882,5.315,0.083,-0.013,73.9,yellow,219,TRUE
216,1659999925,-1548,5684,2526,4.59,0.019,0.036,93.1,green,219,TRUE
217,1659999925,2888,-2539,3350,5.538,-1.03,-0.326,88.7,blue,219,TRUE
218,1659999925,-1458,5028,750,0.53,0.038,0.216,87.9,red,219,TRUE
219,1659999925,-1275,5829,882,5.315,0.083,-0.013,89,yellow,219,TRUE
220,1659999925,-1563,5696,2526,4.59,0.019,0.036,92.4,green,219,TRUE
221,1659999926,2905,-2551,3350,5.537,-1.029,-0.309,86.7,blue,219,TRUE
222,1659999926,-1467,5028,750,0.53,0.038,0.216,73.6,red,219,TRUE
223,1659999926,-1266,5822,882,5.315,0.083,-0.013,77.9,yellow,219,TRUE
224,1659999926,-1565,5699,2526,4.59,0.019,0.036,92.8,green,219,TRUE
225,1659999926,2911,-2557,3350,5.57,-0.897,-0.26,131.9,blue,219,TRUE
226,1659999926,-1472,5031,750,0.53,0.038,0.216,88.2,red,219,TRUE
227,1659999926,-1313,5854,882,5.315,0.083,-0.013,92.9,yellow,219,TRUE
228,1659999926,-1515,5682,2526,4.59,0.019,0.036,90.9,green,219,TRUE
229,1659999928,-1480,5033,750,0.53,0.038,0.216,88.9,red,219,TRUE
230,1659999928,-1314,5848,882,5.315,0.083,-0.013,90.3,yellow,219,TRUE
231,1659999928,-1509,5683,2526,4.59,0.019,0.036,85.1,green,219,TRUE
232,1659999928,2931,-2568,3350,5.547,-1.022,-0.359,117.4,blue,219,TRUE
233,1659999928,-1483,5031,750,0.53,0.038,0.216,92,red,219,TRUE
234,1659999928,-1330,5850,882,5.315,0.083,-0.013,90.4,yellow,219,TRUE
235,1659999928,-1524,5708,2526,4.59,0.019,0.036,90.3,green,219,TRUE
236,1659999929,2934,-2572,3350,5.558,-1.03,-0.333,92.1,blue,219,TRUE
237,1659999929,-1477,5025,750,0.53,0.038,0.216,74.4,red,219,TRUE
238,1659999929,-1300,5856,882,5.315,0.083,-0.013,88.8,yellow,219,TRUE
239,1659999929,-1540,5743,2526,4.59,0.019,0.036,90.1,green,219,TRUE
240,1659999929,2958,-2596,3350,5.563,-1.031,-0.328,90.4,blue,219,TRUE
241,1659999929,-1483,5019,750,0.53,0.038,0.216,72.7,red,219,TRUE
242,1659999929,-1322,5850,882,5.315,0.083,-0.013,87,yellow,219,TRUE
243,1659999930,-1568,5786,2526,4.59,0.019,0.036,89.3,green,219,TRUE
244,1659999930,2965,-2602,3350,5.567,-1.026,-0.325,89.9,blue,219,TRUE
245,1659999930,-1486,5022,750,0.53,0.038,0.216,87.2,red,219,TRUE
246,1659999930,-1322,5850,882,5.315,0.083,-0.013,74.7,yellow,219,TRUE
247,1659999930,-1595,5820,2526,4.59,0.019,0.036,91.3,green,219,TRUE
248,1659999930,2967,-2621,3350,5.567,-1.029,-0.308,90.6,blue,219,TRUE
249,1659999931,-1473,5034,750,0.53,0.038,0.216,84.5,red,219,TRUE
250,1659999931,-1331,5838,882,5.315,0.083,-0.013,74.8,yellow,219,TRUE
251,1659999931,-1613,5851,2526,4.59,0.019,0.036,92.4,green,219,TRUE
252,1659999931,3002,-2636,3350,5.571,-1.022,-0.311,87.5,blue,219,TRUE
253,1659999931,-1464,5036,750,0.53,0.038,0.216,89.7,red,219,TRUE
254,1659999931,-1368,5843,882,5.315,0.083,-0.013,92.9,yellow,219,TRUE
255,1659999931,-1626,5874,2526,4.59,0.019,0.036,91.9,green,219,TRUE
256,1659999932,3004,-2649,3350,5.573,-1.045,-0.312,85.2,blue,219,TRUE
257,1659999932,-1463,5042,750,0.53,0.038,0.216,90.8,red,219,TRUE
258,1659999932,-1343,5846,882,5.315,0.083,-0.013,91.3,yellow,219,TRUE
259,1659999932,-1637,5875,2526,4.59,0.019,0.036,91.1,green,219,TRUE
260,1659999932,3018,-2652,3350,5.581,-1.067,-0.32,89.1,blue,219,TRUE
261,1659999932,-1471,5040,750,0.53,0.038,0.216,91.3,red,219,TRUE
262,1659999932,-1343,5846,882,5.315,0.083,-0.013,72.4,yellow,219,TRUE
263,1659999932,-1643,5877,2526,4.59,0.019,0.036,91,green,219,TRUE
264,1659999933,3017,-2645,3350,5.583,-1.059,-0.321,88.7,blue,219,TRUE
265,1659999933,-1481,5042,750,0.53,0.038,0.216,92.2,red,219,TRUE
266,1659999933,-1348,5856,882,5.315,0.083,-0.013,91.5,yellow,219,TRUE
267,1659999933,-1661,5905,2526,4.59,0.019,0.036,90.5,green,219,TRUE
268,1659999933,3027,-2647,3350,5.587,-1.053,-0.301,78.3,blue,219,TRUE
269,1659999933,-1499,5056,750,0.53,0.038,0.216,85.6,red,219,TRUE
270,1659999933,-1373,5862,882,5.315,0.083,-0.013,76.3,yellow,219,TRUE
271,1659999933,-1652,5892,2526,4.59,0.019,0.036,86.3,green,219,TRUE
272,1659999934,3062,-2664,3350,5.597,-1.054,-0.309,91.6,blue,219,TRUE
273,1659999934,-1495,5054,750,0.53,0.038,0.216,75.7,red,219,TRUE
274,1659999934,-1393,5853,882,5.315,0.083,-0.013,88.7,yellow,219,TRUE
275,1659999934,-1665,5908,2526,4.59,0.019,0.036,88.2,green,219,TRUE
276,1659999934,3111,-2683,3350,5.599,-1.05,-0.307,81.7,blue,219,TRUE
277,1659999934,-1526,5084,750,0.53,0.038,0.216,90.7,red,219,TRUE
278,1659999934,-1421,5861,882,5.315,0.083,-0.013,72.8,yellow,219,TRUE
279,1659999935,-1675,5913,2526,4.59,0.019,0.036,89.1,green,219,TRUE
280,1659999935,3117,-2684,3350,5.6,-1.052,-0.309,88.4,blue,219,TRUE
281,1659999935,-1531,5089,750,0.53,0.038,0.216,88.5,red,219,TRUE
282,1659999935,-1366,5828,882,5.315,0.083,-0.013,86,yellow,219,TRUE
283,1659999935,-1639,5853,2526,4.59,0.019,0.036,90,green,219,TRUE
284,1659999935,3150,-2696,3350,5.599,-1.048,-0.324,90.4,blue,219,TRUE
285,1659999935,-1532,5090,750,0.53,0.038,0.216,90.5,red,219,TRUE
286,1659999936,-1381,5828,882,5.315,0.083,-0.013,84.5,yellow,219,TRUE
287,1659999936,-1639,5825,2526,4.59,0.019,0.036,87.6,green,219,TRUE
288,1659999936,3139,-2687,3350,5.597,-1.055,-0.311,90.5,blue,219,TRUE
289,1659999936,-1526,5094,750,0.53,0.038,0.216,88.9,red,219,TRUE
290,1659999936,-1366,5825,882,5.315,0.083,-0.013,91,yellow,219,TRUE
291,1659999936,-1639,5815,2526,4.59,0.019,0.036,92.3,green,219,TRUE
292,1659999936,3166,-2707,3350,5.6,-1.066,-0.313,88.7,blue,219,TRUE
293,1659999937,-1519,5093,750,0.53,0.038,0.216,86.4,red,219,TRUE
294,1659999937,-1373,5822,882,5.315,0.083,-0.013,88.4,yellow,219,TRUE
295,1659999937,-1641,5820,2526,4.59,0.019,0.036,91.9,green,219,TRUE
296,1659999937,3175,-2712,3350,5.601,-1.066,-0.313,88.1,blue,219,TRUE
297,1659999937,-1510,5095,750,0.53,0.038,0.216,91.5,red,219,TRUE
298,1659999937,-1358,5826,882,5.315,0.083,-0.013,91.7,yellow,219,TRUE
299,1659999937,-1637,5813,2526,4.59,0.019,0.036,88.5,green,219,TRUE
300,1659999938,3177,-2721,3350,5.6,-1.079,-0.323,88.8,blue,219,TRUE
301,1659999938,-1511,5095,750,0.53,0.038,0.216,93.6,red,219,TRUE
302,1659999938,-1371,5837,882,5.315,0.083,-0.013,85.5,yellow,219,TRUE
303,1659999938,-1615,5785,2526,4.59,0.019,0.036,88.5,green,219,TRUE
304,1659999938,3186,-2732,3350,5.601,-1.08,-0.323,91.6,blue,219,TRUE
305,1659999938,-1501,5087,750,0.53,0.038,0.216,92.1,red,219,TRUE
306,1659999938,-1356,5825,882,5.315,0.083,-0.013,91.1,yellow,219,TRUE
307,1659999938,-1600,5781,2526,4.59,0.019,0.036,88.2,green,219,TRUE
308,1659999939,3173,-2728,3350,5.603,-1.077,-0.326,89.2,blue,219,TRUE
309,1659999939,-1491,5080,750,0.53,0.038,0.216,90.6,red,219,TRUE
310,1659999939,-1380,5822,882,5.315,0.083,-0.013,90.9,yellow,219,TRUE
311,1659999939,-1581,5765,2526,4.59,0.019,0.036,89.1,green,219,TRUE
312,1659999939,3156,-2719,3350,5.605,-1.065,-0.324,91.8,blue,219,TRUE
313,1659999939,-1474,5079,750,0.53,0.038,0.216,90.2,red,219,TRUE
314,1659999939,-1400,5815,882,5.315,0.083,-0.013,90.3,yellow,219,TRUE
315,1659999940,-1550,5726,2526,4.59,0.019,0.036,85,green,219,TRUE
316,1659999940,3165,-2723,3350,5.579,-1.058,-0.322,90,blue,219,TRUE
317,1659999940,-1448,5070,750,0.53,0.038,0.216,89.4,red,219,TRUE
318,1659999940,-1378,5822,882,5.315,0.083,-0.013,88.1,yellow,219,TRUE
319,1659999940,-1555,5737,2526,4.59,0.019,0.036,90.6,green,219,TRUE
320,1659999940,3148,-2717,3350,5.562,-1.058,-0.324,90.6,blue,219,TRUE
321,1659999940,-1454,5075,750,0.53,0.038,0.216,85.8,red,219,TRUE
322,1659999942,-1555,5747,2526,4.59,0.019,0.036,91,green,219,TRUE
323,1659999942,3118,-2707,3350,5.549,-1.074,-0.337,89,blue,219,TRUE
324,1659999942,-1414,5040,750,0.53,0.038,0.216,87.1,red,219,TRUE
325,1659999942,-1372,5824,882,5.315,0.083,-0.013,90.2,yellow,219,TRUE
326,1659999942,-1546,5742,2526,4.59,0.019,0.036,91.8,green,219,TRUE
327,1659999942,3101,-2703,3350,5.55,-1.07,-0.336,89.3,blue,219,TRUE
328,1659999943,-1402,5035,750,0.53,0.038,0.216,87.3,red,219,TRUE
329,1659999943,-1356,5823,882,5.315,0.083,-0.013,88.8,yellow,219,TRUE
330,1659999943,-1566,5762,2526,4.59,0.019,0.036,92.1,green,219,TRUE
331,1659999943,3080,-2693,3350,5.552,-1.065,-0.326,88.7,blue,219,TRUE
332,1659999943,-1397,5034,750,0.53,0.038,0.216,87.9,red,219,TRUE
333,1659999943,-1360,5831,882,5.315,0.083,-0.013,94.8,yellow,219,TRUE
334,1659999943,-1563,5761,2526,4.59,0.019,0.036,91.5,green,219,TRUE
335,1659999944,3078,-2687,3350,5.573,-1.082,-0.252,91.1,blue,219,TRUE
336,1659999944,-1394,5028,750,0.53,0.038,0.216,89.6,red,219,TRUE
337,1659999944,-1344,5835,882,5.315,0.083,-0.013,92.7,yellow,219,TRUE
338,1659999944,-1552,5756,2526,4.59,0.019,0.036,89.9,green,219,TRUE
339,1659999944,3044,-2671,3350,5.58,-1.076,-0.257,88.7,blue,219,TRUE
340,1659999944,-1393,5029,750,0.53,0.038,0.216,91.2,red,219,TRUE
341,1659999944,-1357,5828,882,5.315,0.083,-0.013,91.4,yellow,219,TRUE
342,1659999944,-1552,5752,2526,4.59,0.019,0.036,88,green,219,TRUE
343,1659999945,3026,-2663,3350,5.583,-1.077,-0.257,92,blue,219,TRUE
344,1659999945,-1397,5026,750,0.53,0.038,0.216,88.1,red,219,TRUE
345,1659999945,-1356,5834,882,5.315,0.083,-0.013,89.4,yellow,219,TRUE
346,1659999945,-1551,5756,2526,4.59,0.019,0.036,89,green,219,TRUE
347,1659999945,2986,-2640,3350,5.583,-1.091,-0.264,77.6,blue,219,TRUE
348,1659999945,-1398,5022,750,0.53,0.038,0.216,90.1,red,219,TRUE
349,1659999945,-1365,5832,882,5.315,0.083,-0.013,89.6,yellow,219,TRUE
350,1659999946,-1577,5784,2526,4.59,0.019,0.036,86.3,green,219,TRUE
351,1659999946,2949,-2627,3350,5.583,-1.089,-0.264,88.9,blue,219,TRUE
352,1659999946,-1402,5026,750,0.53,0.038,0.216,89.4,red,219,TRUE
353,1659999946,-1358,5839,882,5.315,0.083,-0.013,87.2,yellow,219,TRUE
354,1659999946,-1577,5783,2526,4.59,0.019,0.036,90.5,green,219,TRUE
355,1659999946,2915,-2616,3350,5.589,-1.078,-0.272,90.2,blue,219,TRUE
356,1659999946,-1404,5033,750,0.53,0.038,0.216,87.4,red,219,TRUE
357,1659999947,-1349,5850,882,5.315,0.083,-0.013,88.9,yellow,219,TRUE
358,1659999947,-1571,5769,2526,4.59,0.019,0.036,87.7,green,219,TRUE
359,1659999947,2923,-2619,3350,5.562,-1.079,-0.296,90.1,blue,219,TRUE
360,1659999947,-1406,5033,750,0.53,0.038,0.216,86.9,red,219,TRUE
361,1659999947,-1328,5854,882,5.315,0.083,-0.013,89.2,yellow,219,TRUE
362,1659999947,-1586,5773,2526,4.59,0.019,0.036,91.5,green,219,TRUE
363,1659999948,2909,-2611,3350,5.567,-1.078,-0.291,85.8,blue,219,TRUE
364,1659999948,-1402,5030,750,0.53,0.038,0.216,89.6,red,219,TRUE
365,1659999948,-1316,5856,882,5.315,0.083,-0.013,93,yellow,219,TRUE
366,1659999948,-1588,5774,2526,4.59,0.019,0.036,88.8,green,219,TRUE
367,1659999948,2910,-2611,3350,5.567,-1.09,-0.292,88.1,blue,219,TRUE
368,1659999948,-1396,5028,750,0.53,0.038,0.216,90.9,red,219,TRUE
369,1659999948,-1337,5852,882,5.315,0.083,-0.013,92.4,yellow,219,TRUE
370,1659999948,-1599,5779,2526,4.59,0.019,0.036,88.4,green,219,TRUE
371,1659999949,2904,-2611,3350,5.565,-1.11,-0.301,90.5,blue,219,TRUE
372,1659999949,-1400,5034,750,0.53,0.038,0.216,91,red,219,TRUE
373,1659999949,-1332,5851,882,5.315,0.083,-0.013,92.2,yellow,219,TRUE
374,1659999949,-1611,5786,2526,4.59,0.019,0.036,90.3,green,219,TRUE
375,1659999949,2892,-2596,3350,5.618,-1.095,-0.185,77.7,blue,219,TRUE
376,1659999949,-1402,5033,750,0.53,0.038,0.216,92.3,red,219,TRUE
377,1659999949,-1333,5850,882,5.315,0.083,-0.013,90.8,yellow,219,TRUE
378,1659999949,-1609,5797,2526,4.59,0.019,0.036,90.1,green,219,TRUE
379,1659999951,-1409,5035,750,0.53,0.038,0.216,90.4,red,219,TRUE
380,1659999951,-1342,5841,882,5.315,0.083,-0.013,90.1,yellow,219,TRUE
381,1659999951,-1641,5788,2526,4.59,0.019,0.036,80.2,green,219,TRUE
382,1659999951,2893,-2595,3350,5.612,-1.071,-0.25,92.7,blue,219,TRUE
383,1659999951,-1409,5034,750,0.53,0.038,0.216,90.8,red,219,TRUE
384,1659999951,-1344,5841,882,5.315,0.083,-0.013,90.1,yellow,219,TRUE
385,1659999952,-1654,5792,2526,4.59,0.019,0.036,85.3,green,219,TRUE
386,1659999952,2886,-2599,3350,5.616,-1.077,-0.255,90.4,blue,219,TRUE
387,1659999952,-1411,5032,750,0.53,0.038,0.216,88.5,red,219,TRUE
388,1659999952,-1320,5849,882,5.315,0.083,-0.013,88.9,yellow,219,TRUE
389,1659999952,-1648,5789,2526,4.59,0.019,0.036,89.9,green,219,TRUE
390,1659999952,2890,-2594,3350,5.618,-1.069,-0.244,90,blue,219,TRUE
391,1659999952,-1405,5029,750,0.53,0.038,0.216,89.8,red,219,TRUE
392,1659999953,-1334,5841,882,5.315,0.083,-0.013,85.9,yellow,219,TRUE
393,1659999953,-1658,5790,2526,4.59,0.019,0.036,87.8,green,219,TRUE
394,1659999953,2894,-2591,3350,5.619,-1.062,-0.239,90.6,blue,219,TRUE
395,1659999953,-1412,5035,750,0.53,0.038,0.216,86.6,red,219,TRUE
396,1659999953,-1322,5841,882,5.315,0.083,-0.013,88.9,yellow,219,TRUE
397,1659999953,-1664,5794,2526,4.59,0.019,0.036,77.3,green,219,TRUE
398,1659999953,2906,-2591,3350,5.62,-1.06,-0.24,89.1,blue,219,TRUE
399,1659999954,-1420,5041,750,0.53,0.038,0.216,87.9,red,219,TRUE
400,1659999954,-1320,5837,882,5.315,0.083,-0.013,89.9,yellow,219,TRUE
401,1659999954,-1666,5793,2526,4.59,0.019,0.036,91.3,green,219,TRUE
402,1659999954,2918,-2585,3350,5.62,-1.064,-0.243,89,blue,219,TRUE
403,1659999954,-1421,5039,750,0.53,0.038,0.216,90.3,red,219,TRUE
404,1659999954,-1308,5835,882,5.315,0.083,-0.013,91.1,yellow,219,TRUE
405,1659999954,-1684,5813,2526,4.59,0.019,0.036,89.8,green,219,TRUE
406,1659999955,2915,-2584,3350,5.62,-1.079,-0.251,88.2,blue,219,TRUE
407,1659999955,-1432,5042,750,0.53,0.038,0.216,89.5,red,219,TRUE
408,1659999955,-1319,5832,882,5.315,0.083,-0.013,91.9,yellow,219,TRUE
409,1659999955,-1679,5810,2526,4.59,0.019,0.036,87.9,green,219,TRUE
410,1659999955,2880,-2569,3350,5.622,-1.079,-0.255,89.9,blue,219,TRUE
411,1659999955,-1435,5039,750,0.53,0.038,0.216,91.8,red,219,TRUE
412,1659999955,-1334,5824,882,5.315,0.083,-0.013,91.4,yellow,219,TRUE
413,1659999955,-1689,5815,2526,4.59,0.019,0.036,90.1,green,219,TRUE
414,1659999956,2858,-2557,3350,5.624,-1.066,-0.251,122.8,blue,219,TRUE
415,1659999956,-1433,5041,750,0.53,0.038,0.216,88.1,red,219,TRUE
416,1659999957,-1660,5782,2526,4.59,0.019,0.036,88,green,219,TRUE
417,1659999957,2842,-2549,3350,5.6,-1.032,-0.242,90.8,blue,219,TRUE
418,1659999957,-1439,5041,750,0.53,0.038,0.216,88.7,red,219,TRUE
419,1659999958,-1312,5829,882,5.315,0.083,-0.013,86.9,yellow,219,TRUE
420,1659999958,-1697,5775,2526,4.59,0.019,0.036,86.1,green,219,TRUE
421,1659999958,2830,-2542,3350,5.586,-1.055,-0.252,89.4,blue,219,TRUE
422,1659999958,-1464,5082,750,0.53,0.038,0.216,88.6,red,219,TRUE
423,1659999958,-1294,5829,882,5.315,0.083,-0.013,89.4,yellow,219,TRUE
424,1659999958,-1712,5783,2526,4.59,0.019,0.036,90.6,green,219,TRUE
425,1659999960,-1456,5079,750,0.53,0.038,0.216,87,red,219,TRUE
426,1659999960,-1319,5832,882,5.315,0.083,-0.013,86.3,yellow,219,TRUE
427,1659999960,-1676,5790,2526,4.59,0.019,0.036,84.8,green,219,TRUE
428,1659999961,-1463,5085,750,0.53,0.038,0.216,88.7,red,219,TRUE
429,1659999961,-1325,5836,882,5.315,0.083,-0.013,75.2,yellow,219,TRUE
430,1659999961,-1676,5791,2526,4.59,0.019,0.036,83.4,green,219,TRUE
431,1659999963,-1462,5089,750,0.53,0.038,0.216,88.9,red,219,TRUE
432,1659999963,-1342,5832,882,5.315,0.083,-0.013,88.2,yellow,219,TRUE
433,1659999963,-1677,5789,2526,4.59,0.019,0.036,83.9,green,219,TRUE
434,1659999963,-1474,5096,750,0.53,0.038,0.216,92.4,red,219,TRUE
435,1659999963,-1344,5833,882,5.315,0.083,-0.013,92.1,yellow,219,TRUE
436,1659999963,-1685,5799,2526,4.59,0.019,0.036,90.6,green,219,TRUE
437,1659999964,-1463,5095,750,0.53,0.038,0.216,84.5,red,219,TRUE
438,1659999964,-1331,5837,882,5.315,0.083,-0.013,77.4,yellow,219,TRUE
439,1659999964,-1688,5805,2526,4.59,0.019,0.036,91.3,green,219,TRUE
440,1659999964,-1453,5087,750,0.53,0.038,0.216,93.7,red,219,TRUE
441,1659999964,-1344,5833,882,5.315,0.083,-0.013,92.3,yellow,219,TRUE
442,1659999964,-1697,5812,2526,4.59,0.019,0.036,95.3,green,219,TRUE
443,1659999965,-1456,5088,750,0.53,0.038,0.216,88.3,red,219,TRUE
444,1659999965,-1332,5833,882,5.315,0.083,-0.013,90.5,yellow,219,TRUE
445,1659999965,-1698,5812,2526,4.59,0.019,0.036,89.8,green,219,TRUE
446,1659999965,-1446,5092,750,0.53,0.038,0.216,92.7,red,219,TRUE
447,1659999965,-1349,5823,882,5.315,0.083,-0.013,91.4,yellow,219,TRUE
448,1659999965,-1704,5815,2526,4.59,0.019,0.036,91.3,green,219,TRUE
449,1659999966,-1448,5099,750,0.53,0.038,0.216,85.6,red,219,TRUE
450,1659999966,-1332,5827,882,5.315,0.083,-0.013,90.8,yellow,219,TRUE
451,1659999966,-1709,5802,2526,4.59,0.019,0.036,78.5,green,219,TRUE
452,1659999966,-1446,5090,750,0.53,0.038,0.216,92,red,219,TRUE
453,1659999966,-1327,5831,882,5.315,0.083,-0.013,92.9,yellow,219,TRUE
454,1659999966,-1783,5837,2526,4.59,0.019,0.036,91.6,green,219,TRUE
455,1659999967,-1441,5088,750,0.53,0.038,0.216,84.3,red,219,TRUE
456,1659999967,-1355,5827,882,5.315,0.083,-0.013,89.3,yellow,219,TRUE
457,1659999967,-1747,5848,2526,4.59,0.019,0.036,93.2,green,219,TRUE
458,1659999967,-1421,5051,750,0.53,0.038,0.216,86.2,red,219,TRUE
459,1659999967,-1364,5833,882,5.315,0.083,-0.013,92,yellow,219,TRUE
460,1659999967,-1734,5836,2526,4.59,0.019,0.036,91.2,green,219,TRUE
461,1659999968,-1426,5050,750,0.53,0.038,0.216,88.7,red,219,TRUE
462,1659999968,-1342,5837,882,5.315,0.083,-0.013,89,yellow,219,TRUE
463,1659999968,-1734,5838,2526,4.59,0.019,0.036,92,green,219,TRUE
464,1659999968,-1416,5047,750,0.53,0.038,0.216,84.2,red,219,TRUE
465,1659999968,-1339,5833,882,5.315,0.083,-0.013,77.5,yellow,219,TRUE
466,1659999968,-1732,5837,2526,4.59,0.019,0.036,92.4,green,219,TRUE
467,1659999969,-1426,5052,750,0.53,0.038,0.216,87.1,red,219,TRUE
468,1659999969,-1336,5834,882,5.315,0.083,-0.013,86.2,yellow,219,TRUE
469,1659999969,-1732,5842,2526,4.59,0.019,0.036,89.3,green,219,TRUE
470,1659999969,2904,-2584,3350,5.613,-1.054,-0.324,88.3,blue,219,TRUE
471,1659999969,-1412,5052,750,0.53,0.038,0.216,86.3,red,219,TRUE
472,1659999969,-1338,5834,882,5.315,0.083,-0.013,89.9,yellow,219,TRUE
473,1659999969,-1733,5821,2526,4.59,0.019,0.036,93.4,green,219,TRUE
474,1659999970,2926,-2596,3350,5.616,-1.045,-0.32,87.6,blue,219,TRUE
475,1659999970,-1413,5052,750,0.53,0.038,0.216,85.4,red,219,TRUE
476,1659999970,-1335,5834,882,5.315,0.083,-0.013,90,yellow,219,TRUE
477,1659999970,-1730,5819,2526,4.59,0.019,0.036,90.4,green,219,TRUE
478,1659999970,2933,-2597,3350,5.617,-1.038,-0.316,89.8,blue,219,TRUE
479,1659999970,-1417,5051,750,0.53,0.038,0.216,92.7,red,219,TRUE
480,1659999970,-1762,5810,2526,4.59,0.019,0.036,89.8,green,219,TRUE
481,1659999971,2946,-2603,3350,5.598,-1.007,-0.311,103.1,blue,219,TRUE
482,1659999971,-1407,5044,750,0.53,0.038,0.216,88.9,red,219,TRUE
483,1659999971,-1483,5676,882,5.315,0.083,-0.013,89.2,yellow,219,TRUE
484,1659999971,-1759,5807,2526,4.59,0.019,0.036,90.2,green,219,TRUE
485,1659999971,2968,-2612,3350,5.589,-1.009,-0.311,76.6,blue,219,TRUE
486,1659999971,-1407,5039,750,0.53,0.038,0.216,93.8,red,219,TRUE
487,1659999971,-1469,5679,882,5.315,0.083,-0.013,86.5,yellow,219,TRUE
488,1659999972,-1756,5805,2526,4.59,0.019,0.036,87.7,green,219,TRUE
489,1659999972,2997,-2614,3350,5.57,-1.023,-0.314,104.2,blue,219,TRUE
490,1659999972,-1404,5033,750,0.53,0.038,0.216,89.7,red,219,TRUE
491,1659999972,-1490,5675,882,5.315,0.083,-0.013,75.6,yellow,219,TRUE
492,1659999972,-1758,5852,2526,4.59,0.019,0.036,86.9,green,219,TRUE
493,1659999973,-1407,5035,750,0.53,0.038,0.216,90.5,red,219,TRUE
494,1659999974,-1476,5681,882,5.315,0.083,-0.013,88.1,yellow,219,TRUE
495,1659999974,-1704,5843,2526,4.59,0.019,0.036,96.8,green,219,TRUE
496,1659999974,3030,-2626,3350,5.568,-1.053,-0.322,90,blue,219,TRUE
497,1659999974,-1409,5030,750,0.53,0.038,0.216,90.4,red,219,TRUE
498,1659999974,-1465,5677,882,5.315,0.083,-0.013,73.9,yellow,219,TRUE
499,1659999974,-1703,5839,2526,4.59,0.019,0.036,90.1,green,219,TRUE
500,1659999974,3037,-2628,3350,5.568,-1.047,-0.317,89.7,blue,219,TRUE
501,1659999975,-1413,5028,750,0.53,0.038,0.216,87.5,red,219,TRUE
502,1659999975,-1481,5675,882,5.315,0.083,-0.013,74.9,yellow,219,TRUE
503,1659999975,-1703,5849,2526,4.59,0.019,0.036,86.5,green,219,TRUE
504,1659999975,3050,-2629,3350,5.568,-1.035,-0.317,91.9,blue,219,TRUE
505,1659999975,-1403,5028,750,0.53,0.038,0.216,87.7,red,219,TRUE
506,1659999975,-1488,5667,882,5.315,0.083,-0.013,75,yellow,219,TRUE
507,1659999975,-1695,5844,2526,4.59,0.019,0.036,91.2,green,219,TRUE
508,1659999975,3067,-2629,3350,5.568,-1.025,-0.317,86.7,blue,219,TRUE
509,1659999976,-1409,5028,750,0.53,0.038,0.216,89.4,red,219,TRUE
510,1659999976,-1486,5667,882,5.315,0.083,-0.013,72.9,yellow,219,TRUE
511,1659999976,-1685,5886,2526,4.59,0.019,0.036,89.1,green,219,TRUE
512,1659999977,-1398,5022,750,0.53,0.038,0.216,89.9,red,219,TRUE
513,1659999977,-1474,5675,882,5.315,0.083,-0.013,88.5,yellow,219,TRUE
514,1659999977,-1656,5856,2526,4.59,0.019,0.036,85.3,green,219,TRUE
515,1659999978,3036,-2609,3350,5.569,-1.06,-0.32,87.2,blue,219,TRUE
516,1659999978,-1409,5013,750,0.53,0.038,0.216,89,red,219,TRUE
517,1659999978,-1476,5679,882,5.315,0.083,-0.013,91.1,yellow,219,TRUE
518,1659999978,-1671,5905,2526,4.59,0.019,0.036,87,green,219,TRUE
519,1659999978,3035,-2612,3350,5.573,-1.065,-0.331,87.1,blue,219,TRUE
520,1659999978,-1410,5015,750,0.53,0.038,0.216,90.2,red,219,TRUE
521,1659999978,-1499,5678,882,5.315,0.083,-0.013,76.9,yellow,219,TRUE
522,1659999978,-1669,5900,2526,4.59,0.019,0.036,90.2,green,219,TRUE
523,1659999979,2999,-2598,3350,5.572,-1.054,-0.332,88.9,blue,219,TRUE
524,1659999979,-1405,5009,750,0.53,0.038,0.216,91.5,red,219,TRUE
525,1659999979,-1352,5835,882,5.315,0.083,-0.013,85.2,yellow,219,TRUE
526,1659999979,-1644,5922,2526,4.59,0.019,0.036,89,green,219,TRUE
527,1659999979,2990,-2596,3350,5.564,-1.033,-0.331,89.7,blue,219,TRUE
528,1659999979,-1415,5010,750,0.53,0.038,0.216,91.2,red,219,TRUE
529,1659999979,-1328,5829,882,5.315,0.083,-0.013,89.9,yellow,219,TRUE
530,1659999979,-1642,5921,2526,4.59,0.019,0.036,88.9,green,219,TRUE
531,1659999980,2986,-2603,3350,5.565,-1.042,-0.324,88.2,blue,219,TRUE
532,1659999980,-1412,5006,750,0.53,0.038,0.216,88.9,red,219,TRUE
533,1659999980,-1352,5834,882,5.315,0.083,-0.013,90.9,yellow,219,TRUE
534,1659999980,-1640,5920,2526,4.59,0.019,0.036,89.9,green,219,TRUE
535,1659999980,2982,-2603,3350,5.56,-1.061,-0.333,91.7,blue,219,TRUE
536,1659999980,-1416,5009,750,0.53,0.038,0.216,89.5,red,219,TRUE
537,1659999980,-1344,5836,882,5.315,0.083,-0.013,90.7,yellow,219,TRUE
538,1659999981,-1631,5886,2526,4.59,0.019,0.036,85.4,green,219,TRUE
539,1659999982,-1415,5010,750,0.53,0.038,0.216,92.4,red,219,TRUE
540,1659999982,-1344,5836,882,5.315,0.083,-0.013,72.8,yellow,219,TRUE
541,1659999982,-1646,5894,2526,4.59,0.019,0.036,80.8,green,219,TRUE
542,1659999982,2958,-2588,3350,5.567,-1.009,-0.317,89.1,blue,219,TRUE
543,1659999982,-1415,5010,750,0.53,0.038,0.216,90.6,red,219,TRUE
544,1659999983,-1367,5816,882,5.315,0.083,-0.013,87.8,yellow,219,TRUE
545,1659999983,-1648,5896,2526,4.59,0.019,0.036,89.8,green,219,TRUE
546,1659999983,2955,-2587,3350,5.574,-0.918,-0.275,105.4,blue,219,TRUE
547,1659999983,-1406,5007,750,0.53,0.038,0.216,87.5,red,219,TRUE
548,1659999983,-1351,5822,882,5.315,0.083,-0.013,90.4,yellow,219,TRUE
549,1659999983,-1651,5887,2526,4.59,0.019,0.036,92.2,green,219,TRUE
550,1659999984,2930,-2570,3350,5.567,-0.948,-0.289,87.2,blue,219,TRUE
551,1659999984,-1413,5004,750,0.53,0.038,0.216,74.8,red,219,TRUE
552,1659999984,-1356,5820,882,5.315,0.083,-0.013,74,yellow,219,TRUE
553,1659999984,-1663,5902,2526,4.59,0.019,0.036,89.5,green,219,TRUE
554,1659999984,2929,-2571,3350,5.56,-0.983,-0.305,86.9,blue,219,TRUE
555,1659999984,-1408,5003,750,0.53,0.038,0.216,88.9,red,219,TRUE
556,1659999984,-1340,5816,882,5.315,0.083,-0.013,78.5,yellow,219,TRUE
557,1659999984,-1670,5856,2526,4.59,0.019,0.036,91.8,green,219,TRUE
558,1659999985,2918,-2564,3350,5.563,-0.99,-0.312,87.2,blue,219,TRUE
559,1659999985,-1409,4997,750,0.53,0.038,0.216,91,red,219,TRUE
560,1659999985,-1328,5819,882,5.315,0.083,-0.013,89.4,yellow,219,TRUE
561,1659999985,-1714,5913,2526,4.59,0.019,0.036,89.1,green,219,TRUE
562,1659999985,2918,-2559,3350,5.565,-0.984,-0.309,103.9,blue,219,TRUE
563,1659999985,-1407,4997,750,0.53,0.038,0.216,91.3,red,219,TRUE
564,1659999985,-1328,5819,882,5.315,0.083,-0.013,89.1,yellow,219,TRUE
565,1659999985,-1700,5893,2526,4.59,0.019,0.036,91.8,green,219,TRUE
566,1659999986,2935,-2563,3350,5.576,-0.972,-0.308,88.5,blue,219,TRUE
567,1659999986,-1403,4988,750,0.53,0.038,0.216,90,red,219,TRUE
568,1659999986,-1341,5810,882,5.315,0.083,-0.013,88.1,yellow,219,TRUE
569,1659999986,-1708,5911,2526,4.59,0.019,0.036,89.7,green,219,TRUE
570,1659999986,2938,-2560,3350,5.564,-0.956,-0.314,92,blue,219,TRUE
571,1659999986,-1415,4986,750,0.53,0.038,0.216,91.2,red,219,TRUE
572,1659999986,-1341,5806,882,5.315,0.083,-0.013,90.2,yellow,219,TRUE
573,1659999987,-1705,5900,2526,4.59,0.019,0.036,86.7,green,219,TRUE
574,1659999987,2933,-2557,3350,5.562,-0.95,-0.305,106.6,blue,219,TRUE
575,1659999987,-1408,4984,750,0.53,0.038,0.216,87.5,red,219,TRUE
576,1659999987,-1319,5808,882,5.315,0.083,-0.013,90,yellow,219,TRUE
577,1659999987,-1715,5906,2526,4.59,0.019,0.036,86.9,green,219,TRUE
578,1659999987,2921,-2550,3350,5.56,-0.961,-0.305,90.5,blue,219,TRUE
579,1659999987,-1422,4984,750,0.53,0.038,0.216,89.3,red,219,TRUE
580,1659999988,-1318,5811,882,5.315,0.083,-0.013,89.7,yellow,219,TRUE
581,1659999988,-1726,5926,2526,4.59,0.019,0.036,89,green,219,TRUE
582,1659999988,2911,-2539,3350,5.56,-0.964,-0.308,89.2,blue,219,TRUE
583,1659999988,-1427,4979,750,0.53,0.038,0.216,89.7,red,219,TRUE
584,1659999988,-1318,5807,882,5.315,0.083,-0.013,74.8,yellow,219,TRUE
585,1659999988,-1732,5936,2526,4.59,0.019,0.036,92.3,green,219,TRUE
586,1659999988,2898,-2534,3350,5.561,-0.96,-0.302,89,blue,219,TRUE
587,1659999989,-1428,4977,750,0.53,0.038,0.216,88,red,219,TRUE
588,1659999989,-1321,5801,882,5.315,0.083,-0.013,89.4,yellow,219,TRUE
589,1659999989,-1724,5936,2526,4.59,0.019,0.036,90.2,green,219,TRUE
590,1659999989,2916,-2544,3350,5.561,-0.966,-0.308,89.8,blue,219,TRUE
591,1659999989,-1424,4976,750,0.53,0.038,0.216,88.7,red,219,TRUE
592,1659999989,-1329,5826,882,5.315,0.083,-0.013,92.6,yellow,219,TRUE
593,1659999989,-1728,5947,2526,4.59,0.019,0.036,92.4,green,219,TRUE
594,1659999990,2939,-2560,3350,5.568,-0.97,-0.322,88.8,blue,219,TRUE
595,1659999990,-1424,4976,750,0.53,0.038,0.216,88.3,red,219,TRUE
596,1659999990,-1335,5836,882,5.315,0.083,-0.013,88.4,yellow,219,TRUE
597,1659999990,-1738,5962,2526,4.59,0.019,0.036,86.4,green,219,TRUE
598,1659999991,-1430,4979,750,0.53,0.038,0.216,90.2,red,219,TRUE
599,1659999991,-1344,5840,882,5.315,0.083,-0.013,89.4,yellow,219,TRUE
600,1659999991,-1746,5968,2526,4.59,0.019,0.036,84.2,green,219,TRUE
601,1659999992,3000,-2594,3350,5.558,-0.968,-0.326,89.1,blue,219,TRUE
602,1659999992,-1433,4979,750,0.53,0.038,0.216,88.4,red,219,TRUE
603,1659999992,-1326,5848,882,5.315,0.083,-0.013,87.5,yellow,219,TRUE
604,1659999992,-1723,5939,2526,4.59,0.019,0.036,90.5,green,219,TRUE
605,1659999992,3056,-2621,3350,5.559,-0.971,-0.328,78,blue,219,TRUE
606,1659999992,-1433,4982,750,0.53,0.038,0.216,89.7,red,219,TRUE
607,1659999992,-1331,5857,882,5.315,0.083,-0.013,89.7,yellow,219,TRUE
608,1659999993,-1712,5917,2526,4.59,0.019,0.036,86.9,green,219,TRUE
609,1659999993,3114,-2651,3350,5.559,-0.969,-0.328,91.7,blue,219,TRUE
610,1659999993,-1432,4983,750,0.53,0.038,0.216,88.2,red,219,TRUE
611,1659999993,-1342,5854,882,5.315,0.083,-0.013,89.1,yellow,219,TRUE
612,1659999993,-1707,5907,2526,4.59,0.019,0.036,86.7,green,219,TRUE
613,1659999993,3168,-2680,3350,5.56,-0.964,-0.325,90.6,blue,219,TRUE
614,1659999993,-1434,4984,750,0.53,0.038,0.216,89.9,red,219,TRUE
615,1659999994,-1340,5850,882,5.315,0.083,-0.013,88.4,yellow,219,TRUE
616,1659999994,-1705,5897,2526,4.59,0.019,0.036,90.1,green,219,TRUE
617,1659999994,3206,-2698,3350,5.56,-0.962,-0.321,86.7,blue,219,TRUE
618,1659999994,-1428,4983,750,0.53,0.038,0.216,89.1,red,219,TRUE
619,1659999994,-1344,5852,882,5.315,0.083,-0.013,88.7,yellow,219,TRUE
620,1659999994,-1718,5921,2526,4.59,0.019,0.036,89.2,green,219,TRUE
621,1659999994,3244,-2717,3350,5.56,-0.963,-0.321,88.9,blue,219,TRUE
622,1659999995,-1426,4987,750,0.53,0.038,0.216,87.5,red,219,TRUE
623,1659999995,-1336,5845,882,5.315,0.083,-0.013,73.5,yellow,219,TRUE
624,1659999995,-1701,5907,2526,4.59,0.019,0.036,92.3,green,219,TRUE
625,1659999995,3300,-2741,3350,5.558,-0.976,-0.326,86.9,blue,219,TRUE
626,1659999995,-1419,4990,750,0.53,0.038,0.216,87.8,red,219,TRUE
627,1659999995,-1362,5840,882,5.315,0.083,-0.013,88.8,yellow,219,TRUE
628,1659999995,-1690,5890,2526,4.59,0.019,0.036,92.1,green,219,TRUE
629,1659999997,-1410,4993,750,0.53,0.038,0.216,89.1,red,219,TRUE
630,1659999997,-1362,5840,882,5.315,0.083,-0.013,74.4,yellow,219,TRUE
631,1659999997,-1673,5868,2526,4.59,0.019,0.036,82.1,green,219,TRUE
632,1659999997,3332,-2753,3350,5.559,-0.965,-0.316,88,blue,219,TRUE
633,1659999997,-1409,4994,750,0.53,0.038,0.216,89.4,red,219,TRUE
634,1659999997,-1362,5840,882,5.315,0.083,-0.013,78.6,yellow,219,TRUE
635,1659999997,-1679,5871,2526,4.59,0.019,0.036,91.6,green,219,TRUE
636,1659999998,3357,-2762,3350,5.559,-0.96,-0.312,101.1,blue,219,TRUE
637,1659999998,-1406,4995,750,0.53,0.038,0.216,88.8,red,219,TRUE
638,1659999998,-1399,5884,882,5.315,0.083,-0.013,88.6,yellow,219,TRUE
639,1659999998,-1657,5841,2526,4.59,0.019,0.036,89.6,green,219,TRUE
640,1659999998,3380,-2767,3350,5.558,-0.957,-0.31,89.3,blue,219,TRUE
641,1659999998,-1405,4996,750,0.53,0.038,0.216,78.2,red,219,TRUE
642,1659999998,-1361,5882,882,5.315,0.083,-0.013,77.7,yellow,219,TRUE
643,1659999998,-1652,5837,2526,4.59,0.019,0.036,89.9,green,219,TRUE
644,1659999999,3394,-2771,3350,5.584,-0.957,-0.308,92.9,blue,219,TRUE
645,1659999999,-1399,4992,750,0.53,0.038,0.216,90.7,red,219,TRUE
646,1659999999,-1371,5851,882,5.315,0.083,-0.013,90.8,yellow,219,TRUE
647,1659999999,-1630,5813,2526,4.59,0.019,0.036,87.5,green,219,TRUE
648,1659999999,3404,-2771,3350,5.593,-0.965,-0.308,92.6,blue,219,TRUE
649,1659999999,-1399,4993,750,0.53,0.038,0.216,90,red,219,TRUE
650,1659999999,-1370,5848,882,5.315,0.083,-0.013,90.7,yellow,219,TRUE
651,1660000000,-1648,5834,2526,4.59,0.019,0.036,89.1,green,219,TRUE
652,1660000000,3347,-2737,3350,5.587,-0.996,-0.315,90,blue,219,TRUE
653,1660000000,-1400,4995,750,0.53,0.038,0.216,87.7,red,219,TRUE
654,1660000000,-1366,5848,882,5.315,0.083,-0.013,89.3,yellow,219,TRUE
655,1660000000,-1644,5828,2526,4.59,0.019,0.036,88.2,green,219,TRUE
656,1660000000,3295,-2699,3350,5.579,-0.992,-0.314,89.7,blue,219,TRUE
657,1660000000,-1397,4998,750,0.53,0.038,0.216,91.6,red,219,TRUE
658,1660000001,-1361,5845,882,5.315,0.083,-0.013,87.8,yellow,219,TRUE
659,1660000001,-1640,5825,2526,4.59,0.019,0.036,89.7,green,219,TRUE
660,1660000002,-1390,5003,750,0.53,0.038,0.216,84.5,red,219,TRUE
661,1660000002,-1385,5845,882,5.315,0.083,-0.013,89.9,yellow,219,TRUE
662,1660000002,-1633,5821,2526,4.59,0.019,0.036,79.3,green,219,TRUE
663,1660000003,3245,-2669,3350,5.571,-0.96,-0.308,103.3,blue,219,TRUE
664,1660000003,-1387,5005,750,0.53,0.038,0.216,89.7,red,219,TRUE
665,1660000003,-1392,5850,882,5.315,0.083,-0.013,77.1,yellow,219,TRUE
666,1660000003,-1622,5794,2526,4.59,0.019,0.036,89.2,green,219,TRUE
667,1660000004,-1386,5001,750,0.53,0.038,0.216,90.1,red,219,TRUE
668,1660000004,-1403,5858,882,5.315,0.083,-0.013,73.2,yellow,219,TRUE
669,1660000004,-1629,5805,2526,4.59,0.019,0.036,83.1,green,219,TRUE
670,1660000005,3148,-2622,3350,5.576,-0.964,-0.283,90.9,blue,219,TRUE
671,1660000005,-1386,5002,750,0.53,0.038,0.216,88.6,red,219,TRUE
672,1660000005,-1411,5872,882,5.315,0.083,-0.013,78.3,yellow,219,TRUE
673,1660000005,-1639,5815,2526,4.59,0.019,0.036,90,green,219,TRUE
674,1660000005,3100,-2597,3350,5.575,-0.963,-0.284,106.3,blue,219,TRUE
675,1660000005,-1381,5003,750,0.53,0.038,0.216,91.4,red,219,TRUE
676,1660000005,-1448,5882,882,5.315,0.083,-0.013,73.7,yellow,219,TRUE
677,1660000005,-1654,5832,2526,4.59,0.019,0.036,89.2,green,219,TRUE
678,1660000006,3088,-2585,3350,5.573,-0.962,-0.285,122,blue,219,TRUE
679,1660000006,-1379,5002,750,0.53,0.038,0.216,88,red,219,TRUE
680,1660000006,-1443,5886,882,5.315,0.083,-0.013,89.6,yellow,219,TRUE
681,1660000006,-1642,5817,2526,4.59,0.019,0.036,88.4,green,219,TRUE
682,1660000006,3083,-2588,3350,5.564,-0.982,-0.302,76.1,blue,219,TRUE
683,1660000006,-1385,5001,750,0.53,0.038,0.216,89,red,219,TRUE
684,1660000006,-1427,5852,882,5.315,0.083,-0.013,90.7,yellow,219,TRUE
685,1660000007,-1653,5825,2526,4.59,0.019,0.036,87.8,green,219,TRUE
686,1660000008,-1414,4997,750,0.53,0.038,0.216,89.8,red,219,TRUE
687,1660000008,-1449,5851,882,5.315,0.083,-0.013,73.2,yellow,219,TRUE
688,1660000010,-1414,5004,750,0.53,0.038,0.216,89.2,red,219,TRUE
689,1660000010,-1420,5866,882,5.315,0.083,-0.013,89.5,yellow,219,TRUE
690,1660000010,-1651,5814,2526,4.59,0.019,0.036,83.2,green,219,TRUE
691,1660000010,3113,-2605,3350,5.537,-0.985,-0.337,116.4,blue,219,TRUE
692,1660000010,-1415,5004,750,0.53,0.038,0.216,89.7,red,219,TRUE
693,1660000010,-1402,5889,882,5.315,0.083,-0.013,90.4,yellow,219,TRUE
694,1660000010,-1661,5834,2526,4.59,0.019,0.036,89.1,green,219,TRUE
695,1660000011,3104,-2606,3350,5.534,-0.993,-0.345,75.9,blue,219,TRUE
696,1660000011,-1414,5007,750,0.53,0.038,0.216,92.7,red,219,TRUE
697,1660000011,-1397,5887,882,5.315,0.083,-0.013,86.1,yellow,219,TRUE
698,1660000011,-1653,5835,2526,4.59,0.019,0.036,89.2,green,219,TRUE
699,1660000011,3141,-2627,3350,5.536,-0.971,-0.34,89.6,blue,219,TRUE
700,1660000011,-1420,5011,750,0.53,0.038,0.216,92.9,red,219,TRUE
701,1660000011,-1407,5877,882,5.315,0.083,-0.013,89.1,yellow,219,TRUE
702,1660000011,-1644,5828,2526,4.59,0.019,0.036,88,green,219,TRUE
703,1660000012,3146,-2628,3350,5.524,-0.885,-0.324,91,blue,219,TRUE
704,1660000012,-1422,5009,750,0.53,0.038,0.216,90.9,red,219,TRUE
705,1660000012,-1384,5886,882,5.315,0.083,-0.013,89.8,yellow,219,TRUE
706,1660000012,-1666,5865,2526,4.59,0.019,0.036,84.2,green,219,TRUE
707,1660000012,3124,-2627,3350,5.431,-0.78,-0.312,92.3,blue,219,TRUE
708,1660000012,-1422,5016,750,0.53,0.038,0.216,89.3,red,219,TRUE
709,1660000013,-1356,5883,882,5.315,0.083,-0.013,91.9,yellow,219,TRUE
710,1660000013,-1652,5858,2526,4.59,0.019,0.036,87.2,green,219,TRUE
711,1660000013,3100,-2608,3350,5.492,-0.755,-0.343,104.8,blue,219,TRUE
712,1660000013,-1435,5026,750,0.53,0.038,0.216,90.4,red,219,TRUE
713,1660000013,-1331,5883,882,5.315,0.083,-0.013,86,yellow,219,TRUE
714,1660000013,-1627,5821,2526,4.59,0.019,0.036,74.2,green,219,TRUE
715,1660000013,3084,-2582,3350,5.539,-0.933,-0.349,89.9,blue,219,TRUE
716,1660000014,-1450,5026,750,0.53,0.038,0.216,88.2,red,219,TRUE
717,1660000014,-1340,5866,882,5.315,0.083,-0.013,90.8,yellow,219,TRUE
718,1660000014,-1590,5775,2526,4.59,0.019,0.036,92.1,green,219,TRUE
719,1660000014,3091,-2576,3350,5.61,-0.918,-0.339,85.5,blue,219,TRUE
720,1660000014,-1458,5033,750,0.53,0.038,0.216,87.9,red,219,TRUE
721,1660000014,-1333,5863,882,5.315,0.083,-0.013,90.1,yellow,219,TRUE
722,1660000014,-1576,5761,2526,4.59,0.019,0.036,93.1,green,219,TRUE
723,1660000015,3097,-2571,3350,5.544,-0.905,-0.349,86.5,blue,219,TRUE
724,1660000015,-1461,5036,750,0.53,0.038,0.216,89.4,red,219,TRUE
725,1660000015,-1324,5869,882,5.315,0.083,-0.013,90.2,yellow,219,TRUE
726,1660000015,-1573,5764,2526,4.59,0.019,0.036,91.3,green,219,TRUE
727,1660000015,3095,-2566,3350,5.559,-0.938,-0.372,88.7,blue,219,TRUE
728,1660000015,-1459,5038,750,0.53,0.038,0.216,90.8,red,219,TRUE
729,1660000015,-1327,5875,882,5.315,0.083,-0.013,93.6,yellow,219,TRUE
730,1660000015,-1574,5770,2526,4.59,0.019,0.036,90.3,green,219,TRUE
731,1660000016,3086,-2547,3350,5.56,-0.929,-0.365,89.5,blue,219,TRUE
732,1660000016,-1449,5072,750,0.53,0.038,0.216,88.9,red,219,TRUE
733,1660000016,-1312,5881,882,5.315,0.083,-0.013,90.4,yellow,219,TRUE
734,1660000016,-1602,5812,2526,4.59,0.019,0.036,91.6,green,219,TRUE
735,1660000016,3075,-2536,3350,5.561,-0.915,-0.356,122.7,blue,219,TRUE
736,1660000016,-1450,5074,750,0.53,0.038,0.216,87.9,red,219,TRUE
737,1660000016,-1311,5880,882,5.315,0.083,-0.013,89.7,yellow,219,TRUE
738,1660000017,-1586,5788,2526,4.59,0.019,0.036,88.5,green,219,TRUE
739,1660000017,3031,-2503,3350,5.561,-0.914,-0.355,87.4,blue,219,TRUE
740,1660000017,-1455,5073,750,0.53,0.038,0.216,90,red,219,TRUE
741,1660000017,-1297,5866,882,5.315,0.083,-0.013,87.5,yellow,219,TRUE
742,1660000017,-1580,5780,2526,4.59,0.019,0.036,86.3,green,219,TRUE
743,1660000017,2998,-2470,3350,5.561,-0.914,-0.355,91,blue,219,TRUE
744,1660000017,-1459,5073,750,0.53,0.038,0.216,89.7,red,219,TRUE
745,1660000018,-1302,5866,882,5.315,0.083,-0.013,85.9,yellow,219,TRUE
746,1660000018,-1586,5777,2526,4.59,0.019,0.036,90.8,green,219,TRUE
747,1660000019,-1458,5071,750,0.53,0.038,0.216,85.2,red,219,TRUE
748,1660000019,-1317,5871,882,5.315,0.083,-0.013,73.6,yellow,219,TRUE
749,1660000019,-1594,5782,2526,4.59,0.019,0.036,82.1,green,219,TRUE
750,1660000019,2990,-2461,3350,5.569,-0.921,-0.345,89.6,blue,219,TRUE
751,1660000020,-1467,5074,750,0.53,0.038,0.216,87.8,red,219,TRUE
752,1660000020,-1326,5868,882,5.315,0.083,-0.013,89.8,yellow,219,TRUE
753,1660000020,-1562,5735,2526,4.59,0.019,0.036,92.2,green,219,TRUE
754,1660000020,3004,-2458,3350,5.565,-0.898,-0.336,88.6,blue,219,TRUE
755,1660000020,-1466,5068,750,0.53,0.038,0.216,84.8,red,219,TRUE
756,1660000020,-1362,5871,882,5.315,0.083,-0.013,77.5,yellow,219,TRUE
757,1660000020,-1569,5738,2526,4.59,0.019,0.036,92,green,219,TRUE
758,1660000021,3038,-2465,3350,5.565,-0.898,-0.337,87.5,blue,219,TRUE
759,1660000021,-1453,5059,750,0.53,0.038,0.216,90.6,red,219,TRUE
760,1660000021,-1393,5869,882,5.315,0.083,-0.013,92.4,yellow,219,TRUE
761,1660000021,-1596,5776,2526,4.59,0.019,0.036,89.2,green,219,TRUE
762,1660000021,3071,-2488,3350,5.565,-0.898,-0.337,89.5,blue,219,TRUE
763,1660000021,-1453,5062,750,0.53,0.038,0.216,90.4,red,219,TRUE
764,1660000022,-1623,5809,2526,4.59,0.019,0.036,89.8,green,219,TRUE
765,1660000023,3111,-2511,3350,5.563,-0.918,-0.346,104.9,blue,219,TRUE
766,1660000023,-1450,5058,750,0.53,0.038,0.216,91.2,red,219,TRUE
767,1660000024,-1636,5817,2526,4.59,0.019,0.036,88.7,green,219,TRUE
768,1660000024,3134,-2523,3350,5.581,-0.918,-0.309,89.5,blue,219,TRUE
769,1660000024,-1445,5053,750,0.53,0.038,0.216,91.6,red,219,TRUE
770,1660000024,-1386,5871,882,5.315,0.083,-0.013,88.6,yellow,219,TRUE
771,1660000025,-1646,5822,2526,4.59,0.019,0.036,89.7,green,219,TRUE
772,1660000026,-1443,5052,750,0.53,0.038,0.216,92.3,red,219,TRUE
773,1660000026,-1389,5873,882,5.315,0.083,-0.013,89.4,yellow,219,TRUE
774,1660000026,-1637,5813,2526,4.59,0.019,0.036,91.5,green,219,TRUE
775,1660000028,-1443,5052,750,0.53,0.038,0.216,89.8,red,219,TRUE
776,1660000028,-1374,5868,882,5.315,0.083,-0.013,87.7,yellow,219,TRUE
777,1660000028,-1637,5809,2526,4.59,0.019,0.036,83.7,green,219,TRUE
778,1660000028,3172,-2563,3350,5.503,-0.978,-0.341,118.4,blue,219,TRUE
779,1660000028,-1494,4984,750,0.53,0.038,0.216,87.4,red,219,TRUE
780,1660000028,-1361,5863,882,5.315,0.083,-0.013,89.8,yellow,219,TRUE
781,1660000028,-1627,5806,2526,4.59,0.019,0.036,90.4,green,219,TRUE
782,1660000030,-1494,4979,750,0.53,0.038,0.216,89.9,red,219,TRUE
783,1660000030,-1385,5865,882,5.315,0.083,-0.013,93.8,yellow,219,TRUE
784,1660000030,-1628,5807,2526,4.59,0.019,0.036,79.8,green,219,TRUE
785,1660000031,-1487,4978,750,0.53,0.038,0.216,74.8,red,219,TRUE
786,1660000031,-1394,5870,882,5.315,0.083,-0.013,89.4,yellow,219,TRUE
787,1660000031,-1631,5813,2526,4.59,0.019,0.036,83.7,green,219,TRUE
788,1660000032,3209,-2588,3350,5.484,-0.96,-0.355,88.4,blue,219,TRUE
789,1660000032,-1481,4973,750,0.53,0.038,0.216,89,red,219,TRUE
790,1660000032,-1401,5874,882,5.315,0.083,-0.013,91.3,yellow,219,TRUE
791,1660000032,-1632,5815,2526,4.59,0.019,0.036,94.5,green,219,TRUE
792,1660000032,3228,-2599,3350,5.485,-0.963,-0.358,90.8,blue,219,TRUE
793,1660000032,-1474,4970,750,0.53,0.038,0.216,90.9,red,219,TRUE
794,1660000032,-1429,5868,882,5.315,0.083,-0.013,90,yellow,219,TRUE
795,1660000033,-1633,5824,2526,4.59,0.019,0.036,89.5,green,219,TRUE
796,1660000033,3240,-2610,3350,5.485,-0.963,-0.358,92.2,blue,219,TRUE
797,1660000033,-1466,4967,750,0.53,0.038,0.216,90.7,red,219,TRUE
798,1660000033,-1411,5878,882,5.315,0.083,-0.013,89.9,yellow,219,TRUE
799,1660000033,-1626,5823,2526,4.59,0.019,0.036,84.5,green,219,TRUE
800,1660000033,3212,-2598,3350,5.485,-0.963,-0.358,86.7,blue,219,TRUE
801,1660000033,-1473,4964,750,0.53,0.038,0.216,91.4,red,219,TRUE
802,1660000034,-1416,5870,882,5.315,0.083,-0.013,87.6,yellow,219,TRUE
803,1660000034,-1607,5805,2526,4.59,0.019,0.036,88.5,green,219,TRUE
804,1660000034,3188,-2588,3350,5.484,-0.963,-0.361,89.5,blue,219,TRUE
805,1660000034,-1474,4961,750,0.53,0.038,0.216,91.5,red,219,TRUE
806,1660000034,-1407,5879,882,5.315,0.083,-0.013,84.5,yellow,219,TRUE
807,1660000034,-1604,5804,2526,4.59,0.019,0.036,89.7,green,219,TRUE
808,1660000034,3173,-2584,3350,5.484,-0.963,-0.361,105.1,blue,219,TRUE
809,1660000035,-1456,4955,750,0.53,0.038,0.216,85.6,red,219,TRUE
810,1660000035,-1373,5883,882,5.315,0.083,-0.013,89.9,yellow,219,TRUE
811,1660000035,-1585,5786,2526,4.59,0.019,0.036,91.9,green,219,TRUE
812,1660000035,3153,-2573,3350,5.484,-0.963,-0.361,86.8,blue,219,TRUE
813,1660000035,-1453,4950,750,0.53,0.038,0.216,86.6,red,219,TRUE
814,1660000035,-1365,5885,882,5.315,0.083,-0.013,90.8,yellow,219,TRUE
815,1660000035,-1576,5784,2526,4.59,0.019,0.036,92.8,green,219,TRUE
816,1660000036,3133,-2564,3350,5.484,-0.963,-0.361,87.6,blue,219,TRUE
817,1660000036,-1460,4955,750,0.53,0.038,0.216,89.9,red,219,TRUE
818,1660000036,-1342,5890,882,5.315,0.083,-0.013,93.8,yellow,219,TRUE
819,1660000036,-1585,5791,2526,4.59,0.019,0.036,89.9,green,219,TRUE
820,1660000036,3108,-2555,3350,5.483,-0.964,-0.358,89.5,blue,219,TRUE
821,1660000036,-1462,4959,750,0.53,0.038,0.216,92.3,red,219,TRUE
822,1660000036,-1361,5882,882,5.315,0.083,-0.013,89.7,yellow,219,TRUE
823,1660000036,-1585,5803,2526,4.59,0.019,0.036,90.6,green,219,TRUE
824,1660000037,3095,-2541,3350,5.498,-0.962,-0.356,91.5,blue,219,TRUE
825,1660000037,-1396,5003,750,0.53,0.038,0.216,92.3,red,219,TRUE
826,1660000037,-1355,5878,882,5.315,0.083,-0.013,91.1,yellow,219,TRUE
827,1660000037,-1586,5801,2526,4.59,0.019,0.036,90,green,219,TRUE
828,1660000037,3078,-2524,3350,5.5,-0.963,-0.355,91.3,blue,219,TRUE
829,1660000037,-1388,5002,750,0.53,0.038,0.216,75.3,red,219,TRUE
830,1660000037,-1340,5882,882,5.315,0.083,-0.013,90.1,yellow,219,TRUE
831,1660000038,-1580,5799,2526,4.59,0.019,0.036,87.3,green,219,TRUE
832,1660000038,3055,-2506,3350,5.501,-0.962,-0.351,98.2,blue,219,TRUE
833,1660000038,-1383,5001,750,0.53,0.038,0.216,88.4,red,219,TRUE
834,1660000038,-1329,5873,882,5.315,0.083,-0.013,85.4,yellow,219,TRUE
835,1660000038,-1568,5791,2526,4.59,0.019,0.036,88,green,219,TRUE
836,1660000038,3049,-2505,3350,5.501,-0.962,-0.351,89.9,blue,219,TRUE
837,1660000039,-1379,5000,750,0.53,0.038,0.216,91.1,red,219,TRUE
838,1660000039,-1335,5874,882,5.315,0.083,-0.013,87.2,yellow,219,TRUE
839,1660000039,-1581,5807,2526,4.59,0.019,0.036,90.2,green,219,TRUE
840,1660000039,3074,-2521,3350,5.5,-0.965,-0.352,88.5,blue,219,TRUE
841,1660000039,-1376,4998,750,0.53,0.038,0.216,72.5,red,219,TRUE
842,1660000039,-1305,5878,882,5.315,0.083,-0.013,88.9,yellow,219,TRUE
843,1660000039,-1583,5805,2526,4.59,0.019,0.036,89.7,green,219,TRUE
844,1660000040,3072,-2520,3350,5.5,-0.97,-0.356,88.9,blue,219,TRUE
845,1660000040,-1373,4999,750,0.53,0.038,0.216,73.4,red,219,TRUE
846,1660000040,-1301,5869,882,5.315,0.083,-0.013,89.9,yellow,219,TRUE
847,1660000040,-1602,5817,2526,4.59,0.019,0.036,91.5,green,219,TRUE
848,1660000040,3101,-2535,3350,5.501,-0.961,-0.351,103.9,blue,219,TRUE
849,1660000040,-1365,5003,750,0.53,0.038,0.216,85.7,red,219,TRUE
850,1660000040,-1308,5872,882,5.315,0.083,-0.013,74.6,yellow,219,TRUE
851,1660000040,-1639,5856,2526,4.59,0.019,0.036,90.7,green,219,TRUE
852,1660000041,3127,-2547,3350,5.512,-0.961,-0.337,87,blue,219,TRUE
853,1660000041,-1364,5008,750,0.53,0.038,0.216,75.7,red,219,TRUE
854,1660000041,-1299,5861,882,5.315,0.083,-0.013,91.9,yellow,219,TRUE
855,1660000041,-1630,5852,2526,4.59,0.019,0.036,90.5,green,219,TRUE
856,1660000041,3140,-2553,3350,5.513,-0.971,-0.333,86.5,blue,219,TRUE
857,1660000041,-1369,5012,750,0.53,0.038,0.216,88.6,red,219,TRUE
858,1660000041,-1302,5858,882,5.315,0.083,-0.013,92,yellow,219,TRUE
859,1660000041,-1642,5864,2526,4.59,0.019,0.036,89.4,green,219,TRUE
860,1660000042,3159,-2559,3350,5.516,-0.953,-0.314,90.2,blue,219,TRUE
861,1660000042,-1369,5014,750,0.53,0.038,0.216,92,red,219,TRUE
862,1660000042,-1292,5857,882,5.315,0.083,-0.013,89.7,yellow,219,TRUE
863,1660000042,-1644,5859,2526,4.59,0.019,0.036,89.1,green,219,TRUE
864,1660000042,3187,-2568,3350,5.514,-0.957,-0.316,90.5,blue,219,TRUE
865,1660000042,-1377,5021,750,0.53,0.038,0.216,84.7,red,219,TRUE
866,1660000042,-1318,5854,882,5.315,0.083,-0.013,90.8,yellow,219,TRUE
867,1660000043,-1634,5858,2526,4.59,0.019,0.036,88.8,green,219,TRUE
868,1660000043,3205,-2571,3350,5.513,-0.961,-0.32,91.2,blue,219,TRUE
869,1660000043,-1374,5023,750,0.53,0.038,0.216,91.5,red,219,TRUE
870,1660000043,-1314,5872,882,5.315,0.083,-0.013,90,yellow,219,TRUE
871,1660000043,-1628,5845,2526,4.59,0.019,0.036,85.4,green,219,TRUE
872,1660000043,3205,-2572,3350,5.511,-0.977,-0.327,91.7,blue,219,TRUE
873,1660000043,-1373,5024,750,0.53,0.038,0.216,88.6,red,219,TRUE
874,1660000044,-1309,5870,882,5.315,0.083,-0.013,88.4,yellow,219,TRUE
875,1660000044,-1629,5844,2526,4.59,0.019,0.036,89.4,green,219,TRUE
876,1660000044,3218,-2582,3350,5.511,-0.976,-0.338,89.7,blue,219,TRUE
877,1660000044,-1374,5022,750,0.53,0.038,0.216,88.8,red,219,TRUE
878,1660000044,-1304,5868,882,5.315,0.083,-0.013,89.5,yellow,219,TRUE
879,1660000044,-1639,5843,2526,4.59,0.019,0.036,85.9,green,219,TRUE
880,1660000045,3253,-2599,3350,5.551,-1.054,-0.291,88.9,blue,219,TRUE
881,1660000045,-1397,5026,750,0.53,0.038,0.216,87.8,red,219,TRUE
882,1660000045,-1309,5872,882,5.315,0.083,-0.013,89.9,yellow,219,TRUE
883,1660000045,-1644,5841,2526,4.59,0.019,0.036,91.9,green,219,TRUE
