,timestamp,x,y,z,yaw,roll,pitch,latency,student,session,success
0,1660010898.304,2077,-1116,2526,2.569,-0.093,-0.022,76.0,green,221,TRUE
1,1660010898.531,1083,947,3350,5.604,-1.453,3.051,90.0,blue,221,TRUE
2,1660010899.756,2083,-1113,2526,2.569,-0.093,-0.022,87.0,green,221,TRUE
3,1660010900.01,1179,1297,3350,3.947,-1.401,3.097,89.2,blue,221,TRUE
4,1660010900.158,2762,-1090,882,2.554,-0.014,-0.045,91.3,yellow,221,TRUE
5,1660010900.262,2079,-1116,2526,2.569,-0.093,-0.022,76.6,green,221,TRUE
6,1660010901.442,1278,1581,3350,3.923,-1.394,2.887,91.3,blue,221,TRUE
7,1660010901.603,2804,-1042,882,2.554,-0.014,-0.045,95.0,yellow,221,TRUE
8,1660010901.7,2100,-1099,2526,2.569,-0.093,-0.022,89.4,green,221,TRUE
9,1660010902.996,1350,1756,3350,3.894,-1.385,2.917,90.8,blue,221,TRUE
10,1660010904.265,2074,-1120,2526,2.569,-0.093,-0.022,88.2,green,221,TRUE
11,1660010905.576,1543,2001,3350,3.727,-1.488,-3.123,90.8,blue,221,TRUE
12,1660010906.811,2068,-1127,2526,2.569,-0.093,-0.022,83.9,green,221,TRUE
13,1660010907.017,1761,2227,3350,3.695,-1.497,-3.114,89.6,blue,221,TRUE
14,1660010908.269,2069,-1128,2526,2.569,-0.093,-0.022,91.0,green,221,TRUE
15,1660010908.48,1983,2501,3350,3.656,-1.5,-3.118,90.3,blue,221,TRUE
16,1660010909.731,2066,-1130,2526,2.569,-0.093,-0.022,74.8,green,221,TRUE
17,1660010909.926,2238,2734,3350,3.639,-1.5,-3.119,91.5,blue,221,TRUE
18,1660010910.079,2808,-1042,882,2.554,-0.014,-0.045,88.7,yellow,221,TRUE
19,1660010910.17,2091,-1110,2526,2.569,-0.093,-0.022,88.2,green,221,TRUE
20,1660010910.3,2448,2958,3350,3.642,-1.499,-3.119,92.9,blue,221,TRUE
21,1660010911.484,2094,-1107,2526,2.569,-0.093,-0.022,71.0,green,221,TRUE
22,1660010911.678,2620,3166,3350,3.624,-1.503,-3.122,92.4,blue,221,TRUE
23,1660010923.692,2049,-1152,2526,2.569,-0.092,-0.022,78.6,green,221,TRUE
24,1660010924.976,2826,3715,3350,3.642,-1.51,-3.127,90.1,blue,221,TRUE
25,1660010925.136,2777,-1003,882,2.554,-0.012,-0.045,95.6,yellow,221,TRUE
26,1660010925.232,2047,-1150,2526,2.569,-0.092,-0.022,75.9,green,221,TRUE
27,1660010925.489,2808,3719,3350,3.642,-1.511,-3.127,88.5,blue,221,TRUE
28,1660010925.581,2819,-1047,882,2.554,-0.012,-0.045,88.6,yellow,221,TRUE
29,1660010925.67,2037,-1152,2526,2.569,-0.092,-0.022,74.3,green,221,TRUE
30,1660010925.865,2815,3729,3350,3.647,-1.509,-3.127,89.4,blue,221,TRUE
31,1660010927.062,2034,-1156,2526,2.569,-0.092,-0.022,86.0,green,221,TRUE
32,1660010927.332,2830,3736,3350,3.65,-1.506,-3.124,90.5,blue,221,TRUE
33,1660010927.481,2822,-1054,882,2.554,-0.012,-0.045,91.2,yellow,221,TRUE
34,1660010927.575,2034,-1156,2526,2.569,-0.092,-0.022,86.9,green,221,TRUE
35,1660010927.781,2815,3692,3350,3.652,-1.505,-3.124,76.7,blue,221,TRUE
36,1660010927.86,2827,-1059,882,2.554,-0.012,-0.045,88.7,yellow,221,TRUE
37,1660010927.95,2031,-1158,2526,2.569,-0.092,-0.022,74.4,green,221,TRUE
38,1660010929.111,2820,3679,3350,3.644,-1.503,-3.124,88.4,blue,221,TRUE
39,1660010929.264,2822,-1057,882,2.554,-0.012,-0.045,86.5,yellow,221,TRUE
40,1660010929.352,2060,-1136,2526,2.569,-0.092,-0.022,87.9,green,221,TRUE
41,1660010929.593,2789,3626,3350,3.646,-1.504,-3.127,87.7,blue,221,TRUE
42,1660010929.694,2826,-1065,882,2.554,-0.012,-0.045,92.6,yellow,221,TRUE
43,1660010929.8,2057,-1134,2526,2.569,-0.092,-0.022,77.4,green,221,TRUE
44,1660010929.956,2754,3572,3350,3.646,-1.506,-3.127,87.3,blue,221,TRUE
45,1660010931.173,2061,-1131,2526,2.569,-0.092,-0.022,73.7,green,221,TRUE
46,1660010931.398,2753,3575,3350,3.64,-1.506,-3.127,89.2,blue,221,TRUE
47,1660010931.546,2828,-1063,882,2.554,-0.012,-0.045,90.8,yellow,221,TRUE
48,1660010931.639,2080,-1112,2526,2.569,-0.092,-0.022,87.0,green,221,TRUE
49,1660010931.83,2726,3554,3350,3.646,-1.504,-3.127,90.8,blue,221,TRUE
50,1660010931.923,2828,-1068,882,2.554,-0.012,-0.045,88.5,yellow,221,TRUE
51,1660010932.017,2077,-1112,2526,2.569,-0.092,-0.022,85.1,green,221,TRUE
52,1660010932.206,2724,3551,3350,3.639,-1.505,-3.127,92.2,blue,221,TRUE
53,1660010932.328,2835,-1072,882,2.554,-0.012,-0.045,92.7,yellow,221,TRUE
54,1660010932.422,2089,-1097,2526,2.569,-0.092,-0.022,87.4,green,221,TRUE
55,1660010932.603,2698,3525,3350,3.642,-1.506,-3.129,89.1,blue,221,TRUE
56,1660010932.72,2840,-1078,882,2.554,-0.012,-0.045,91.2,yellow,221,TRUE
57,1660010932.825,2091,-1098,2526,2.569,-0.092,-0.022,77.2,green,221,TRUE
58,1660010933.04,2746,3556,3350,3.644,-1.504,-3.127,88.3,blue,221,TRUE
59,1660010934.26,2089,-1102,2526,2.569,-0.092,-0.022,90.1,green,221,TRUE
60,1660010934.487,2798,3585,3350,3.64,-1.506,-3.126,89.4,blue,221,TRUE
61,1660010934.635,2841,-1082,882,2.554,-0.012,-0.045,91.4,yellow,221,TRUE
62,1660010934.739,2122,-1077,2526,2.569,-0.092,-0.022,91.3,green,221,TRUE
63,1660010934.936,2795,3552,3350,3.656,-1.503,-3.127,89.1,blue,221,TRUE
64,1660010935.03,2843,-1084,882,2.554,-0.012,-0.045,86.1,yellow,221,TRUE
65,1660010935.117,2126,-1074,2526,2.569,-0.092,-0.022,74.7,green,221,TRUE
66,1660010935.31,2833,3578,3350,3.654,-1.506,-3.13,92.3,blue,221,TRUE
67,1660010935.403,2844,-1090,882,2.554,-0.012,-0.045,88.8,yellow,221,TRUE
68,1660010935.494,2125,-1074,2526,2.569,-0.092,-0.022,88.8,green,221,TRUE
69,1660010935.688,2798,3548,3350,3.648,-1.505,-3.131,92.4,blue,221,TRUE
70,1660010935.809,2841,-1083,882,2.554,-0.012,-0.045,92.9,yellow,221,TRUE
71,1660010937.128,2801,3558,3350,3.61,-1.48,-3.121,99.5,blue,221,TRUE
72,1660010937.299,2834,-1071,882,2.554,-0.012,-0.045,91.4,yellow,221,TRUE
73,1660010937.4,2150,-1052,2526,2.569,-0.092,-0.022,82.1,green,221,TRUE
74,1660010938.703,2821,-1060,882,2.554,-0.012,-0.045,91.3,yellow,221,TRUE
75,1660010938.801,2154,-1052,2526,2.569,-0.092,-0.022,83.0,green,221,TRUE
76,1660010939.035,2799,3588,3350,3.629,-1.492,-3.13,91.4,blue,221,TRUE
77,1660010940.214,2154,-1050,2526,2.569,-0.092,-0.022,91.0,green,221,TRUE
78,1660010940.471,2822,3617,3350,3.626,-1.5,-3.131,88.5,blue,221,TRUE
79,1660010940.621,2823,-1064,882,2.554,-0.012,-0.045,88.8,yellow,221,TRUE
80,1660010940.71,2152,-1052,2526,2.569,-0.092,-0.022,90.3,green,221,TRUE
81,1660010940.92,2815,3598,3350,3.626,-1.499,-3.132,89.5,blue,221,TRUE
82,1660010941.014,2818,-1058,882,2.554,-0.012,-0.045,86.9,yellow,221,TRUE
83,1660010941.102,2126,-1074,2526,2.569,-0.092,-0.022,88.5,green,221,TRUE
84,1660010941.324,2851,3621,3350,3.63,-1.5,-3.132,92.6,blue,221,TRUE
85,1660010942.548,2126,-1074,2526,2.569,-0.092,-0.022,87.0,green,221,TRUE
86,1660010942.786,2860,3620,3350,3.632,-1.499,-3.133,89.8,blue,221,TRUE
87,1660010944.009,2109,-1090,2526,2.569,-0.092,-0.022,74.6,green,221,TRUE
88,1660010944.238,2872,3624,3350,3.638,-1.498,-3.137,87.0,blue,221,TRUE
89,1660010945.492,2131,-1068,2526,2.569,-0.092,-0.022,90.8,green,221,TRUE
90,1660010945.749,2837,3584,3350,3.638,-1.501,-3.133,89.6,blue,221,TRUE
91,1660010947.017,2136,-1066,2526,2.569,-0.092,-0.022,89.2,green,221,TRUE
92,1660010947.257,2751,3525,3350,3.632,-1.5,-3.133,89.8,blue,221,TRUE
93,1660010948.478,2107,-1089,2526,2.569,-0.092,-0.022,91.0,green,221,TRUE
94,1660010948.736,2748,3539,3350,3.63,-1.504,-3.137,89.4,blue,221,TRUE
95,1660010948.91,2814,-1054,882,2.554,-0.012,-0.045,94.3,yellow,221,TRUE
96,1660010950.217,2717,3494,3350,3.812,-1.431,2.674,85.2,blue,221,TRUE
97,1660010950.377,2809,-1049,882,2.554,-0.012,-0.045,91.7,yellow,221,TRUE
98,1660010951.696,2709,3545,3350,3.704,-1.478,-3.132,88.9,blue,221,TRUE
99,1660010951.856,2734,-934,882,2.554,-0.012,-0.045,93.4,yellow,221,TRUE
100,1660010951.949,2107,-1089,2526,2.569,-0.092,-0.022,73.9,green,221,TRUE
101,1660010952.101,2689,3567,3350,3.695,-1.479,-3.131,88.6,blue,221,TRUE
102,1660010952.219,2739,-929,882,2.554,-0.012,-0.045,90.9,yellow,221,TRUE
103,1660010952.324,2107,-1093,2526,2.569,-0.092,-0.022,76.6,green,221,TRUE
104,1660010952.491,2661,3568,3350,3.701,-1.481,-3.129,89.0,blue,221,TRUE
105,1660010952.583,2734,-929,882,2.554,-0.012,-0.045,86.7,yellow,221,TRUE
106,1660010952.683,2106,-1094,2526,2.569,-0.092,-0.022,78.8,green,221,TRUE
107,1660010952.883,2653,3513,3350,3.736,-1.499,3.138,91.6,blue,221,TRUE
108,1660010952.976,2729,-925,882,2.554,-0.012,-0.045,90.1,yellow,221,TRUE
109,1660010953.07,2106,-1096,2526,2.569,-0.092,-0.022,86.4,green,221,TRUE
110,1660010953.335,2652,3550,3350,3.859,-1.506,3.09,92.2,blue,221,TRUE
111,1660010954.562,2102,-1099,2526,2.569,-0.092,-0.022,87.8,green,221,TRUE
112,1660010954.802,2614,3544,3350,3.791,-1.517,3.108,88.8,blue,221,TRUE
113,1660010954.965,2731,-920,882,2.554,-0.012,-0.045,90.8,yellow,221,TRUE
114,1660010955.057,2122,-1080,2526,2.569,-0.092,-0.022,91.8,green,221,TRUE
115,1660010955.252,2583,3519,3350,3.786,-1.506,3.112,93.0,blue,221,TRUE
116,1660010955.375,2726,-916,882,2.554,-0.012,-0.045,91.9,yellow,221,TRUE
117,1660010955.468,2124,-1081,2526,2.569,-0.092,-0.022,74.3,green,221,TRUE
118,1660010955.633,2604,3528,3350,3.797,-1.506,3.114,89.2,blue,221,TRUE
119,1660010956.822,2125,-1079,2526,2.569,-0.092,-0.022,90.1,green,221,TRUE
120,1660010957.066,2554,3554,3350,3.79,-1.504,3.117,89.3,blue,221,TRUE
121,1660010957.217,2729,-920,882,2.554,-0.012,-0.045,91.3,yellow,221,TRUE
122,1660010957.322,2132,-1078,2526,2.569,-0.092,-0.022,76.1,green,221,TRUE
123,1660010957.505,2565,3593,3350,3.781,-1.512,3.119,89.7,blue,221,TRUE
124,1660010958.686,2128,-1077,2526,2.569,-0.092,-0.022,90.9,green,221,TRUE
125,1660010958.926,2565,3598,3350,4.165,-1.443,2.579,91.4,blue,221,TRUE
126,1660010959.078,2737,-926,882,2.554,-0.012,-0.045,90.0,yellow,221,TRUE
127,1660010960.391,2557,3682,3350,5.454,-1.513,3.134,84.6,blue,221,TRUE
128,1660010960.537,2739,-928,882,2.554,-0.012,-0.045,92.2,yellow,221,TRUE
129,1660010960.632,2100,-1099,2526,2.569,-0.092,-0.022,85.9,green,221,TRUE
130,1660010960.835,2569,3784,3350,5.389,-1.472,3.102,92.0,blue,221,TRUE
131,1660010960.929,2737,-926,882,2.554,-0.012,-0.045,90.1,yellow,221,TRUE
132,1660010961.026,2093,-1100,2526,2.569,-0.092,-0.022,84.0,green,221,TRUE
133,1660010961.229,2581,3889,3350,5.447,-1.526,-3.118,93.2,blue,221,TRUE
134,1660010962.437,2097,-1101,2526,2.569,-0.092,-0.022,89.2,green,221,TRUE
135,1660010962.678,2614,4154,3350,5.534,-1.465,3.065,89.0,blue,221,TRUE
136,1660010962.855,2740,-927,882,2.554,-0.012,-0.045,91.1,yellow,221,TRUE
137,1660010962.948,2098,-1098,2526,2.569,-0.092,-0.022,74.5,green,221,TRUE
138,1660010963.115,2591,4596,3350,5.238,-1.47,3.054,89.0,blue,221,TRUE
139,1660010963.233,2746,-926,882,2.554,-0.012,-0.045,93.4,yellow,221,TRUE
140,1660010963.34,2092,-1100,2526,2.569,-0.092,-0.022,92.4,green,221,TRUE
141,1660010963.525,2547,4927,3350,4.848,-1.491,3.093,89.2,blue,221,TRUE
142,1660010963.627,2817,-1040,882,2.554,-0.012,-0.045,93.4,yellow,221,TRUE
143,1660010963.733,2068,-1118,2526,2.569,-0.092,-0.022,77.0,green,221,TRUE
144,1660010963.931,2528,5289,3350,4.889,-1.452,3.028,89.3,blue,221,TRUE
145,1660010964.025,2808,-1041,882,2.554,-0.012,-0.045,85.4,yellow,221,TRUE
146,1660010964.111,2043,-1138,2526,2.569,-0.092,-0.022,90.9,green,221,TRUE
147,1660010964.398,2479,5767,3350,4.841,-1.472,0.098,92.9,blue,221,TRUE
148,1660010965.624,2040,-1137,2526,2.569,-0.092,-0.022,88.1,green,221,TRUE
149,1660010965.879,2442,6223,3350,6.238,-1.498,-0.038,90.9,blue,221,TRUE
150,1660010966.03,2811,-1040,882,2.554,-0.012,-0.045,91.6,yellow,221,TRUE
151,1660010966.125,2039,-1135,2526,2.569,-0.092,-0.022,87.1,green,221,TRUE
152,1660010966.331,2477,6636,3350,0.578,-1.528,-3.102,93.3,blue,221,TRUE
153,1660010967.51,2048,-1135,2526,2.569,-0.092,-0.022,88.8,green,221,TRUE
154,1660010967.751,2450,7066,3350,1.164,-1.48,0.089,90.5,blue,221,TRUE
155,1660010967.924,2810,-1038,882,2.554,-0.012,-0.045,84.0,yellow,221,TRUE
156,1660010968.008,2039,-1137,2526,2.569,-0.092,-0.022,89.3,green,221,TRUE
157,1660010968.203,2383,7479,3350,1.072,-1.46,3.034,88.2,blue,221,TRUE
158,1660010968.321,2805,-1036,882,2.554,-0.012,-0.045,92.6,yellow,221,TRUE
159,1660010968.424,2070,-1119,2526,2.569,-0.092,-0.022,79.9,green,221,TRUE
160,1660010968.596,2314,7829,3350,0.988,-1.426,1.982,89.8,blue,221,TRUE
161,1660010969.79,2079,-1119,2526,2.569,-0.092,-0.022,90.1,green,221,TRUE
162,1660010970.032,2323,8166,3350,0.675,-1.379,2.092,87.8,blue,221,TRUE
163,1660010971.264,2082,-1120,2526,2.569,-0.092,-0.022,90.1,green,221,TRUE
164,1660010971.508,2276,8460,3350,0.501,-1.371,2.25,89.4,blue,221,TRUE
165,1660010971.657,2809,-1043,882,2.554,-0.012,-0.045,90.8,yellow,221,TRUE
166,1660010972.981,2215,8617,3350,0.571,-1.366,2.213,95.9,blue,221,TRUE
167,1660010974.252,2102,-1104,2526,2.569,-0.092,-0.022,90.2,green,221,TRUE
168,1660010974.494,2209,8664,3350,0.562,-1.37,2.195,105.4,blue,221,TRUE
169,1660010975.746,2096,-1104,2526,2.569,-0.092,-0.022,73.8,green,221,TRUE
170,1660010975.969,2210,8730,3350,0.523,-1.356,2.266,89.6,blue,221,TRUE
171,1660010977.206,2103,-1102,2526,2.569,-0.092,-0.022,72.6,green,221,TRUE
172,1660010977.432,2215,8806,3350,0.521,-1.362,2.241,88.6,blue,221,TRUE
173,1660010977.597,2806,-1041,882,2.554,-0.012,-0.045,89.3,yellow,221,TRUE
174,1660010977.686,2133,-1082,2526,2.569,-0.092,-0.022,90.6,green,221,TRUE
175,1660010977.895,2238,8781,3350,0.518,-1.354,2.256,92.5,blue,221,TRUE
176,1660010977.99,2804,-1041,882,2.554,-0.012,-0.045,88.4,yellow,221,TRUE
177,1660010978.084,2135,-1081,2526,2.569,-0.092,-0.022,83.8,green,221,TRUE
178,1660010978.286,2206,8772,3350,0.515,-1.354,2.263,92.6,blue,221,TRUE
179,1660010979.481,2106,-1102,2526,2.569,-0.092,-0.022,76.7,green,221,TRUE
180,1660010979.724,2175,8755,3350,0.514,-1.355,2.255,89.2,blue,221,TRUE
181,1660010979.887,2803,-1042,882,2.554,-0.012,-0.045,92.8,yellow,221,TRUE
182,1660010979.981,2107,-1103,2526,2.569,-0.092,-0.022,74.3,green,221,TRUE
183,1660010980.15,2189,8733,3350,0.512,-1.356,2.253,85.8,blue,221,TRUE
184,1660010980.25,2802,-1042,882,2.554,-0.012,-0.045,93.0,yellow,221,TRUE
185,1660010980.356,2105,-1103,2526,2.569,-0.092,-0.022,78.9,green,221,TRUE
186,1660010980.526,2206,8753,3350,0.515,-1.354,2.249,88.3,blue,221,TRUE
187,1660010980.628,2798,-1044,882,2.554,-0.012,-0.045,92.5,yellow,221,TRUE
188,1660010981.96,2216,8780,3350,0.52,-1.35,2.259,86.4,blue,221,TRUE
189,1660010983.224,2130,-1081,2526,2.569,-0.092,-0.022,105.6,green,221,TRUE
190,1660010983.481,2160,8760,3350,0.516,-1.354,2.254,89.9,blue,221,TRUE
191,1660010984.75,2106,-1100,2526,2.569,-0.092,-0.022,88.8,green,221,TRUE
192,1660010985.005,2163,8761,3350,0.52,-1.35,2.254,88.9,blue,221,TRUE
193,1660010986.259,2128,-1077,2526,2.569,-0.092,-0.022,86.0,green,221,TRUE
194,1660010986.497,2182,8767,3350,0.47,-1.4,2.305,89.9,blue,221,TRUE
195,1660010987.775,2122,-1080,2526,2.569,-0.092,-0.022,73.1,green,221,TRUE
196,1660010988.031,2177,8792,3350,0.419,-1.382,2.342,90.5,blue,221,TRUE
197,1660010988.183,2793,-1045,882,2.554,-0.012,-0.045,89.8,yellow,221,TRUE
198,1660010988.276,2129,-1074,2526,2.569,-0.092,-0.022,87.8,green,221,TRUE
199,1660010988.47,2178,8811,3350,0.41,-1.385,2.339,91.7,blue,221,TRUE
200,1660010988.565,2791,-1039,882,2.554,-0.012,-0.045,85.7,yellow,221,TRUE
201,1660010988.652,2131,-1077,2526,2.569,-0.092,-0.022,88.2,green,221,TRUE
202,1660010988.874,2179,8826,3350,0.43,-1.39,2.344,91.6,blue,221,TRUE
203,1660010988.967,2790,-1040,882,2.554,-0.012,-0.045,91.5,yellow,221,TRUE
204,1660010990.289,2157,8825,3350,1.249,-1.426,1.863,93.4,blue,221,TRUE
205,1660010990.441,2795,-1042,882,2.554,-0.012,-0.045,93.2,yellow,221,TRUE
206,1660010990.534,2128,-1079,2526,2.569,-0.092,-0.022,90.7,green,221,TRUE
207,1660010990.729,2140,8819,3350,1.254,-1.428,1.582,92.2,blue,221,TRUE
208,1660010991.934,2123,-1079,2526,2.569,-0.092,-0.022,91.5,green,221,TRUE
209,1660010992.183,2105,8835,3350,1.239,-1.424,1.558,87.2,blue,221,TRUE
210,1660010993.401,2123,-1075,2526,2.569,-0.092,-0.022,74.0,green,221,TRUE
211,1660010993.631,2084,8833,3350,1.229,-1.425,1.529,85.0,blue,221,TRUE
212,1660010993.789,2799,-1045,882,2.554,-0.012,-0.045,90.6,yellow,221,TRUE
213,1660010993.894,2133,-1072,2526,2.569,-0.092,-0.022,91.3,green,221,TRUE
214,1660010994.08,2074,8821,3350,1.232,-1.425,1.508,87.6,blue,221,TRUE
215,1660010994.169,2802,-1045,882,2.554,-0.012,-0.045,89.1,yellow,221,TRUE
216,1660010994.261,2153,-1055,2526,2.569,-0.092,-0.022,87.5,green,221,TRUE
217,1660010994.441,2068,8801,3350,1.237,-1.421,1.5,89.6,blue,221,TRUE
218,1660010995.603,2154,-1054,2526,2.569,-0.092,-0.022,89.0,green,221,TRUE
219,1660010995.857,2062,8785,3350,1.221,-1.426,1.6,90.3,blue,221,TRUE
220,1660010996.005,2806,-1043,882,2.554,-0.012,-0.045,93.9,yellow,221,TRUE
221,1660010996.101,2133,-1076,2526,2.569,-0.092,-0.022,72.0,green,221,TRUE
222,1660010996.268,2040,8775,3350,1.167,-1.418,1.836,87.2,blue,221,TRUE
223,1660010996.368,2809,-1045,882,2.554,-0.012,-0.045,91.3,yellow,221,TRUE
224,1660010996.46,2150,-1060,2526,2.569,-0.092,-0.022,89.8,green,221,TRUE
225,1660010996.639,2008,8776,3350,0.964,-1.446,1.919,89.3,blue,221,TRUE
226,1660010996.756,2808,-1045,882,2.554,-0.012,-0.045,93.3,yellow,221,TRUE
227,1660010996.862,2149,-1058,2526,2.569,-0.092,-0.022,91.3,green,221,TRUE
228,1660010997.049,2003,8770,3350,0.8,-1.454,3.025,88.4,blue,221,TRUE
229,1660010997.151,2809,-1044,882,2.554,-0.012,-0.045,92.3,yellow,221,TRUE
230,1660010998.473,2006,8751,3350,0.769,-1.469,3.042,85.8,blue,221,TRUE
231,1660010999.706,2179,-1035,2526,2.569,-0.092,-0.022,90.4,green,221,TRUE
232,1660010999.949,2023,8750,3350,0.489,-1.374,2.244,88.1,blue,221,TRUE
233,1660011000.099,2812,-1046,882,2.554,-0.012,-0.045,90.0,yellow,221,TRUE
234,1660011000.19,2150,-1055,2526,2.569,-0.092,-0.022,90.1,green,221,TRUE
235,1660011000.374,2070,8771,3350,0.492,-1.372,2.299,87.4,blue,221,TRUE
236,1660011000.462,2791,-1021,882,2.554,-0.012,-0.045,90.7,yellow,221,TRUE
237,1660011000.555,2150,-1055,2526,2.569,-0.092,-0.022,72.3,green,221,TRUE
238,1660011000.734,2106,8777,3350,0.503,-1.369,2.304,91.0,blue,221,TRUE
239,1660011000.854,2793,-1024,882,2.554,-0.012,-0.045,93.2,yellow,221,TRUE
240,1660011000.948,2154,-1052,2526,2.569,-0.092,-0.022,89.3,green,221,TRUE
241,1660011001.128,2147,8781,3350,0.497,-1.371,2.307,89.1,blue,221,TRUE
242,1660011001.22,2796,-1033,882,2.554,-0.012,-0.045,87.3,yellow,221,TRUE
243,1660011001.31,2179,-1031,2526,2.569,-0.092,-0.022,85.9,green,221,TRUE
244,1660011001.548,2162,8798,3350,0.578,-1.391,2.102,89.9,blue,221,TRUE
245,1660011002.771,2176,-1034,2526,2.569,-0.092,-0.022,89.9,green,221,TRUE
246,1660011003.028,2184,8801,3350,0.636,-1.409,2.053,88.0,blue,221,TRUE
247,1660011003.177,2797,-1031,882,2.554,-0.012,-0.045,91.4,yellow,221,TRUE
248,1660011003.269,2167,-986,2526,2.569,-0.092,-0.022,74.2,green,221,TRUE
249,1660011003.434,2196,8814,3350,0.547,-1.377,2.227,88.8,blue,221,TRUE
250,1660011003.524,2794,-1032,882,2.554,-0.012,-0.045,89.6,yellow,221,TRUE
251,1660011003.617,2161,-991,2526,2.569,-0.092,-0.022,87.1,green,221,TRUE
252,1660011003.823,2209,8833,3350,0.53,-1.376,2.247,92.0,blue,221,TRUE
253,1660011003.944,2795,-1032,882,2.554,-0.012,-0.045,91.7,yellow,221,TRUE
254,1660011004.037,2139,-1010,2526,2.569,-0.092,-0.022,90.8,green,221,TRUE
255,1660011004.218,2228,8861,3350,0.528,-1.376,2.25,88.8,blue,221,TRUE
256,1660011004.308,2802,-1038,882,2.554,-0.012,-0.045,90.6,yellow,221,TRUE
257,1660011005.632,2250,8834,3350,0.672,-1.427,1.864,97.0,blue,221,TRUE
258,1660011005.802,2798,-1037,882,2.554,-0.012,-0.045,92.4,yellow,221,TRUE
259,1660011005.907,2129,-1014,2526,2.569,-0.092,-0.022,90.9,green,221,TRUE
260,1660011006.091,2290,8816,3350,0.784,-1.451,3.026,88.2,blue,221,TRUE
261,1660011006.192,2803,-1044,882,2.554,-0.012,-0.045,90.9,yellow,221,TRUE
262,1660011006.284,2149,-995,2526,2.569,-0.092,-0.022,90.1,green,221,TRUE
263,1660011006.465,2307,8817,3350,0.772,-1.465,3.04,90.7,blue,221,TRUE
264,1660011007.654,2128,-1011,2526,2.569,-0.092,-0.022,90.8,green,221,TRUE
265,1660011007.911,2306,8789,3350,0.753,-1.451,3.025,89.2,blue,221,TRUE
266,1660011009.136,2098,-1038,2526,2.569,-0.092,-0.022,72.5,green,221,TRUE
267,1660011009.374,2297,8760,3350,0.755,-1.452,3.025,90.6,blue,221,TRUE
268,1660011009.526,2808,-1046,882,2.554,-0.012,-0.045,88.3,yellow,221,TRUE
269,1660011009.618,2096,-1038,2526,2.569,-0.092,-0.022,86.4,green,221,TRUE
270,1660011009.809,2304,8746,3350,0.754,-1.451,3.025,91.7,blue,221,TRUE
271,1660011009.93,2804,-1043,882,2.554,-0.012,-0.045,90.4,yellow,221,TRUE
272,1660011010.022,2095,-1040,2526,2.569,-0.092,-0.022,88.9,green,221,TRUE
273,1660011010.201,2304,8735,3350,0.746,-1.45,1.769,90.6,blue,221,TRUE
274,1660011011.422,2092,-1041,2526,2.569,-0.092,-0.022,77.1,green,221,TRUE
275,1660011011.653,2314,8710,3350,0.795,-1.464,3.036,87.5,blue,221,TRUE
276,1660011011.814,2814,-1042,882,2.554,-0.012,-0.045,92.8,yellow,221,TRUE
277,1660011011.92,2072,-1062,2526,2.569,-0.092,-0.022,75.3,green,221,TRUE
278,1660011012.088,2338,8709,3350,0.78,-1.465,3.038,88.9,blue,221,TRUE
279,1660011012.19,2846,-1070,882,2.554,-0.012,-0.045,107.5,yellow,221,TRUE
280,1660011012.311,2046,-1083,2526,2.569,-0.092,-0.022,76.9,green,221,TRUE
281,1660011012.481,2360,8700,3350,0.752,-1.462,3.034,87.8,blue,221,TRUE
282,1660011013.64,2077,-1115,2526,2.569,-0.092,-0.022,87.9,green,221,TRUE
283,1660011013.864,2380,8682,3350,0.735,-1.456,3.029,87.8,blue,221,TRUE
284,1660011015.086,2101,-1092,2526,2.569,-0.092,-0.022,87.3,green,221,TRUE
285,1660011016.29,2395,8659,3350,0.74,-1.457,3.029,89.5,blue,221,TRUE
286,1660011016.445,2847,-1069,882,2.554,-0.012,-0.045,99.6,yellow,221,TRUE
287,1660011016.549,2128,-1072,2526,2.569,-0.092,-0.022,84.7,green,221,TRUE
288,1660011016.771,2413,8666,3350,0.743,-1.457,3.029,91.2,blue,221,TRUE
289,1660011016.89,2839,-1057,882,2.554,-0.012,-0.045,92.8,yellow,221,TRUE
290,1660011016.984,2158,-1051,2526,2.569,-0.092,-0.022,89.4,green,221,TRUE
291,1660011017.151,2391,8662,3350,0.743,-1.457,3.029,89.1,blue,221,TRUE
292,1660011017.268,2845,-1068,882,2.554,-0.012,-0.045,92.5,yellow,221,TRUE
293,1660011017.364,2130,-1071,2526,2.569,-0.092,-0.022,99.7,green,221,TRUE
294,1660011017.542,2383,8667,3350,0.742,-1.457,3.029,88.4,blue,221,TRUE
295,1660011018.779,2128,-1073,2526,2.569,-0.092,-0.022,90.3,green,221,TRUE
296,1660011019.021,2381,8666,3350,0.742,-1.457,3.029,89.2,blue,221,TRUE
297,1660011019.171,2850,-1072,882,2.554,-0.012,-0.045,89.5,yellow,221,TRUE
298,1660011019.261,2128,-1070,2526,2.569,-0.092,-0.022,88.8,green,221,TRUE
299,1660011019.456,2386,8660,3350,0.742,-1.457,3.029,90.9,blue,221,TRUE
300,1660011019.552,2847,-1071,882,2.554,-0.012,-0.045,84.9,yellow,221,TRUE
301,1660011019.637,2128,-1070,2526,2.569,-0.092,-0.022,73.9,green,221,TRUE
302,1660011019.832,2384,8653,3350,0.742,-1.457,3.029,92.9,blue,221,TRUE
303,1660011021.099,2104,-1088,2526,2.569,-0.092,-0.022,89.5,green,221,TRUE
304,1660011021.356,2388,8649,3350,0.745,-1.455,3.028,89.5,blue,221,TRUE
305,1660011022.592,2136,-1064,2526,2.569,-0.092,-0.022,86.4,green,221,TRUE
306,1660011022.831,2398,8655,3350,0.753,-1.456,3.028,90.0,blue,221,TRUE
307,1660011024.069,2158,-1044,2526,2.569,-0.092,-0.022,92.0,green,221,TRUE
308,1660011024.311,2367,8668,3350,0.638,-1.438,2.05,91.0,blue,221,TRUE
309,1660011025.581,2159,-1040,2526,2.569,-0.092,-0.022,88.5,green,221,TRUE
310,1660011025.82,2340,8675,3350,0.468,-1.381,2.409,90.2,blue,221,TRUE
311,1660011025.983,2851,-1082,882,2.554,-0.012,-0.045,92.8,yellow,221,TRUE
312,1660011026.076,2162,-1036,2526,2.569,-0.092,-0.022,89.7,green,221,TRUE
313,1660011026.269,2317,8686,3350,0.472,-1.379,2.412,93.0,blue,221,TRUE
314,1660011026.39,2852,-1084,882,2.554,-0.012,-0.045,91.6,yellow,221,TRUE
315,1660011027.71,2305,8688,3350,0.637,-1.427,1.92,83.4,blue,221,TRUE
316,1660011027.868,2849,-1078,882,2.554,-0.012,-0.045,92.1,yellow,221,TRUE
317,1660011028.158,2297,8679,3350,0.723,-1.457,3.035,89.9,blue,221,TRUE
318,1660011028.277,2864,-1093,882,2.554,-0.012,-0.045,92.4,yellow,221,TRUE
319,1660011028.382,2146,-1055,2526,2.569,-0.092,-0.022,78.2,green,221,TRUE
320,1660011028.553,2296,8684,3350,0.719,-1.463,3.039,88.4,blue,221,TRUE
321,1660011028.645,2874,-1100,882,2.554,-0.012,-0.045,86.7,yellow,221,TRUE
322,1660011028.733,2148,-1052,2526,2.569,-0.092,-0.022,89.5,green,221,TRUE
323,1660011028.955,2305,8699,3350,0.712,-1.452,3.027,91.8,blue,221,TRUE
324,1660011029.048,2863,-1100,882,2.554,-0.012,-0.045,89.5,yellow,221,TRUE
325,1660011029.14,2123,-1069,2526,2.569,-0.092,-0.022,88.0,green,221,TRUE
326,1660011029.407,2302,8704,3350,0.716,-1.449,1.862,92.8,blue,221,TRUE
327,1660011029.559,2851,-1092,882,2.554,-0.012,-0.045,91.3,yellow,221,TRUE
328,1660011029.844,2300,8712,3350,0.717,-1.449,1.872,93.5,blue,221,TRUE
329,1660011029.966,2851,-1089,882,2.554,-0.012,-0.045,93.2,yellow,221,TRUE
330,1660011030.059,2123,-1069,2526,2.569,-0.092,-0.022,75.1,green,221,TRUE
331,1660011030.225,2296,8718,3350,0.717,-1.451,1.83,88.1,blue,221,TRUE
332,1660011031.401,2125,-1069,2526,2.569,-0.092,-0.022,90.9,green,221,TRUE
333,1660011031.648,2286,8742,3350,0.383,-1.376,2.555,98.4,blue,221,TRUE
334,1660011031.818,2857,-1099,882,2.554,-0.012,-0.045,91.9,yellow,221,TRUE
335,1660011031.924,2148,-1051,2526,2.569,-0.092,-0.022,92.4,green,221,TRUE
336,1660011032.11,2207,8723,3350,0.388,-1.358,2.596,88.1,blue,221,TRUE
337,1660011032.213,2848,-1088,882,2.554,-0.012,-0.045,90.0,yellow,221,TRUE
338,1660011032.317,2153,-1049,2526,2.569,-0.092,-0.022,78.0,green,221,TRUE
339,1660011032.517,2199,8714,3350,0.385,-1.358,2.607,90.4,blue,221,TRUE
340,1660011032.613,2844,-1081,882,2.554,-0.012,-0.045,99.5,yellow,221,TRUE
341,1660011032.713,2152,-1050,2526,2.569,-0.092,-0.022,72.7,green,221,TRUE
342,1660011032.969,2197,8709,3350,0.375,-1.366,2.62,89.9,blue,221,TRUE
343,1660011034.193,2129,-1070,2526,2.569,-0.092,-0.022,72.8,green,221,TRUE
344,1660011034.418,2237,8683,3350,0.241,-1.29,3.084,89.2,blue,221,TRUE
345,1660011035.641,2109,-1092,2526,2.569,-0.092,-0.022,85.0,green,221,TRUE
346,1660011035.877,2323,8549,3350,1.637,-1.517,3.089,88.9,blue,221,TRUE
347,1660011036.025,2845,-1080,882,2.554,-0.012,-0.045,90.6,yellow,221,TRUE
348,1660011037.344,2407,8321,3350,1.368,-1.484,3.136,97.5,blue,221,TRUE
349,1660011038.572,2108,-1091,2526,2.569,-0.092,-0.022,76.4,green,221,TRUE
350,1660011038.816,2509,8057,3350,0.632,-1.305,-2.945,90.0,blue,221,TRUE
351,1660011038.979,2832,-1065,882,2.554,-0.012,-0.045,93.1,yellow,221,TRUE
352,1660011039.073,2134,-1071,2526,2.569,-0.092,-0.022,89.5,green,221,TRUE
353,1660011039.254,2624,7801,3350,0.657,-1.441,-2.75,89.6,blue,221,TRUE
354,1660011039.372,2827,-1061,882,2.554,-0.012,-0.045,92.0,yellow,221,TRUE
355,1660011039.698,2734,7539,3350,0.719,-1.46,3.129,83.5,blue,221,TRUE
356,1660011040.896,2107,-1090,2526,2.569,-0.092,-0.022,75.2,green,221,TRUE
357,1660011041.125,2857,7313,3350,0.857,-1.463,3.084,85.5,blue,221,TRUE
358,1660011042.344,2107,-1090,2526,2.569,-0.092,-0.022,74.4,green,221,TRUE
359,1660011042.57,2976,7075,3350,0.978,-1.469,3.09,90.4,blue,221,TRUE
360,1660011042.72,2827,-1063,882,2.554,-0.012,-0.045,90.0,yellow,221,TRUE
361,1660011042.81,2104,-1093,2526,2.569,-0.092,-0.022,89.5,green,221,TRUE
362,1660011043.022,3110,6823,3350,0.98,-1.466,3.093,89.4,blue,221,TRUE
363,1660011045.456,3313,6632,3350,0.745,-1.448,-1.851,83.8,blue,221,TRUE
364,1660011046.687,2129,-1076,2526,2.569,-0.092,-0.022,87.9,green,221,TRUE
365,1660011046.942,3462,6390,3350,0.845,-1.509,-3.086,89.5,blue,221,TRUE
366,1660011048.168,2123,-1080,2526,2.569,-0.092,-0.022,73.5,green,221,TRUE
367,1660011048.394,3596,6152,3350,0.853,-1.504,-3.096,88.6,blue,221,TRUE
368,1660011048.56,2806,-1046,882,2.554,-0.012,-0.045,89.8,yellow,221,TRUE
369,1660011049.882,3706,5950,3350,0.85,-1.505,-3.095,95.9,blue,221,TRUE
370,1660011050.038,2807,-1039,882,2.554,-0.012,-0.045,91.4,yellow,221,TRUE
371,1660011050.133,2099,-1100,2526,2.569,-0.092,-0.022,72.8,green,221,TRUE
372,1660011050.323,3749,5863,3350,0.853,-1.505,-3.094,93.3,blue,221,TRUE
373,1660011050.445,2808,-1039,882,2.554,-0.012,-0.045,92.4,yellow,221,TRUE
374,1660011050.538,2101,-1100,2526,2.569,-0.092,-0.022,89.5,green,221,TRUE
375,1660011050.721,3783,5868,3350,0.853,-1.505,-3.095,88.8,blue,221,TRUE
376,1660011050.823,2808,-1043,882,2.554,-0.012,-0.045,94.4,yellow,221,TRUE
377,1660011050.931,2103,-1102,2526,2.569,-0.092,-0.022,92.5,green,221,TRUE
378,1660011051.177,3799,5899,3350,0.852,-1.503,-3.095,88.1,blue,221,TRUE
379,1660011052.351,2101,-1101,2526,2.569,-0.092,-0.022,89.8,green,221,TRUE
380,1660011052.597,3794,5903,3350,0.853,-1.505,-3.097,87.2,blue,221,TRUE
381,1660011052.744,2807,-1047,882,2.554,-0.012,-0.045,91.2,yellow,221,TRUE
382,1660011052.839,2098,-1098,2526,2.569,-0.092,-0.022,86.1,green,221,TRUE
383,1660011053.03,3814,5937,3350,0.848,-1.505,-3.097,89.2,blue,221,TRUE
384,1660011054.205,2126,-1081,2526,2.569,-0.092,-0.022,89.3,green,221,TRUE
385,1660011054.462,3798,5911,3350,0.846,-1.505,-3.098,87.7,blue,221,TRUE
386,1660011055.703,2118,-1082,2526,2.569,-0.092,-0.022,87.3,green,221,TRUE
387,1660011055.958,3794,5905,3350,0.858,-1.508,-3.101,90.2,blue,221,TRUE
388,1660011056.107,2811,-1045,882,2.554,-0.012,-0.045,91.4,yellow,221,TRUE
389,1660011056.202,2113,-1082,2526,2.569,-0.092,-0.022,72.5,green,221,TRUE
390,1660011056.382,3777,5888,3350,0.852,-1.503,-3.1,89.0,blue,221,TRUE
391,1660011056.48,2809,-1040,882,2.554,-0.012,-0.045,96.4,yellow,221,TRUE
392,1660011056.579,2109,-1083,2526,2.569,-0.092,-0.022,72.6,green,221,TRUE
393,1660011056.758,3755,5856,3350,0.851,-1.503,-3.099,89.9,blue,221,TRUE
394,1660011056.851,2812,-1048,882,2.554,-0.012,-0.045,86.9,yellow,221,TRUE
395,1660011056.94,2109,-1083,2526,2.569,-0.092,-0.022,72.4,green,221,TRUE
396,1660011058.081,3752,5854,3350,0.832,-1.498,-3.093,88.9,blue,221,TRUE
397,1660011058.237,2815,-1053,882,2.554,-0.012,-0.045,98.1,yellow,221,TRUE
398,1660011058.337,2081,-1101,2526,2.569,-0.092,-0.022,88.3,green,221,TRUE
399,1660011058.575,3760,5845,3350,0.805,-1.48,-3.088,91.1,blue,221,TRUE
400,1660011058.669,2821,-1051,882,2.554,-0.012,-0.045,85.9,yellow,221,TRUE
401,1660011058.756,2060,-1118,2526,2.569,-0.092,-0.022,90.1,green,221,TRUE
402,1660011058.936,3741,5820,3350,0.818,-1.479,-3.09,89.6,blue,221,TRUE
403,1660011059.026,2822,-1054,882,2.554,-0.012,-0.045,89.3,yellow,221,TRUE
404,1660011059.119,2060,-1118,2526,2.569,-0.092,-0.022,87.1,green,221,TRUE
405,1660011059.325,3744,5813,3350,0.821,-1.484,-3.094,93.0,blue,221,TRUE
406,1660011060.521,2070,-1113,2526,2.569,-0.092,-0.022,74.2,green,221,TRUE
407,1660011060.763,3746,5816,3350,0.82,-1.487,-3.093,88.0,blue,221,TRUE
408,1660011060.912,2823,-1051,882,2.554,-0.012,-0.045,88.1,yellow,221,TRUE
409,1660011061.001,2078,-1112,2526,2.569,-0.092,-0.022,75.1,green,221,TRUE
410,1660011061.167,3779,5823,3350,0.82,-1.488,-3.093,91.1,blue,221,TRUE
411,1660011061.286,2825,-1048,882,2.554,-0.012,-0.045,92.7,yellow,221,TRUE
412,1660011061.391,2072,-1112,2526,2.569,-0.092,-0.022,78.1,green,221,TRUE
413,1660011061.575,3778,5814,3350,0.817,-1.488,-3.094,89.1,blue,221,TRUE
414,1660011061.678,2819,-1047,882,2.554,-0.012,-0.045,91.9,yellow,221,TRUE
415,1660011061.771,2074,-1107,2526,2.569,-0.092,-0.022,88.5,green,221,TRUE
416,1660011061.966,3774,5811,3350,0.825,-1.489,-3.095,89.0,blue,221,TRUE
417,1660011062.056,2818,-1047,882,2.554,-0.012,-0.045,90.0,yellow,221,TRUE
418,1660011063.378,3776,5818,3350,0.898,-1.494,-3.1,83.4,blue,221,TRUE
419,1660011063.52,2819,-1044,882,2.554,-0.012,-0.045,90.4,yellow,221,TRUE
420,1660011063.611,2076,-1105,2526,2.569,-0.092,-0.022,90.2,green,221,TRUE
421,1660011063.793,3782,5833,3350,0.86,-1.487,-3.099,88.6,blue,221,TRUE
422,1660011063.884,2820,-1042,882,2.554,-0.012,-0.045,88.3,yellow,221,TRUE
423,1660011063.973,2101,-1086,2526,2.569,-0.092,-0.022,89.7,green,221,TRUE
424,1660011064.156,3800,5862,3350,0.856,-1.489,-3.096,87.3,blue,221,TRUE
425,1660011064.256,2822,-1049,882,2.554,-0.012,-0.045,92.7,yellow,221,TRUE
426,1660011064.361,2068,-1109,2526,2.569,-0.092,-0.022,92.3,green,221,TRUE
427,1660011064.563,3798,5852,3350,0.855,-1.484,-3.09,88.7,blue,221,TRUE
428,1660011064.656,2822,-1055,882,2.554,-0.012,-0.045,86.2,yellow,221,TRUE
429,1660011064.755,2045,-1131,2526,2.569,-0.092,-0.022,78.0,green,221,TRUE
430,1660011064.985,3791,5851,3350,0.855,-1.487,-3.089,88.1,blue,221,TRUE
431,1660011065.134,2822,-1052,882,2.554,-0.012,-0.045,89.9,yellow,221,TRUE
432,1660011065.225,2048,-1128,2526,2.569,-0.092,-0.022,90.2,green,221,TRUE
433,1660011065.448,3782,5858,3350,0.852,-1.485,-3.089,91.7,blue,221,TRUE
434,1660011065.541,2822,-1051,882,2.554,-0.012,-0.045,88.7,yellow,221,TRUE
435,1660011065.632,2053,-1130,2526,2.569,-0.092,-0.022,73.0,green,221,TRUE
436,1660011065.81,3784,5857,3350,0.864,-1.481,-3.089,89.0,blue,221,TRUE
437,1660011065.902,2821,-1055,882,2.554,-0.012,-0.045,86.6,yellow,221,TRUE
438,1660011065.99,2050,-1132,2526,2.569,-0.092,-0.022,74.4,green,221,TRUE
439,1660011066.155,3782,5857,3350,0.857,-1.485,-3.094,89.9,blue,221,TRUE
440,1660011067.35,2044,-1133,2526,2.569,-0.092,-0.022,90.2,green,221,TRUE
441,1660011067.608,3789,5864,3350,0.858,-1.492,-3.095,91.3,blue,221,TRUE
442,1660011068.856,2044,-1133,2526,2.569,-0.092,-0.022,75.6,green,221,TRUE
443,1660011069.105,3772,5885,3350,0.863,-1.503,-3.1,97.8,blue,221,TRUE
444,1660011069.261,2825,-1058,882,2.554,-0.012,-0.045,93.2,yellow,221,TRUE
445,1660011069.356,2040,-1134,2526,2.569,-0.092,-0.022,87.2,green,221,TRUE
446,1660011069.565,3768,5892,3350,0.862,-1.498,-3.096,88.2,blue,221,TRUE
447,1660011069.657,2823,-1060,882,2.554,-0.012,-0.045,87.9,yellow,221,TRUE
448,1660011069.744,2045,-1132,2526,2.569,-0.092,-0.022,89.9,green,221,TRUE
449,1660011069.927,3755,5887,3350,0.852,-1.494,-3.093,87.6,blue,221,TRUE
450,1660011070.016,2825,-1066,882,2.554,-0.012,-0.045,90.1,yellow,221,TRUE
451,1660011071.322,3791,5928,3350,0.867,-1.494,-3.086,85.7,blue,221,TRUE
452,1660011071.48,2825,-1068,882,2.554,-0.012,-0.045,91.8,yellow,221,TRUE
453,1660011071.572,2044,-1133,2526,2.569,-0.092,-0.022,89.3,green,221,TRUE
454,1660011071.766,3785,5940,3350,0.879,-1.49,-3.086,92.3,blue,221,TRUE
455,1660011071.86,2798,-1040,882,2.554,-0.012,-0.045,89.0,yellow,221,TRUE
456,1660011071.953,2044,-1133,2526,2.569,-0.092,-0.022,85.7,green,221,TRUE
457,1660011072.133,3761,5944,3350,0.879,-1.488,-3.085,87.2,blue,221,TRUE
458,1660011072.234,2803,-1049,882,2.554,-0.012,-0.045,92.9,yellow,221,TRUE
459,1660011072.34,2036,-1139,2526,2.569,-0.092,-0.022,93.2,green,221,TRUE
460,1660011072.553,3768,5961,3350,0.853,-1.491,-3.09,90.6,blue,221,TRUE
461,1660011072.647,2805,-1053,882,2.554,-0.012,-0.045,86.7,yellow,221,TRUE
462,1660011072.735,2011,-1159,2526,2.569,-0.092,-0.022,76.0,green,221,TRUE
463,1660011072.964,3763,5969,3350,0.862,-1.484,-3.088,87.2,blue,221,TRUE
464,1660011073.111,2799,-1045,882,2.554,-0.012,-0.045,92.4,yellow,221,TRUE
465,1660011074.433,3765,5980,3350,0.874,-1.481,-3.098,96.3,blue,221,TRUE
466,1660011075.679,2010,-1158,2526,2.569,-0.092,-0.022,74.0,green,221,TRUE
467,1660011075.905,3788,6021,3350,0.866,-1.485,-3.096,89.2,blue,221,TRUE
468,1660011077.162,2012,-1159,2526,2.569,-0.092,-0.022,86.5,green,221,TRUE
469,1660011077.429,3790,6021,3350,0.869,-1.491,-3.101,88.5,blue,221,TRUE
470,1660011077.577,2805,-1047,882,2.554,-0.012,-0.045,93.4,yellow,221,TRUE
471,1660011077.674,2043,-1141,2526,2.569,-0.092,-0.022,87.2,green,221,TRUE
472,1660011077.868,3790,6016,3350,0.867,-1.487,-3.101,89.3,blue,221,TRUE
473,1660011079.049,2039,-1140,2526,2.569,-0.092,-0.022,90.7,green,221,TRUE
474,1660011079.307,3778,5989,3350,0.866,-1.49,-3.098,87.8,blue,221,TRUE
475,1660011079.469,2805,-1046,882,2.554,-0.012,-0.045,91.9,yellow,221,TRUE
476,1660011079.562,2041,-1139,2526,2.569,-0.092,-0.022,90.8,green,221,TRUE
477,1660011079.744,3804,6009,3350,0.872,-1.489,-3.098,88.0,blue,221,TRUE
478,1660011079.861,2805,-1049,882,2.554,-0.012,-0.045,93.5,yellow,221,TRUE
479,1660011081.182,3820,6018,3350,0.877,-1.491,-3.102,94.3,blue,221,TRUE
480,1660011081.35,2800,-1044,882,2.554,-0.012,-0.045,90.3,yellow,221,TRUE
481,1660011081.454,2048,-1136,2526,2.569,-0.092,-0.022,77.1,green,221,TRUE
482,1660011081.625,3821,6024,3350,0.861,-1.492,-3.099,88.3,blue,221,TRUE
483,1660011081.727,2798,-1043,882,2.554,-0.012,-0.045,91.9,yellow,221,TRUE
484,1660011081.832,2047,-1136,2526,2.569,-0.092,-0.022,78.5,green,221,TRUE
485,1660011082.004,3840,6023,3350,0.862,-1.491,-3.099,85.8,blue,221,TRUE
486,1660011082.094,2799,-1045,882,2.554,-0.012,-0.045,87.0,yellow,221,TRUE
487,1660011082.182,2069,-1114,2526,2.569,-0.092,-0.022,89.0,green,221,TRUE
488,1660011082.405,3871,6013,3350,0.864,-1.493,-3.099,93.6,blue,221,TRUE
489,1660011082.5,2794,-1041,882,2.554,-0.012,-0.045,89.2,yellow,221,TRUE
490,1660011082.593,2065,-1116,2526,2.569,-0.092,-0.022,85.6,green,221,TRUE
491,1660011082.855,3882,6033,3350,0.861,-1.493,-3.1,91.4,blue,221,TRUE
492,1660011083.005,2796,-1043,882,2.554,-0.012,-0.045,91.2,yellow,221,TRUE
493,1660011083.099,2082,-1100,2526,2.569,-0.092,-0.022,87.7,green,221,TRUE
494,1660011083.278,3904,6050,3350,0.861,-1.492,-3.1,89.5,blue,221,TRUE
495,1660011084.495,2089,-1097,2526,2.569,-0.092,-0.022,75.3,green,221,TRUE
496,1660011084.74,3916,6065,3350,0.85,-1.499,-3.118,87.5,blue,221,TRUE
497,1660011085.992,2088,-1097,2526,2.569,-0.092,-0.022,73.6,green,221,TRUE
498,1660011086.237,3890,6018,3350,0.836,-1.506,-3.122,83.6,blue,221,TRUE
499,1660011087.485,2097,-1097,2526,2.569,-0.092,-0.022,75.2,green,221,TRUE
500,1660011087.714,3872,6005,3350,0.837,-1.5,-3.112,88.0,blue,221,TRUE
501,1660011088.963,2102,-1095,2526,2.569,-0.092,-0.022,74.8,green,221,TRUE
502,1660011089.196,3864,6004,3350,0.843,-1.502,-3.11,84.3,blue,221,TRUE
503,1660011089.352,2822,-1069,882,2.554,-0.012,-0.045,92.2,yellow,221,TRUE
504,1660011089.458,2098,-1095,2526,2.569,-0.092,-0.022,91.3,green,221,TRUE
505,1660011089.643,3837,5999,3350,0.844,-1.502,-3.108,87.3,blue,221,TRUE
506,1660011089.743,2821,-1064,882,2.554,-0.012,-0.045,92.9,yellow,221,TRUE
507,1660011089.85,2101,-1096,2526,2.569,-0.092,-0.022,92.5,green,221,TRUE
508,1660011090.064,3817,5987,3350,0.842,-1.504,-3.109,88.9,blue,221,TRUE
509,1660011091.254,2101,-1096,2526,2.569,-0.092,-0.022,89.0,green,221,TRUE
510,1660011091.516,3815,5989,3350,0.836,-1.502,-3.108,98.7,blue,221,TRUE
511,1660011092.743,2099,-1098,2526,2.569,-0.092,-0.022,75.1,green,221,TRUE
512,1660011092.984,3791,5978,3350,0.836,-1.503,-3.108,88.2,blue,221,TRUE
513,1660011093.133,2824,-1064,882,2.554,-0.012,-0.045,91.4,yellow,221,TRUE
514,1660011093.493,3766,5969,3350,0.832,-1.499,-3.108,91.7,blue,221,TRUE
515,1660011093.585,2823,-1063,882,2.554,-0.012,-0.045,89.5,yellow,221,TRUE
516,1660011093.677,2096,-1097,2526,2.569,-0.092,-0.022,73.9,green,221,TRUE
517,1660011093.868,3739,5961,3350,0.83,-1.5,-3.108,91.0,blue,221,TRUE
518,1660011093.988,2824,-1064,882,2.554,-0.012,-0.045,92.3,yellow,221,TRUE
519,1660011094.08,2096,-1097,2526,2.569,-0.092,-0.022,75.9,green,221,TRUE
520,1660011094.308,3748,5972,3350,0.831,-1.502,-3.108,88.1,blue,221,TRUE
521,1660011094.471,2824,-1066,882,2.554,-0.012,-0.045,90.9,yellow,221,TRUE
522,1660011094.563,2096,-1097,2526,2.569,-0.092,-0.022,59.5,green,221,TRUE
523,1660011094.713,3742,5970,3350,0.842,-1.506,-3.11,90.1,blue,221,TRUE
524,1660011094.832,2821,-1062,882,2.554,-0.012,-0.045,92.7,yellow,221,TRUE
525,1660011094.937,2076,-1118,2526,2.569,-0.092,-0.022,78.2,green,221,TRUE
526,1660011095.112,3740,5959,3350,0.84,-1.501,-3.105,99.4,blue,221,TRUE
527,1660011095.225,2826,-1064,882,2.554,-0.012,-0.045,92.0,yellow,221,TRUE
528,1660011095.329,2105,-1099,2526,2.569,-0.092,-0.022,92.2,green,221,TRUE
529,1660011095.527,3757,5984,3350,0.837,-1.499,-3.101,90.3,blue,221,TRUE
530,1660011096.761,2088,-1117,2526,2.569,-0.092,-0.022,74.6,green,221,TRUE
531,1660011096.988,3777,5997,3350,0.844,-1.489,-3.097,87.1,blue,221,TRUE
532,1660011098.245,2086,-1118,2526,2.569,-0.092,-0.022,82.6,green,221,TRUE
533,1660011098.48,3774,5984,3350,1.086,-1.448,2.661,88.7,blue,221,TRUE
534,1660011098.627,2830,-1067,882,2.554,-0.012,-0.045,93.2,yellow,221,TRUE
535,1660011098.723,2081,-1121,2526,2.569,-0.092,-0.022,87.0,green,221,TRUE
536,1660011098.928,3777,5986,3350,0.99,-1.503,3.094,92.0,blue,221,TRUE
537,1660011099.021,2828,-1065,882,2.554,-0.012,-0.045,102.7,yellow,221,TRUE
538,1660011099.129,2072,-1120,2526,2.569,-0.092,-0.022,87.3,green,221,TRUE
539,1660011099.336,3758,5943,3350,1.083,-1.457,3.038,92.9,blue,221,TRUE
540,1660011100.511,2078,-1116,2526,2.569,-0.092,-0.022,74.9,green,221,TRUE
541,1660011100.742,3748,5922,3350,1.113,-1.535,3.106,84.1,blue,221,TRUE
542,1660011100.916,2837,-1074,882,2.554,-0.012,-0.045,92.2,yellow,221,TRUE
543,1660011101.009,2075,-1116,2526,2.569,-0.092,-0.022,90.0,green,221,TRUE
544,1660011101.192,3772,5897,3350,1.124,-1.533,3.103,87.9,blue,221,TRUE
545,1660011101.293,2833,-1071,882,2.554,-0.012,-0.045,92.0,yellow,221,TRUE
546,1660011101.398,2096,-1097,2526,2.569,-0.092,-0.022,91.9,green,221,TRUE
547,1660011101.596,3769,5863,3350,1.109,-1.533,0.037,91.4,blue,221,TRUE
548,1660011102.788,2093,-1101,2526,2.569,-0.092,-0.022,89.5,green,221,TRUE
549,1660011103.043,3790,5866,3350,1.129,-1.534,0.034,89.0,blue,221,TRUE
550,1660011104.266,2085,-1103,2526,2.569,-0.092,-0.022,74.1,green,221,TRUE
551,1660011104.493,3779,5842,3350,1.128,-1.534,0.033,88.4,blue,221,TRUE
552,1660011104.64,2837,-1074,882,2.554,-0.012,-0.045,90.9,yellow,221,TRUE
553,1660011104.735,2084,-1105,2526,2.569,-0.092,-0.022,70.9,green,221,TRUE
554,1660011104.925,3764,5813,3350,1.127,-1.533,0.033,91.9,blue,221,TRUE
555,1660011106.11,2084,-1103,2526,2.569,-0.092,-0.022,73.0,green,221,TRUE
556,1660011106.335,3752,5786,3350,1.13,-1.532,0.033,89.0,blue,221,TRUE
557,1660011106.509,2843,-1080,882,2.554,-0.012,-0.045,94.6,yellow,221,TRUE
558,1660011106.605,2057,-1120,2526,2.569,-0.092,-0.022,75.1,green,221,TRUE
559,1660011106.784,3737,5763,3350,1.138,-1.535,0.031,93.4,blue,221,TRUE
560,1660011106.89,2842,-1085,882,2.554,-0.012,-0.045,92.8,yellow,221,TRUE
561,1660011106.996,2056,-1122,2526,2.569,-0.092,-0.022,77.3,green,221,TRUE
562,1660011107.171,3727,5752,3350,1.133,-1.536,0.031,85.6,blue,221,TRUE
563,1660011108.327,2052,-1121,2526,2.569,-0.092,-0.022,75.6,green,221,TRUE
564,1660011108.555,3742,5752,3350,1.143,-1.536,0.027,89.6,blue,221,TRUE
565,1660011109.777,2053,-1121,2526,2.569,-0.092,-0.022,74.7,green,221,TRUE
566,1660011110.003,3762,5732,3350,1.576,-1.486,3.079,87.3,blue,221,TRUE
567,1660011110.15,2844,-1084,882,2.554,-0.012,-0.045,90.8,yellow,221,TRUE
568,1660011110.246,2058,-1120,2526,2.569,-0.092,-0.022,85.8,green,221,TRUE
569,1660011110.449,3813,5686,3350,1.876,-1.458,3.043,91.6,blue,221,TRUE
570,1660011110.542,2843,-1083,882,2.554,-0.012,-0.045,89.6,yellow,221,TRUE
571,1660011110.634,2053,-1122,2526,2.569,-0.092,-0.022,87.6,green,221,TRUE
572,1660011110.841,3815,5627,3350,2.159,-1.521,-3.099,94.6,blue,221,TRUE
573,1660011112.082,2035,-1141,2526,2.569,-0.092,-0.022,75.1,green,221,TRUE
574,1660011112.31,3787,5476,3350,2.563,-1.5,3.073,89.3,blue,221,TRUE
575,1660011113.556,2016,-1160,2526,2.569,-0.092,-0.022,75.9,green,221,TRUE
576,1660011113.804,3820,5252,3350,2.52,-1.498,3.071,83.1,blue,221,TRUE
577,1660011115.062,2024,-1158,2526,2.569,-0.092,-0.022,74.7,green,221,TRUE
578,1660011115.304,3774,4874,3350,2.162,-1.466,3.049,88.9,blue,221,TRUE
579,1660011115.516,2834,-1103,882,2.554,-0.012,-0.045,86.3,yellow,221,TRUE
580,1660011116.836,3800,4531,3350,1.114,-1.361,2.357,97.6,blue,221,TRUE
581,1660011117.007,2840,-1106,882,2.554,-0.012,-0.045,92.6,yellow,221,TRUE
582,1660011117.1,2036,-1157,2526,2.569,-0.092,-0.022,75.0,green,221,TRUE
583,1660011117.268,3823,4220,3350,0.977,-1.516,3.124,88.6,blue,221,TRUE
584,1660011117.385,2836,-1103,882,2.554,-0.012,-0.045,92.5,yellow,221,TRUE
585,1660011117.49,2063,-1148,2526,2.569,-0.092,-0.022,92.7,green,221,TRUE
586,1660011117.675,3839,3915,3350,1.017,-1.406,2.483,89.0,blue,221,TRUE
587,1660011117.777,2835,-1098,882,2.554,-0.012,-0.045,95.8,yellow,221,TRUE
588,1660011117.883,2085,-1140,2526,2.569,-0.092,-0.022,94.4,green,221,TRUE
589,1660011118.141,3854,3611,3350,0.958,-1.366,2.819,91.8,blue,221,TRUE
590,1660011119.407,2111,-1121,2526,2.569,-0.092,-0.022,92.3,green,221,TRUE
591,1660011119.649,3846,3290,3350,0.935,-1.374,2.952,89.9,blue,221,TRUE
592,1660011119.798,2836,-1098,882,2.554,-0.012,-0.045,91.8,yellow,221,TRUE
593,1660011119.902,2111,-1119,2526,2.569,-0.092,-0.022,79.2,green,221,TRUE
594,1660011121.234,2844,-1108,882,2.554,-0.012,-0.045,87.5,yellow,221,TRUE
595,1660011121.329,2116,-1121,2526,2.569,-0.092,-0.022,83.4,green,221,TRUE
596,1660011121.579,3831,2661,3350,0.923,-1.392,2.962,89.4,blue,221,TRUE
597,1660011121.672,2838,-1104,882,2.554,-0.012,-0.045,89.4,yellow,221,TRUE
598,1660011121.762,2116,-1121,2526,2.569,-0.092,-0.022,72.8,green,221,TRUE
599,1660011121.97,3789,2407,3350,0.935,-1.392,2.962,91.0,blue,221,TRUE
600,1660011122.062,2837,-1100,882,2.554,-0.012,-0.045,89.3,yellow,221,TRUE
601,1660011122.154,2116,-1121,2526,2.569,-0.092,-0.022,71.8,green,221,TRUE
602,1660011122.317,3784,2146,3350,0.935,-1.39,2.978,88.8,blue,221,TRUE
603,1660011122.435,2827,-1090,882,2.554,-0.012,-0.045,90.8,yellow,221,TRUE
604,1660011122.526,2120,-1122,2526,2.569,-0.092,-0.022,89.4,green,221,TRUE
605,1660011122.708,3776,1967,3350,0.934,-1.39,2.969,90.8,blue,221,TRUE
606,1660011122.887,2824,-1082,882,2.554,-0.012,-0.045,92.0,yellow,221,TRUE
607,1660011122.993,2114,-1123,2526,2.569,-0.092,-0.022,76.2,green,221,TRUE
608,1660011123.222,3748,1887,3350,0.934,-1.394,2.966,87.1,blue,221,TRUE
609,1660011123.312,2819,-1078,882,2.554,-0.012,-0.045,87.1,yellow,221,TRUE
610,1660011123.414,2113,-1123,2526,2.569,-0.092,-0.022,77.5,green,221,TRUE
611,1660011123.599,3781,1928,3350,0.938,-1.41,2.957,89.0,blue,221,TRUE
612,1660011123.691,2816,-1074,882,2.554,-0.012,-0.045,88.7,yellow,221,TRUE
613,1660011123.781,2108,-1122,2526,2.569,-0.092,-0.022,76.3,green,221,TRUE
614,1660011125.107,2822,-1047,882,2.554,-0.012,-0.045,91.9,yellow,221,TRUE
615,1660011125.206,2108,-1122,2526,2.569,-0.092,-0.022,66.3,green,221,TRUE
616,1660011126.555,2815,-1035,882,2.554,-0.012,-0.045,91.8,yellow,221,TRUE
617,1660011126.656,2100,-1125,2526,2.569,-0.092,-0.022,80.0,green,221,TRUE
618,1660011126.901,3723,1944,3350,1.016,-1.431,2.858,93.0,blue,221,TRUE
619,1660011127.022,2811,-1031,882,2.554,-0.012,-0.045,93.9,yellow,221,TRUE
620,1660011127.116,2092,-1125,2526,2.569,-0.092,-0.022,74.5,green,221,TRUE
621,1660011127.31,3753,1935,3350,1.023,-1.431,2.862,91.2,blue,221,TRUE
622,1660011127.429,2811,-1032,882,2.554,-0.012,-0.045,91.6,yellow,221,TRUE
623,1660011127.746,3783,1938,3350,1.026,-1.442,2.853,90.8,blue,221,TRUE
624,1660011129.03,2089,-1124,2526,2.569,-0.092,-0.022,76.2,green,221,TRUE
625,1660011129.273,3787,1940,3350,1.041,-1.443,2.85,91.0,blue,221,TRUE
626,1660011130.527,2087,-1113,2526,2.569,-0.092,-0.022,89.9,green,221,TRUE
627,1660011130.771,3814,1949,3350,1.081,-1.44,2.854,86.8,blue,221,TRUE
628,1660011130.932,2809,-1025,882,2.554,-0.012,-0.045,92.4,yellow,221,TRUE
629,1660011132.26,3843,1958,3350,1.082,-1.436,2.872,93.0,blue,221,TRUE
630,1660011133.534,2063,-1122,2526,2.569,-0.092,-0.022,89.3,green,221,TRUE
631,1660011133.789,3850,1964,3350,1.085,-1.437,2.867,88.0,blue,221,TRUE
632,1660011135.04,2033,-1145,2526,2.569,-0.092,-0.022,74.4,green,221,TRUE
633,1660011135.268,3889,1968,3350,1.085,-1.437,2.865,87.5,blue,221,TRUE
634,1660011136.522,2038,-1144,2526,2.569,-0.092,-0.022,74.6,green,221,TRUE
635,1660011136.751,3911,1974,3350,1.085,-1.436,2.869,86.8,blue,221,TRUE
636,1660011138.017,2032,-1146,2526,2.569,-0.092,-0.022,73.6,green,221,TRUE
637,1660011138.244,3928,1985,3350,1.084,-1.425,2.868,87.4,blue,221,TRUE
638,1660011138.393,2792,-1006,882,2.554,-0.012,-0.045,90.5,yellow,221,TRUE
639,1660011138.484,2035,-1145,2526,2.569,-0.092,-0.022,73.2,green,221,TRUE
640,1660011138.652,3932,1988,3350,1.091,-1.428,2.859,88.0,blue,221,TRUE
641,1660011138.754,2801,-1011,882,2.554,-0.012,-0.045,92.7,yellow,221,TRUE
642,1660011138.859,2042,-1142,2526,2.569,-0.092,-0.022,80.0,green,221,TRUE
643,1660011139.057,3938,1986,3350,1.092,-1.426,2.862,91.1,blue,221,TRUE
644,1660011139.153,2804,-1020,882,2.554,-0.012,-0.045,85.7,yellow,221,TRUE
645,1660011139.24,2039,-1143,2526,2.569,-0.092,-0.022,73.2,green,221,TRUE
646,1660011139.405,3948,1985,3350,1.093,-1.425,2.862,91.8,blue,221,TRUE
647,1660011139.524,2811,-1025,882,2.554,-0.012,-0.045,92.4,yellow,221,TRUE
648,1660011139.616,2033,-1145,2526,2.569,-0.092,-0.022,75.6,green,221,TRUE
649,1660011139.843,3916,1991,3350,1.095,-1.426,2.86,91.4,blue,221,TRUE
650,1660011141.156,2043,-1141,2526,2.569,-0.092,-0.022,75.7,green,221,TRUE
651,1660011141.4,3908,1995,3350,1.083,-1.422,2.887,87.8,blue,221,TRUE
652,1660011142.634,2038,-1142,2526,2.569,-0.092,-0.022,75.5,green,221,TRUE
653,1660011142.864,3922,2004,3350,1.094,-1.405,2.889,87.5,blue,221,TRUE
654,1660011143.039,2810,-1027,882,2.554,-0.012,-0.045,93.0,yellow,221,TRUE
655,1660011144.368,3891,1960,3350,1.839,-1.451,3.087,95.9,blue,221,TRUE
656,1660011145.621,2039,-1140,2526,2.569,-0.092,-0.022,90.0,green,221,TRUE
657,1660011145.865,3845,1987,3350,6.245,-1.373,3.088,86.8,blue,221,TRUE
658,1660011146.038,2808,-1028,882,2.554,-0.012,-0.045,95.4,yellow,221,TRUE
659,1660011146.134,2016,-1158,2526,2.569,-0.092,-0.022,75.8,green,221,TRUE
660,1660011146.3,3815,2065,3350,5.717,-1.429,-2.015,89.4,blue,221,TRUE
661,1660011147.46,2015,-1159,2526,2.569,-0.092,-0.022,75.8,green,221,TRUE
662,1660011147.688,3816,2197,3350,0.653,-1.457,-3.093,88.4,blue,221,TRUE
663,1660011147.836,2807,-1030,882,2.554,-0.012,-0.045,90.3,yellow,221,TRUE
664,1660011147.94,2012,-1160,2526,2.569,-0.092,-0.022,92.8,green,221,TRUE
665,1660011148.154,4013,2325,3350,0.939,-1.546,3.12,88.5,blue,221,TRUE
666,1660011149.357,2034,-1143,2526,2.569,-0.092,-0.022,91.4,green,221,TRUE
667,1660011149.601,4186,2378,3350,1.737,-1.512,3.129,90.5,blue,221,TRUE
668,1660011149.756,2808,-1032,882,2.554,-0.012,-0.045,87.4,yellow,221,TRUE
669,1660011149.845,2044,-1135,2526,2.569,-0.092,-0.022,87.3,green,221,TRUE
670,1660011150.052,4350,2442,3350,1.99,-1.51,3.091,89.5,blue,221,TRUE
671,1660011151.216,2066,-1113,2526,2.569,-0.092,-0.022,90.2,green,221,TRUE
672,1660011151.486,4531,2518,3350,2.137,-1.496,3.098,89.1,blue,221,TRUE
673,1660011151.634,2813,-1041,882,2.554,-0.012,-0.045,93.5,yellow,221,TRUE
674,1660011151.731,2085,-1095,2526,2.569,-0.092,-0.022,86.5,green,221,TRUE
675,1660011151.936,4693,2592,3350,2.112,-1.492,3.103,92.9,blue,221,TRUE
676,1660011153.119,2090,-1096,2526,2.569,-0.092,-0.022,88.5,green,221,TRUE
677,1660011153.361,4887,2667,3350,2.095,-1.498,3.114,90.1,blue,221,TRUE
678,1660011154.63,2120,-1074,2526,2.569,-0.092,-0.022,89.0,green,221,TRUE
679,1660011154.886,5058,2740,3350,2.045,-1.498,3.118,89.1,blue,221,TRUE
680,1660011156.121,2115,-1075,2526,2.569,-0.092,-0.022,75.2,green,221,TRUE
681,1660011156.35,5170,2798,3350,2.683,-1.433,2.545,88.3,blue,221,TRUE
682,1660011157.6,2127,-1071,2526,2.569,-0.092,-0.022,89.3,green,221,TRUE
683,1660011157.856,5307,2892,3350,2.82,-1.493,3.131,89.4,blue,221,TRUE
684,1660011159.142,2129,-1074,2526,2.569,-0.092,-0.022,74.3,green,221,TRUE
685,1660011159.384,5443,2923,3350,2.664,-1.486,3.061,91.1,blue,221,TRUE
686,1660011159.537,2826,-1050,882,2.554,-0.012,-0.045,88.5,yellow,221,TRUE
687,1660011159.628,2127,-1076,2526,2.569,-0.092,-0.022,74.7,green,221,TRUE
688,1660011159.798,5594,2910,3350,2.664,-1.503,3.083,84.4,blue,221,TRUE
689,1660011159.912,2825,-1046,882,2.554,-0.012,-0.045,92.2,yellow,221,TRUE
690,1660011160.017,2149,-1056,2526,2.569,-0.092,-0.022,92.1,green,221,TRUE
691,1660011160.205,5685,2849,3350,2.701,-1.513,3.093,85.4,blue,221,TRUE
692,1660011161.418,2186,-1030,2526,2.569,-0.092,-0.022,92.2,green,221,TRUE
693,1660011161.678,5584,2775,3350,2.757,-1.53,3.113,89.0,blue,221,TRUE
694,1660011161.826,2828,-1057,882,2.554,-0.012,-0.045,91.3,yellow,221,TRUE
695,1660011161.93,2167,-1047,2526,2.569,-0.092,-0.022,77.7,green,221,TRUE
696,1660011162.127,5506,2769,3350,2.769,-1.534,3.113,91.2,blue,221,TRUE
697,1660011163.294,2159,-1052,2526,2.569,-0.092,-0.022,76.6,green,221,TRUE
698,1660011163.538,5443,2744,3350,2.844,-1.529,3.107,88.9,blue,221,TRUE
699,1660011164.762,2163,-1052,2526,2.569,-0.092,-0.022,88.5,green,221,TRUE
700,1660011165.002,5369,2707,3350,2.844,-1.528,3.106,90.6,blue,221,TRUE
701,1660011165.151,2837,-1066,882,2.554,-0.012,-0.045,92.7,yellow,221,TRUE
702,1660011165.247,2143,-1069,2526,2.569,-0.092,-0.022,85.1,green,221,TRUE
703,1660011165.441,5298,2677,3350,2.851,-1.525,3.101,88.8,blue,221,TRUE
704,1660011166.617,2141,-1067,2526,2.569,-0.092,-0.022,90.4,green,221,TRUE
705,1660011166.859,5219,2645,3350,2.813,-1.538,3.117,88.2,blue,221,TRUE
706,1660011167.035,2842,-1066,882,2.554,-0.012,-0.045,91.9,yellow,221,TRUE
707,1660011167.128,2117,-1088,2526,2.569,-0.092,-0.022,74.4,green,221,TRUE
708,1660011167.293,5169,2631,3350,2.778,-1.537,3.119,89.2,blue,221,TRUE
709,1660011168.484,2119,-1088,2526,2.569,-0.092,-0.022,75.3,green,221,TRUE
710,1660011168.715,5149,2612,3350,2.811,-1.545,3.121,85.8,blue,221,TRUE
711,1660011169.962,2137,-1084,2526,2.569,-0.092,-0.022,91.4,green,221,TRUE
712,1660011170.204,5151,2621,3350,2.632,-1.501,3.114,90.0,blue,221,TRUE
713,1660011171.457,2135,-1081,2526,2.569,-0.092,-0.022,75.5,green,221,TRUE
714,1660011171.686,5169,2621,3350,2.698,-1.514,3.105,88.2,blue,221,TRUE
715,1660011171.852,2848,-1068,882,2.554,-0.012,-0.045,89.1,yellow,221,TRUE
716,1660011171.955,2134,-1081,2526,2.569,-0.092,-0.022,92.0,green,221,TRUE
717,1660011172.155,5200,2552,3350,2.853,-1.52,3.105,86.4,blue,221,TRUE
718,1660011173.316,2108,-1102,2526,2.569,-0.092,-0.022,74.9,green,221,TRUE
719,1660011173.546,5188,2517,3350,2.851,-1.524,3.106,85.7,blue,221,TRUE
720,1660011173.694,2848,-1069,882,2.554,-0.012,-0.045,88.5,yellow,221,TRUE
721,1660011173.786,2075,-1123,2526,2.569,-0.092,-0.022,88.5,green,221,TRUE
722,1660011173.978,5190,2499,3350,2.856,-1.529,3.107,91.1,blue,221,TRUE
723,1660011174.07,2847,-1068,882,2.554,-0.012,-0.045,92.1,yellow,221,TRUE
724,1660011176.641,2093,-1106,2526,2.569,-0.092,-0.022,91.5,green,221,TRUE
725,1660011176.885,5160,2451,3350,2.823,-1.528,3.111,89.6,blue,221,TRUE
726,1660011177.062,2857,-1076,882,2.554,-0.012,-0.045,94.2,yellow,221,TRUE
727,1660011178.389,5161,2450,3350,2.827,-1.524,3.109,83.1,blue,221,TRUE
728,1660011178.547,2862,-1080,882,2.554,-0.012,-0.045,92.4,yellow,221,TRUE
729,1660011178.64,2096,-1105,2526,2.569,-0.092,-0.022,74.6,green,221,TRUE
730,1660011178.806,5179,2453,3350,2.815,-1.527,3.109,88.7,blue,221,TRUE
731,1660011178.924,2871,-1087,882,2.554,-0.012,-0.045,91.6,yellow,221,TRUE
732,1660011179.03,2096,-1106,2526,2.569,-0.092,-0.022,92.4,green,221,TRUE
733,1660011179.218,5168,2452,3350,2.836,-1.529,3.11,86.5,blue,221,TRUE
734,1660011179.317,2867,-1084,882,2.554,-0.012,-0.045,92.6,yellow,221,TRUE
735,1660011179.423,2095,-1111,2526,2.569,-0.092,-0.022,75.9,green,221,TRUE
736,1660011179.621,5148,2435,3350,2.841,-1.532,3.11,89.8,blue,221,TRUE
737,1660011180.831,2095,-1113,2526,2.569,-0.092,-0.022,74.8,green,221,TRUE
738,1660011181.059,5142,2420,3350,2.847,-1.534,3.107,88.2,blue,221,TRUE
739,1660011182.297,2094,-1114,2526,2.569,-0.092,-0.022,72.0,green,221,TRUE
740,1660011182.521,5140,2410,3350,2.838,-1.526,3.102,91.5,blue,221,TRUE
741,1660011182.672,2860,-1077,882,2.554,-0.012,-0.045,90.9,yellow,221,TRUE
742,1660011182.768,2092,-1114,2526,2.569,-0.092,-0.022,84.7,green,221,TRUE
743,1660011182.972,5128,2392,3350,2.929,-1.511,3.087,92.7,blue,221,TRUE
744,1660011183.067,2835,-1056,882,2.554,-0.012,-0.045,88.1,yellow,221,TRUE
745,1660011183.158,2064,-1123,2526,2.569,-0.092,-0.022,89.2,green,221,TRUE
746,1660011183.364,5094,2439,3350,2.968,-1.524,3.096,93.7,blue,221,TRUE
747,1660011183.486,2838,-1054,882,2.554,-0.012,-0.045,90.4,yellow,221,TRUE
748,1660011183.577,2064,-1123,2526,2.569,-0.092,-0.022,75.4,green,221,TRUE
749,1660011183.744,5116,2467,3350,2.925,-1.525,3.102,90.0,blue,221,TRUE
750,1660011184.981,2069,-1124,2526,2.569,-0.092,-0.022,73.9,green,221,TRUE
751,1660011185.209,5117,2466,3350,2.885,-1.53,3.103,87.2,blue,221,TRUE
752,1660011185.355,2841,-1053,882,2.554,-0.012,-0.045,91.9,yellow,221,TRUE
753,1660011185.46,2073,-1121,2526,2.569,-0.092,-0.022,77.3,green,221,TRUE
754,1660011185.66,5154,2506,3350,2.887,-1.532,3.105,89.2,blue,221,TRUE
755,1660011186.836,2100,-1098,2526,2.569,-0.092,-0.022,88.8,green,221,TRUE
756,1660011187.076,5106,2467,3350,2.88,-1.53,3.105,89.7,blue,221,TRUE
757,1660011187.228,2843,-1057,882,2.554,-0.012,-0.045,89.7,yellow,221,TRUE
758,1660011187.318,2129,-1082,2526,2.569,-0.092,-0.022,89.6,green,221,TRUE
759,1660011187.542,5094,2434,3350,2.87,-1.528,3.105,90.8,blue,221,TRUE
760,1660011187.634,2833,-1055,882,2.554,-0.012,-0.045,91.0,yellow,221,TRUE
761,1660011187.73,2104,-1104,2526,2.569,-0.092,-0.022,84.7,green,221,TRUE
762,1660011187.919,5083,2412,3350,2.871,-1.525,3.103,92.8,blue,221,TRUE
763,1660011189.131,2123,-1085,2526,2.569,-0.092,-0.022,90.5,green,221,TRUE
764,1660011189.374,5083,2408,3350,2.883,-1.513,3.095,88.0,blue,221,TRUE
765,1660011190.685,2116,-1084,2526,2.569,-0.092,-0.022,92.0,green,221,TRUE
766,1660011190.93,5086,2404,3350,2.344,-1.362,-2.794,89.2,blue,221,TRUE
767,1660011192.182,2113,-1081,2526,2.569,-0.092,-0.022,74.2,green,221,TRUE
768,1660011192.408,5122,2425,3350,2.318,-1.49,-3.127,88.6,blue,221,TRUE
769,1660011192.589,2826,-1050,882,2.554,-0.012,-0.045,90.8,yellow,221,TRUE
770,1660011192.68,2109,-1082,2526,2.569,-0.092,-0.022,75.0,green,221,TRUE
771,1660011192.876,5151,2426,3350,2.322,-1.505,3.141,91.5,blue,221,TRUE
772,1660011192.995,2837,-1057,882,2.554,-0.012,-0.045,92.3,yellow,221,TRUE
773,1660011193.088,2115,-1080,2526,2.569,-0.092,-0.022,74.4,green,221,TRUE
774,1660011193.255,5198,2428,3350,2.309,-1.51,3.134,88.6,blue,221,TRUE
775,1660011193.373,2833,-1050,882,2.554,-0.012,-0.045,91.8,yellow,221,TRUE
776,1660011193.477,2117,-1081,2526,2.569,-0.092,-0.022,77.7,green,221,TRUE
777,1660011193.709,5234,2433,3350,2.313,-1.515,3.13,89.6,blue,221,TRUE
778,1660011193.805,2831,-1047,882,2.554,-0.012,-0.045,97.7,yellow,221,TRUE
779,1660011193.917,2128,-1077,2526,2.569,-0.092,-0.022,90.9,green,221,TRUE
780,1660011194.131,5259,2423,3350,2.328,-1.521,3.125,90.5,blue,221,TRUE
781,1660011195.4,2121,-1075,2526,2.569,-0.092,-0.022,74.6,green,221,TRUE
782,1660011195.629,5271,2433,3350,2.764,-1.489,3.084,89.0,blue,221,TRUE
783,1660011195.782,2824,-1043,882,2.554,-0.012,-0.045,87.5,yellow,221,TRUE
784,1660011195.87,2138,-1057,2526,2.569,-0.092,-0.022,88.8,green,221,TRUE
785,1660011196.08,5256,2431,3350,3.003,-1.443,2.171,90.4,blue,221,TRUE
786,1660011197.242,2125,-1078,2526,2.569,-0.092,-0.022,73.6,green,221,TRUE
787,1660011197.467,5253,2442,3350,3.396,-1.535,3.106,89.1,blue,221,TRUE
788,1660011197.63,2821,-1043,882,2.554,-0.012,-0.045,90.6,yellow,221,TRUE
789,1660011197.721,2115,-1076,2526,2.569,-0.092,-0.022,90.5,green,221,TRUE
790,1660011197.916,5238,2461,3350,3.219,-1.489,3.067,93.3,blue,221,TRUE
791,1660011199.156,2112,-1076,2526,2.569,-0.092,-0.022,75.5,green,221,TRUE
792,1660011199.399,5229,2477,3350,2.77,-1.456,3.102,90.7,blue,221,TRUE
793,1660011200.655,2089,-1096,2526,2.569,-0.092,-0.022,74.6,green,221,TRUE
794,1660011200.885,5199,2429,3350,2.565,-1.449,-3.094,86.9,blue,221,TRUE
795,1660011202.12,2068,-1115,2526,2.569,-0.092,-0.022,75.3,green,221,TRUE
796,1660011202.364,5245,2441,3350,2.202,-1.446,-2.718,88.0,blue,221,TRUE
797,1660011202.562,2818,-1047,882,2.554,-0.012,-0.045,86.8,yellow,221,TRUE
798,1660011202.649,2073,-1115,2526,2.569,-0.092,-0.022,74.9,green,221,TRUE
799,1660011202.815,5194,2404,3350,2.249,-1.448,-2.766,90.7,blue,221,TRUE
800,1660011204.006,2079,-1114,2526,2.569,-0.092,-0.022,76.1,green,221,TRUE
801,1660011204.251,5121,2370,3350,2.737,-1.462,3.114,88.4,blue,221,TRUE
802,1660011205.485,2075,-1113,2526,2.569,-0.092,-0.022,76.0,green,221,TRUE
803,1660011205.714,5036,2312,3350,3.117,-1.481,3.084,88.4,blue,221,TRUE
804,1660011205.865,2846,-1077,882,2.554,-0.012,-0.045,89.5,yellow,221,TRUE
805,1660011205.955,2076,-1117,2526,2.569,-0.092,-0.022,75.2,green,221,TRUE
806,1660011206.153,4962,2280,3350,3.622,-1.406,2.646,90.0,blue,221,TRUE
807,1660011206.246,2846,-1089,882,2.554,-0.012,-0.045,88.7,yellow,221,TRUE
808,1660011206.336,2077,-1118,2526,2.569,-0.092,-0.022,73.6,green,221,TRUE
809,1660011206.543,4869,2279,3350,3.8,-1.432,1.949,92.3,blue,221,TRUE
810,1660011206.637,2843,-1092,882,2.554,-0.012,-0.045,88.8,yellow,221,TRUE
811,1660011207.937,4746,2256,3350,3.32,-1.432,3.138,85.1,blue,221,TRUE
812,1660011208.082,2833,-1089,882,2.554,-0.012,-0.045,92.0,yellow,221,TRUE
813,1660011208.175,2049,-1142,2526,2.569,-0.092,-0.022,74.3,green,221,TRUE
814,1660011208.353,4651,2221,3350,3.094,-1.504,3.139,93.1,blue,221,TRUE
