,timestamp,x,y,z,yaw,roll,pitch,latency,student,session,success
0,1660021501.308,848,-1438,3350,5.796,-1.257,-0.623,89.0,blue,223,TRUE
1,1660021501.398,1936,-2292,750,5.647,-1.384,1.209,88.9,red,223,TRUE
2,1660021502.888,978,-1273,3350,0.347,-1.385,-0.659,89.6,blue,223,TRUE
3,1660021502.991,1951,-2118,750,0.359,-1.417,0.983,93.0,red,223,TRUE
4,1660021504.471,1163,-1071,3350,5.858,-1.369,-0.503,87.9,blue,223,TRUE
5,1660021504.571,2013,-1878,750,0.415,-1.325,0.819,91.4,red,223,TRUE
6,1660021506.021,1320,-916,3350,5.091,-1.313,-0.726,89.8,blue,223,TRUE
7,1660021506.124,2053,-1620,750,5.197,-1.433,1.685,92.5,red,223,TRUE
8,1660021506.234,3231,-2833,882,3.704,-1.213,1.512,73.1,yellow,223,TRUE
9,1660021506.41,1484,-755,3350,4.957,-1.367,-1.014,92.4,blue,223,TRUE
10,1660021506.515,2018,-1370,750,5.108,-1.437,1.571,92.5,red,223,TRUE
11,1660021507.981,1493,-554,3350,4.356,-1.308,0.009,89.0,blue,223,TRUE
12,1660021508.084,1817,-1104,750,3.604,-1.454,0.106,92.6,red,223,TRUE
13,1660021509.457,1436,-315,3350,4.921,-1.4,-0.305,89.8,blue,223,TRUE
14,1660021509.559,1645,-838,750,3.204,-1.518,3.09,92.3,red,223,TRUE
15,1660021510.951,1384,-145,3350,5.054,-1.455,-0.028,91.2,blue,223,TRUE
16,1660021511.055,1498,-550,750,1.781,-1.408,0.933,92.3,red,223,TRUE
17,1660021511.165,3149,-2827,882,3.588,-1.297,1.418,88.1,yellow,223,TRUE
18,1660021512.326,1389,20,3350,6.181,-1.39,0.107,90.3,blue,223,TRUE
19,1660021512.417,1401,-258,750,1.086,-1.462,0.098,89.2,red,223,TRUE
20,1660021514.954,1543,227,3350,6.264,-1.356,-0.11,87.1,blue,223,TRUE
21,1660021515.042,1373,103,750,0.861,-1.371,0.781,89.8,red,223,TRUE
22,1660021517.504,1754,525,3350,5.377,-1.329,0.044,89.6,blue,223,TRUE
23,1660021517.594,1408,563,750,0.274,-1.338,0.688,87.8,red,223,TRUE
24,1660021519.092,1947,922,3350,4.494,-1.446,-0.25,88.1,blue,223,TRUE
25,1660021519.18,1466,1008,750,5.582,-1.396,0.841,89.6,red,223,TRUE
26,1660021519.448,2099,1275,3350,4.228,-1.408,-0.48,92.1,blue,223,TRUE
27,1660021519.553,1577,1426,750,5.475,-1.355,0.807,94.0,red,223,TRUE
28,1660021519.747,2172,1581,3350,4.211,-1.38,-0.502,96.0,blue,223,TRUE
29,1660021519.844,1665,1743,750,5.371,-1.345,0.94,90.5,red,223,TRUE
30,1660021520.097,2214,1839,3350,4.27,-1.396,-0.451,91.7,blue,223,TRUE
31,1660021520.189,1718,1987,750,5.231,-1.361,1.089,91.3,red,223,TRUE
32,1660021520.52,2263,2144,3350,4.267,-1.425,-0.49,92.6,blue,223,TRUE
33,1660021520.625,1747,2208,750,5.063,-1.384,1.017,91.7,red,223,TRUE
34,1660021520.871,2317,2479,3350,4.261,-1.428,-0.493,89.4,blue,223,TRUE
35,1660021520.973,1838,2406,750,5.063,-1.384,1.078,93.2,red,223,TRUE
36,1660021521.218,2490,2749,3350,4.262,-1.433,-0.494,91.0,blue,223,TRUE
37,1660021521.309,2068,2669,750,5.067,-1.374,1.092,89.3,red,223,TRUE
38,1660021521.531,2719,3001,3350,4.264,-1.429,-0.49,92.8,blue,223,TRUE
39,1660021521.638,2278,2914,750,5.022,-1.37,1.094,90.9,red,223,TRUE
40,1660021521.943,2963,3269,3350,4.265,-1.427,-0.473,87.6,blue,223,TRUE
41,1660021522.032,2413,3153,750,5.006,-1.36,1.124,89.8,red,223,TRUE
42,1660021522.155,3124,-2808,882,3.636,-1.24,1.502,86.2,yellow,223,TRUE
43,1660021522.335,3136,3540,3350,4.322,-1.45,-0.067,88.5,blue,223,TRUE
44,1660021522.437,2557,3358,750,5.022,-1.364,1.091,93.3,red,223,TRUE
45,1660021522.543,3136,-2794,882,3.69,-1.235,1.61,92.2,yellow,223,TRUE
46,1660021522.742,3164,3761,3350,4.121,-1.428,-0.327,88.9,blue,223,TRUE
47,1660021522.831,2624,3508,750,5.034,-1.364,1.045,91.6,red,223,TRUE
48,1660021522.924,3157,-2786,882,3.774,-1.169,1.65,72.2,yellow,223,TRUE
49,1660021523.114,3153,3901,3350,4.043,-1.368,-0.4,92.6,blue,223,TRUE
50,1660021523.207,2587,3538,750,5.039,-1.365,1.023,90.1,red,223,TRUE
51,1660021523.297,3282,-2878,882,3.779,-1.145,1.68,74.0,yellow,223,TRUE
52,1660021523.611,3120,3933,3350,4.079,-1.392,-0.352,92.7,blue,223,TRUE
53,1660021523.704,2589,3572,750,5.013,-1.366,1.092,90.8,red,223,TRUE
54,1660021525.154,3104,3911,3350,4.094,-1.396,-0.16,88.3,blue,223,TRUE
55,1660021525.242,2582,3595,750,4.996,-1.383,1.102,89.3,red,223,TRUE
56,1660021526.632,3070,3918,3350,4.012,-1.331,-0.364,87.3,blue,223,TRUE
57,1660021526.72,2577,3619,750,4.958,-1.384,0.937,90.7,red,223,TRUE
58,1660021526.812,3282,-2878,882,3.666,-1.228,1.587,73.1,yellow,223,TRUE
59,1660021526.978,3045,3924,3350,4.05,-1.321,-0.329,89.9,blue,223,TRUE
60,1660021527.082,2569,3656,750,4.961,-1.389,0.87,92.9,red,223,TRUE
61,1660021527.174,3263,-2973,882,3.639,-1.223,1.48,74.6,yellow,223,TRUE
62,1660021527.352,3025,3911,3350,4.114,-1.348,-0.415,91.7,blue,223,TRUE
63,1660021527.457,2582,3698,750,4.955,-1.389,0.834,92.8,red,223,TRUE
64,1660021528.88,3025,3877,3350,4.103,-1.35,-0.293,86.5,blue,223,TRUE
65,1660021528.968,2585,3726,750,4.934,-1.394,0.868,90.3,red,223,TRUE
66,1660021529.061,3263,-2973,882,3.656,-1.239,1.717,86.1,yellow,223,TRUE
67,1660021529.241,3019,3872,3350,4.123,-1.352,-0.275,88.2,blue,223,TRUE
68,1660021529.33,2577,3687,750,4.923,-1.397,0.898,89.5,red,223,TRUE
69,1660021529.433,3225,-3053,882,3.694,-1.23,1.679,91.9,yellow,223,TRUE
70,1660021530.651,3013,3889,3350,4.087,-1.331,-0.259,90.2,blue,223,TRUE
71,1660021530.742,2558,3628,750,4.757,-1.396,1.029,89.0,red,223,TRUE
72,1660021530.838,3151,-3045,882,3.332,-1.344,-0.179,84.5,yellow,223,TRUE
73,1660021532.13,3021,3891,3350,4.103,-1.332,-0.217,88.9,blue,223,TRUE
74,1660021532.22,2554,3590,750,4.729,-1.404,0.894,89.0,red,223,TRUE
75,1660021532.315,3151,-3045,882,3.798,-1.072,1.72,69.8,yellow,223,TRUE
76,1660021532.626,3045,3925,3350,4.114,-1.338,-0.233,92.7,blue,223,TRUE
77,1660021532.718,2556,3568,750,4.747,-1.407,0.872,89.8,red,223,TRUE
78,1660021532.808,3102,-3055,882,3.818,-1.054,1.764,90.3,yellow,223,TRUE
79,1660021532.991,3052,3950,3350,4.104,-1.34,-0.235,88.9,blue,223,TRUE
80,1660021533.093,2546,3554,750,4.746,-1.412,0.874,92.6,red,223,TRUE
81,1660021533.187,3102,-3055,882,3.82,-1.053,1.738,75.3,yellow,223,TRUE
82,1660021533.364,3053,3952,3350,4.103,-1.336,-0.23,92.7,blue,223,TRUE
83,1660021533.47,2548,3552,750,4.745,-1.413,0.873,92.1,red,223,TRUE
84,1660021533.575,3094,-3062,882,3.824,-1.041,1.672,76.2,yellow,223,TRUE
85,1660021533.741,3064,3955,3350,4.102,-1.333,-0.227,89.9,blue,223,TRUE
86,1660021533.843,2548,3544,750,4.739,-1.409,0.841,92.0,red,223,TRUE
87,1660021533.936,3080,-3068,882,3.834,-1.037,1.68,74.2,yellow,223,TRUE
88,1660021534.223,3086,3983,3350,4.118,-1.337,-0.2,89.8,blue,223,TRUE
89,1660021534.314,2551,3507,750,4.706,-1.409,0.784,89.1,red,223,TRUE
90,1660021534.405,3053,-3075,882,3.836,-1.035,1.682,74.2,yellow,223,TRUE
91,1660021534.613,3082,3990,3350,4.148,-1.357,-0.071,91.3,blue,223,TRUE
92,1660021534.705,2564,3465,750,4.663,-1.413,0.779,90.5,red,223,TRUE
93,1660021534.795,3039,-3082,882,3.838,-1.035,1.681,75.1,yellow,223,TRUE
94,1660021534.977,3063,3993,3350,4.171,-1.396,0.167,89.1,blue,223,TRUE
95,1660021535.078,2558,3433,750,4.632,-1.416,0.896,91.2,red,223,TRUE
96,1660021535.171,3021,-3102,882,3.838,-1.035,1.681,74.3,yellow,223,TRUE
97,1660021535.349,3067,3995,3350,4.055,-1.41,-0.024,93.0,blue,223,TRUE
98,1660021535.455,2559,3400,750,4.653,-1.412,0.953,92.1,red,223,TRUE
99,1660021535.56,3007,-3118,882,3.838,-1.035,1.681,77.1,yellow,223,TRUE
100,1660021535.865,3038,4017,3350,4.064,-1.426,-0.016,88.1,blue,223,TRUE
101,1660021535.954,2570,3406,750,4.658,-1.412,0.963,88.5,red,223,TRUE
102,1660021536.044,2992,-3138,882,3.835,-1.036,1.68,74.5,yellow,223,TRUE
103,1660021536.224,3032,4035,3350,4.1,-1.426,0.013,90.1,blue,223,TRUE
104,1660021536.315,2583,3413,750,4.655,-1.412,0.964,88.3,red,223,TRUE
105,1660021536.405,2972,-3146,882,3.835,-1.036,1.68,74.7,yellow,223,TRUE
106,1660021536.613,3011,4021,3350,4.092,-1.425,0.029,91.3,blue,223,TRUE
107,1660021536.706,2599,3442,750,4.65,-1.41,0.96,89.7,red,223,TRUE
108,1660021536.796,2957,-3147,882,3.835,-1.036,1.68,73.7,yellow,223,TRUE
109,1660021537.006,2967,4021,3350,4.085,-1.417,0.01,88.9,blue,223,TRUE
110,1660021537.098,2608,3492,750,4.65,-1.409,0.96,87.2,red,223,TRUE
111,1660021537.187,2962,-3159,882,3.835,-1.036,1.679,74.3,yellow,223,TRUE
112,1660021537.487,2923,4017,3350,4.107,-1.386,-0.013,92.1,blue,223,TRUE
113,1660021537.592,2602,3541,750,4.653,-1.41,0.96,91.7,red,223,TRUE
114,1660021537.685,3008,-3167,882,3.834,-1.037,1.676,75.1,yellow,223,TRUE
115,1660021537.864,2904,4022,3350,4.127,-1.374,-0.043,92.7,blue,223,TRUE
116,1660021537.958,2607,3526,750,4.657,-1.41,0.959,90.6,red,223,TRUE
117,1660021538.049,3013,-3165,882,3.834,-1.037,1.677,76.0,yellow,223,TRUE
118,1660021538.231,2877,4044,3350,4.122,-1.38,-0.01,89.0,blue,223,TRUE
119,1660021538.321,2625,3516,750,4.657,-1.41,0.96,89.1,red,223,TRUE
120,1660021538.413,3018,-3167,882,3.834,-1.037,1.677,88.4,yellow,223,TRUE
121,1660021538.663,2858,4049,3350,4.095,-1.38,0.01,95.5,blue,223,TRUE
122,1660021538.76,2630,3537,750,4.655,-1.41,0.954,89.0,red,223,TRUE
123,1660021538.851,3022,-3168,882,3.834,-1.037,1.677,87.1,yellow,223,TRUE
124,1660021539.151,2845,4047,3350,4.056,-1.368,-0.068,89.7,blue,223,TRUE
125,1660021539.241,2628,3539,750,4.662,-1.409,0.939,90.0,red,223,TRUE
126,1660021539.332,3018,-3165,882,3.835,-1.035,1.667,74.7,yellow,223,TRUE
127,1660021539.525,2840,4036,3350,4.102,-1.382,-0.003,93.0,blue,223,TRUE
128,1660021539.631,2619,3572,750,4.672,-1.407,0.894,92.4,red,223,TRUE
129,1660021539.724,3017,-3162,882,3.836,-1.033,1.668,76.2,yellow,223,TRUE
130,1660021539.891,2849,4039,3350,4.121,-1.385,0.04,89.8,blue,223,TRUE
131,1660021539.98,2602,3555,750,4.716,-1.407,0.884,88.6,red,223,TRUE
132,1660021540.072,3019,-3163,882,3.838,-1.032,1.668,89.3,yellow,223,TRUE
133,1660021540.267,2839,4053,3350,4.124,-1.384,0.046,88.8,blue,223,TRUE
134,1660021540.356,2588,3524,750,4.722,-1.412,0.873,90.4,red,223,TRUE
135,1660021540.46,3011,-3173,882,3.834,-1.031,1.683,77.3,yellow,223,TRUE
136,1660021540.764,2851,4045,3350,4.12,-1.392,0.046,91.1,blue,223,TRUE
137,1660021540.859,2589,3512,750,4.681,-1.425,0.75,87.1,red,223,TRUE
138,1660021540.947,3012,-3179,882,3.826,-1.034,1.697,74.4,yellow,223,TRUE
139,1660021541.124,2853,4037,3350,4.109,-1.395,0.057,91.8,blue,223,TRUE
140,1660021541.217,2580,3513,750,4.675,-1.425,0.737,89.8,red,223,TRUE
141,1660021541.307,2975,-3191,882,3.819,-1.034,1.701,76.2,yellow,223,TRUE
142,1660021541.501,2866,4038,3350,4.11,-1.392,0.055,92.9,blue,223,TRUE
143,1660021541.607,2592,3567,750,4.669,-1.422,0.745,92.3,red,223,TRUE
144,1660021541.699,3012,-3193,882,3.824,-1.031,1.682,74.9,yellow,223,TRUE
145,1660021541.879,2878,4045,3350,4.116,-1.386,0.056,93.3,blue,223,TRUE
146,1660021541.973,2576,3532,750,4.647,-1.424,0.771,89.4,red,223,TRUE
147,1660021542.063,3012,-3193,882,3.821,-1.031,1.697,75.8,yellow,223,TRUE
148,1660021542.351,2883,4034,3350,4.112,-1.383,0.059,87.0,blue,223,TRUE
149,1660021542.441,2577,3512,750,4.655,-1.424,0.785,89.6,red,223,TRUE
150,1660021542.543,2987,-3206,882,3.812,-1.034,1.701,77.5,yellow,223,TRUE
151,1660021542.742,2889,4022,3350,4.123,-1.383,0.044,88.9,blue,223,TRUE
152,1660021542.831,2552,3487,750,4.667,-1.42,0.772,88.7,red,223,TRUE
153,1660021542.923,2964,-3222,882,3.821,-1.029,1.681,74.0,yellow,223,TRUE
154,1660021543.1,2877,3994,3350,4.119,-1.384,0.037,91.8,blue,223,TRUE
155,1660021543.193,2550,3499,750,4.71,-1.424,0.832,90.7,red,223,TRUE
156,1660021544.627,2888,3988,3350,4.115,-1.389,0.036,87.6,blue,223,TRUE
157,1660021544.715,2556,3462,750,4.747,-1.425,0.798,89.8,red,223,TRUE
158,1660021546.194,2875,3962,3350,4.119,-1.395,0.028,88.8,blue,223,TRUE
159,1660021546.284,2545,3454,750,4.716,-1.422,0.677,89.9,red,223,TRUE
160,1660021546.376,2964,-3222,882,3.81,-1.042,1.668,71.7,yellow,223,TRUE
161,1660021546.583,2879,3963,3350,4.116,-1.401,0.041,91.4,blue,223,TRUE
162,1660021546.674,2532,3443,750,4.715,-1.418,0.652,90.9,red,223,TRUE
163,1660021546.765,2972,-3223,882,3.811,-1.041,1.672,75.0,yellow,223,TRUE
164,1660021546.956,2883,3945,3350,4.108,-1.401,0.051,94.8,blue,223,TRUE
165,1660021547.051,2538,3436,750,4.704,-1.417,0.625,90.6,red,223,TRUE
166,1660021547.143,2967,-3219,882,3.809,-1.043,1.671,72.0,yellow,223,TRUE
167,1660021547.307,2876,3928,3350,4.109,-1.398,0.049,90.3,blue,223,TRUE
168,1660021547.41,2526,3424,750,4.719,-1.421,0.706,90.5,red,223,TRUE
169,1660021547.515,2967,-3219,882,3.805,-1.046,1.68,76.7,yellow,223,TRUE
170,1660021547.818,2876,3942,3350,4.109,-1.396,0.049,90.4,blue,223,TRUE
171,1660021547.911,2520,3445,750,4.748,-1.419,0.785,86.7,red,223,TRUE
172,1660021547.999,2964,-3217,882,3.804,-1.046,1.68,75.5,yellow,223,TRUE
173,1660021548.21,2875,3959,3350,4.108,-1.397,0.05,89.5,blue,223,TRUE
174,1660021548.3,2523,3445,750,4.809,-1.412,0.86,91.1,red,223,TRUE
175,1660021550.654,2875,3961,3350,3.923,-1.417,-0.266,88.6,blue,223,TRUE
176,1660021550.744,2512,3391,750,4.671,-1.418,0.616,88.9,red,223,TRUE
177,1660021550.839,2969,-3218,882,3.804,-1.046,1.68,85.1,yellow,223,TRUE
178,1660021552.125,2855,3937,3350,3.986,-1.424,0.109,89.7,blue,223,TRUE
179,1660021552.217,2528,3392,750,4.457,-1.385,0.812,87.9,red,223,TRUE
180,1660021552.313,2983,-3222,882,3.811,-1.041,1.682,81.5,yellow,223,TRUE
181,1660021552.635,2839,3919,3350,4.033,-1.379,0.106,93.1,blue,223,TRUE
182,1660021552.728,2522,3348,750,4.348,-1.354,0.878,95.7,red,223,TRUE
183,1660021552.825,2988,-3221,882,3.811,-1.041,1.681,86.0,yellow,223,TRUE
184,1660021553.016,2842,3912,3350,4.045,-1.358,0.033,89.7,blue,223,TRUE
185,1660021553.105,2551,3340,750,4.429,-1.348,0.825,89.3,red,223,TRUE
186,1660021553.197,3000,-3211,882,3.811,-1.041,1.681,72.3,yellow,223,TRUE
187,1660021554.416,2875,3931,3350,4.094,-1.329,-0.263,91.8,blue,223,TRUE
188,1660021554.509,2538,3312,750,5.117,-1.377,0.663,89.8,red,223,TRUE
189,1660021556.864,2863,3936,3350,4.2,-1.383,-0.151,87.0,blue,223,TRUE
190,1660021556.951,2540,3334,750,4.999,-1.4,0.693,90.4,red,223,TRUE
191,1660021557.05,3000,-3211,882,3.839,-1.006,1.69,81.4,yellow,223,TRUE
192,1660021557.148,2694,-2519,2526,4.947,-0.58,0.396,88.0,green,223,TRUE
193,1660021558.414,2839,3961,3350,4.188,-1.368,-0.167,88.2,blue,223,TRUE
194,1660021558.503,2548,3367,750,4.794,-1.418,0.646,90.7,red,223,TRUE
195,1660021558.601,2992,-3201,882,3.829,-1.019,1.678,83.4,yellow,223,TRUE
196,1660021558.685,2779,-2641,2526,4.956,-0.565,0.389,104.5,green,223,TRUE
197,1660021558.91,2851,3941,3350,4.196,-1.38,-0.16,89.2,blue,223,TRUE
198,1660021559.014,2560,3360,750,4.696,-1.428,0.693,91.3,red,223,TRUE
199,1660021559.105,3033,-3185,882,3.83,-1.018,1.678,75.1,yellow,223,TRUE
200,1660021559.181,2832,-2737,2526,4.953,-0.573,0.394,105.5,green,223,TRUE
201,1660021559.406,2578,3371,750,4.664,-1.431,0.706,92.5,red,223,TRUE
202,1660021561.919,2858,3863,3350,4.199,-1.389,-0.158,93.7,blue,223,TRUE
203,1660021562.013,2583,3400,750,4.478,-1.417,0.543,89.5,red,223,TRUE
204,1660021562.104,3001,-3183,882,3.831,-1.017,1.682,74.2,yellow,223,TRUE
205,1660021563.514,2857,3859,3350,4.196,-1.383,-0.151,97.5,blue,223,TRUE
206,1660021563.613,2589,3405,750,4.533,-1.4,0.549,87.3,red,223,TRUE
207,1660021563.701,3019,-3169,882,3.832,-1.019,1.691,74.5,yellow,223,TRUE
208,1660021565.098,2864,3869,3350,4.205,-1.372,-0.132,95.1,blue,223,TRUE
209,1660021565.194,2584,3404,750,4.608,-1.406,0.626,89.6,red,223,TRUE
210,1660021565.283,3043,-3155,882,3.832,-1.018,1.695,75.4,yellow,223,TRUE
211,1660021567.653,2860,3883,3350,4.232,-1.398,-0.116,85.3,blue,223,TRUE
212,1660021567.739,2577,3405,750,4.674,-1.389,0.6,89.6,red,223,TRUE
213,1660021567.836,3037,-3153,882,3.835,-1.016,1.691,83.8,yellow,223,TRUE
214,1660021570.389,2575,3444,750,4.705,-1.39,0.598,89.2,red,223,TRUE
215,1660021570.489,3035,-3155,882,3.835,-1.016,1.691,80.4,yellow,223,TRUE
216,1660021571.824,2889,3861,3350,4.212,-1.374,-0.087,87.5,blue,223,TRUE
217,1660021571.918,2583,3478,750,4.671,-1.409,0.726,83.4,red,223,TRUE
218,1660021572.001,3036,-3154,882,3.834,-1.017,1.69,76.6,yellow,223,TRUE
219,1660021572.273,2912,3870,3350,4.213,-1.377,-0.081,90.1,blue,223,TRUE
220,1660021572.364,2596,3512,750,4.667,-1.407,0.717,89.1,red,223,TRUE
221,1660021572.459,3036,-3154,882,3.834,-1.017,1.69,82.3,yellow,223,TRUE
222,1660021572.691,2898,3870,3350,4.21,-1.382,-0.082,91.7,blue,223,TRUE
223,1660021572.783,2629,3534,750,4.661,-1.407,0.722,90.8,red,223,TRUE
224,1660021574.191,2916,3869,3350,4.215,-1.356,-0.079,85.9,blue,223,TRUE
225,1660021574.278,2624,3512,750,4.676,-1.406,0.714,90.1,red,223,TRUE
226,1660021574.369,3031,-3153,882,3.835,-1.017,1.69,102.4,yellow,223,TRUE
227,1660021574.591,2934,3866,3350,4.241,-1.338,-0.05,91.1,blue,223,TRUE
228,1660021574.804,3025,-3153,882,3.835,-1.017,1.69,74.6,yellow,223,TRUE
229,1660021574.997,2921,3873,3350,4.25,-1.343,-0.05,92.8,blue,223,TRUE
230,1660021575.101,2621,3420,750,4.673,-1.404,0.72,93.2,red,223,TRUE
231,1660021575.196,3017,-3154,882,3.835,-1.017,1.69,73.9,yellow,223,TRUE
232,1660021576.463,2889,3957,3350,4.239,-1.355,-0.057,90.0,blue,223,TRUE
233,1660021576.554,2631,3478,750,4.701,-1.4,0.746,89.1,red,223,TRUE
234,1660021576.649,3017,-3157,882,3.835,-1.017,1.69,83.9,yellow,223,TRUE
235,1660021576.944,2911,3953,3350,4.349,-1.428,0.148,91.1,blue,223,TRUE
236,1660021577.048,2643,3511,750,4.905,-1.359,0.687,92.8,red,223,TRUE
237,1660021578.471,2945,3994,3350,4.974,-1.307,-0.284,87.4,blue,223,TRUE
238,1660021578.571,2665,3541,750,5.212,-1.398,1.059,90.5,red,223,TRUE
239,1660021578.676,3013,-3161,882,3.835,-1.017,1.689,75.9,yellow,223,TRUE
240,1660021578.844,2975,4004,3350,5.063,-1.299,-0.502,90.0,blue,223,TRUE
241,1660021578.948,2694,3613,750,5.371,-1.416,1.033,93.1,red,223,TRUE
242,1660021579.054,3014,-3160,882,3.835,-1.017,1.689,78.4,yellow,223,TRUE
243,1660021579.269,3016,4033,3350,5.275,-1.389,-0.512,88.9,blue,223,TRUE
244,1660021579.358,2737,3707,750,5.4,-1.465,0.043,90.4,red,223,TRUE
245,1660021580.732,3067,4193,3350,5.008,-1.383,-0.205,89.5,blue,223,TRUE
246,1660021580.822,2744,3863,750,5.88,-1.38,0.517,90.9,red,223,TRUE
247,1660021582.21,3038,4377,3350,4.816,-1.374,-0.19,89.3,blue,223,TRUE
248,1660021582.3,2771,4186,750,5.962,-1.382,0.642,89.2,red,223,TRUE
249,1660021582.395,3028,-3166,882,3.836,-1.016,1.682,85.7,yellow,223,TRUE
250,1660021582.614,2991,4562,3350,5.059,-1.369,0.137,92.3,blue,223,TRUE
251,1660021582.707,2789,4500,750,5.702,-1.384,0.706,90.1,red,223,TRUE
252,1660021582.798,3029,-3165,882,3.836,-1.016,1.682,74.9,yellow,223,TRUE
253,1660021582.992,2952,4725,3350,5.096,-1.4,-0.092,77.0,blue,223,TRUE
254,1660021583.082,2798,4810,750,5.379,-1.434,0.99,92.1,red,223,TRUE
255,1660021585.458,2887,4970,3350,5.337,-1.361,-0.144,88.7,blue,223,TRUE
256,1660021585.547,2799,5151,750,4.294,-1.38,1.126,90.2,red,223,TRUE
257,1660021586.931,2839,5193,3350,5.286,-1.36,-0.132,89.9,blue,223,TRUE
258,1660021587.035,2809,5525,750,4.193,-1.38,1.022,91.9,red,223,TRUE
259,1660021587.139,3034,-3161,882,3.823,-1.023,1.7,76.2,yellow,223,TRUE
260,1660021587.308,2795,5444,3350,5.276,-1.357,-0.137,89.2,blue,223,TRUE
261,1660021587.398,2773,5890,750,4.186,-1.385,1.002,89.3,red,223,TRUE
262,1660021587.488,3014,-3164,882,3.823,-1.023,1.714,89.4,yellow,223,TRUE
263,1660021587.715,2764,5676,3350,5.282,-1.362,-0.17,90.2,blue,223,TRUE
264,1660021587.806,2752,6182,750,4.189,-1.39,1.02,90.0,red,223,TRUE
265,1660021587.898,3004,-3165,882,3.822,-1.024,1.705,75.3,yellow,223,TRUE
266,1660021588.108,2710,5922,3350,5.304,-1.377,-0.16,92.0,blue,223,TRUE
267,1660021588.2,2749,6501,750,4.179,-1.395,1.031,90.2,red,223,TRUE
268,1660021588.291,3004,-3165,882,3.82,-1.026,1.704,75.6,yellow,223,TRUE
269,1660021588.588,2628,6118,3350,5.303,-1.384,-0.159,93.0,blue,223,TRUE
270,1660021588.694,2727,6774,750,4.169,-1.392,0.972,91.9,red,223,TRUE
271,1660021588.786,3004,-3165,882,3.819,-1.028,1.703,76.1,yellow,223,TRUE
272,1660021588.965,2533,6275,3350,5.288,-1.384,-0.161,92.2,blue,223,TRUE
273,1660021589.07,2684,6994,750,4.171,-1.388,0.994,92.0,red,223,TRUE
274,1660021589.175,2989,-3167,882,3.818,-1.028,1.706,93.4,yellow,223,TRUE
275,1660021589.361,2452,6471,3350,5.286,-1.377,-0.155,87.5,blue,223,TRUE
276,1660021589.463,2654,7237,750,4.127,-1.391,0.925,93.0,red,223,TRUE
277,1660021589.557,2973,-3162,882,3.818,-1.028,1.707,74.0,yellow,223,TRUE
278,1660021589.766,2376,6588,3350,5.293,-1.371,-0.165,90.9,blue,223,TRUE
279,1660021589.857,2664,7371,750,4.091,-1.389,0.935,88.1,red,223,TRUE
280,1660021589.948,2950,-3161,882,3.815,-1.033,1.71,88.1,yellow,223,TRUE
281,1660021590.293,2358,6628,3350,5.289,-1.371,-0.173,89.5,blue,223,TRUE
282,1660021590.382,2645,7360,750,4.112,-1.388,0.995,90.2,red,223,TRUE
283,1660021590.477,2939,-3156,882,3.814,-1.036,1.71,85.9,yellow,223,TRUE
284,1660021590.695,2338,6656,3350,5.286,-1.373,-0.191,92.0,blue,223,TRUE
285,1660021590.788,2621,7387,750,4.118,-1.386,0.973,90.4,red,223,TRUE
286,1660021590.879,2922,-3152,882,3.814,-1.035,1.712,90.4,yellow,223,TRUE
287,1660021591.087,2345,6661,3350,5.272,-1.374,-0.201,92.2,blue,223,TRUE
288,1660021591.192,2600,7406,750,4.121,-1.385,0.927,93.8,red,223,TRUE
289,1660021591.286,2902,-3148,882,3.814,-1.035,1.712,91.5,yellow,223,TRUE
290,1660021591.588,2362,6586,3350,5.283,-1.377,-0.193,75.2,blue,223,TRUE
291,1660021591.676,2601,7396,750,4.119,-1.395,0.899,92.3,red,223,TRUE
292,1660021591.768,2875,-3150,882,3.812,-1.035,1.714,91.7,yellow,223,TRUE
293,1660021591.964,2364,6550,3350,5.291,-1.373,-0.173,91.7,blue,223,TRUE
294,1660021592.068,2612,7384,750,4.131,-1.391,0.898,77.0,red,223,TRUE
295,1660021592.158,2848,-3145,882,3.812,-1.037,1.713,93.0,yellow,223,TRUE
296,1660021592.344,2369,6465,3350,5.293,-1.377,-0.171,87.3,blue,223,TRUE
297,1660021592.444,2621,7362,750,4.141,-1.394,0.912,93.3,red,223,TRUE
298,1660021592.551,2845,-3151,882,3.81,-1.037,1.717,93.0,yellow,223,TRUE
299,1660021592.779,2364,6428,3350,5.288,-1.378,-0.166,89.9,blue,223,TRUE
300,1660021592.869,2637,7340,750,4.143,-1.384,0.862,89.6,red,223,TRUE
301,1660021592.961,2845,-3151,882,3.81,-1.036,1.714,73.3,yellow,223,TRUE
302,1660021593.274,2360,6398,3350,5.283,-1.374,-0.177,88.9,blue,223,TRUE
303,1660021593.364,2615,7315,750,4.135,-1.37,0.806,90.0,red,223,TRUE
304,1660021593.459,2822,-3154,882,3.81,-1.037,1.712,86.0,yellow,223,TRUE
305,1660021593.664,2352,6327,3350,5.299,-1.374,-0.159,91.8,blue,223,TRUE
306,1660021593.757,2596,7311,750,4.136,-1.373,0.791,88.9,red,223,TRUE
307,1660021593.847,2822,-3154,882,3.809,-1.037,1.714,89.7,yellow,223,TRUE
308,1660021594.056,2358,6360,3350,5.313,-1.378,-0.182,91.6,blue,223,TRUE
309,1660021594.161,2597,7349,750,4.139,-1.366,0.773,92.0,red,223,TRUE
310,1660021594.254,2822,-3154,882,3.809,-1.038,1.715,75.2,yellow,223,TRUE
311,1660021594.448,2356,6350,3350,5.31,-1.377,-0.199,92.9,blue,223,TRUE
312,1660021594.554,2558,7318,750,4.141,-1.371,0.782,92.4,red,223,TRUE
313,1660021594.659,2822,-3154,882,3.808,-1.038,1.715,76.5,yellow,223,TRUE
314,1660021594.947,2365,6386,3350,5.325,-1.372,-0.194,89.9,blue,223,TRUE
315,1660021595.038,2508,7297,750,4.14,-1.379,0.816,89.0,red,223,TRUE
316,1660021595.141,2822,-3154,882,3.809,-1.037,1.714,76.7,yellow,223,TRUE
317,1660021595.309,2365,6430,3350,5.323,-1.372,-0.187,89.3,blue,223,TRUE
318,1660021595.4,2500,7299,750,4.131,-1.389,0.86,89.6,red,223,TRUE
319,1660021595.492,2827,-3146,882,3.81,-1.036,1.71,88.3,yellow,223,TRUE
320,1660021595.703,2365,6435,3350,5.323,-1.367,-0.183,88.0,blue,223,TRUE
321,1660021595.791,2488,7322,750,4.096,-1.391,0.917,89.7,red,223,TRUE
322,1660021595.882,2863,-3167,882,3.811,-1.036,1.704,74.4,yellow,223,TRUE
323,1660021596.075,2356,6495,3350,5.323,-1.362,-0.179,92.6,blue,223,TRUE
324,1660021596.181,2437,7363,750,4.115,-1.384,0.945,77.0,red,223,TRUE
325,1660021596.259,2871,-3165,882,3.811,-1.036,1.702,75.0,yellow,223,TRUE
326,1660021596.559,2343,6572,3350,5.324,-1.357,-0.176,92.7,blue,223,TRUE
327,1660021596.665,2409,7371,750,4.127,-1.382,0.966,92.4,red,223,TRUE
328,1660021596.758,2883,-3158,882,3.808,-1.042,1.701,88.3,yellow,223,TRUE
329,1660021596.951,2360,6640,3350,5.322,-1.361,-0.181,93.9,blue,223,TRUE
330,1660021597.056,2388,7388,750,4.13,-1.382,0.974,93.0,red,223,TRUE
331,1660021597.162,2899,-3155,882,3.803,-1.044,1.712,76.3,yellow,223,TRUE
332,1660021597.329,2363,6726,3350,5.324,-1.361,-0.184,91.6,blue,223,TRUE
333,1660021597.421,2373,7376,750,4.134,-1.381,0.982,88.6,red,223,TRUE
334,1660021598.839,2378,6761,3350,5.329,-1.368,-0.176,89.8,blue,223,TRUE
335,1660021598.93,2364,7390,750,4.156,-1.38,0.829,90.3,red,223,TRUE
336,1660021599.024,2897,-3157,882,3.809,-1.044,1.685,85.3,yellow,223,TRUE
337,1660021599.23,2387,6789,3350,5.328,-1.371,-0.176,90.1,blue,223,TRUE
338,1660021599.321,2403,7408,750,4.159,-1.378,0.81,89.8,red,223,TRUE
339,1660021600.724,2405,6855,3350,5.333,-1.37,-0.158,89.4,blue,223,TRUE
340,1660021600.814,2424,7413,750,4.114,-1.392,0.85,89.3,red,223,TRUE
341,1660021602.187,2407,6828,3350,5.351,-1.369,-0.133,87.0,blue,223,TRUE
342,1660021602.275,2444,7396,750,4.132,-1.393,0.884,90.9,red,223,TRUE
343,1660021602.367,2915,-3163,882,3.809,-1.045,1.686,88.8,yellow,223,TRUE
344,1660021602.574,2406,6801,3350,5.356,-1.361,-0.12,92.9,blue,223,TRUE
345,1660021602.668,2478,7413,750,4.132,-1.392,0.882,88.6,red,223,TRUE
346,1660021602.758,2915,-3163,882,3.809,-1.045,1.686,75.3,yellow,223,TRUE
347,1660021602.936,2383,6755,3350,5.359,-1.362,-0.112,77.0,blue,223,TRUE
348,1660021603.027,2508,7425,750,4.132,-1.392,0.887,91.7,red,223,TRUE
349,1660021603.131,2915,-3163,882,3.809,-1.045,1.686,77.0,yellow,223,TRUE
350,1660021603.301,2377,6709,3350,5.363,-1.349,-0.105,87.1,blue,223,TRUE
351,1660021603.389,2504,7423,750,4.132,-1.392,0.888,90.7,red,223,TRUE
352,1660021604.776,2389,6714,3350,5.393,-1.35,-0.106,87.7,blue,223,TRUE
353,1660021604.865,2493,7353,750,4.138,-1.391,0.889,87.9,red,223,TRUE
354,1660021604.956,2915,-3163,882,3.809,-1.045,1.686,72.6,yellow,223,TRUE
355,1660021605.164,2389,6696,3350,5.394,-1.357,-0.111,92.8,blue,223,TRUE
356,1660021605.258,2537,7297,750,4.13,-1.39,0.891,89.8,red,223,TRUE
357,1660021606.707,2397,6696,3350,5.379,-1.356,-0.115,86.8,blue,223,TRUE
358,1660021606.795,2565,7281,750,4.148,-1.382,0.917,90.7,red,223,TRUE
359,1660021608.184,2396,6708,3350,5.366,-1.35,-0.112,87.4,blue,223,TRUE
360,1660021608.273,2587,7293,750,4.15,-1.38,0.863,90.2,red,223,TRUE
361,1660021608.364,2919,-3170,882,3.81,-1.045,1.688,74.1,yellow,223,TRUE
362,1660021608.586,2403,6690,3350,5.356,-1.338,-0.109,92.2,blue,223,TRUE
363,1660021608.691,2591,7288,750,4.167,-1.366,0.773,92.2,red,223,TRUE
364,1660021610.111,2411,6723,3350,5.359,-1.357,-0.113,90.5,blue,223,TRUE
365,1660021610.214,2582,7281,750,4.114,-1.388,0.812,92.5,red,223,TRUE
366,1660021610.308,2936,-3173,882,3.81,-1.045,1.688,74.8,yellow,223,TRUE
367,1660021610.488,2419,6730,3350,5.369,-1.356,-0.112,90.0,blue,223,TRUE
368,1660021610.591,2562,7314,750,4.122,-1.377,0.756,93.2,red,223,TRUE
369,1660021610.697,2940,-3175,882,3.81,-1.045,1.688,76.7,yellow,223,TRUE
370,1660021610.867,2422,6743,3350,5.366,-1.355,-0.109,88.5,blue,223,TRUE
371,1660021610.968,2550,7337,750,4.138,-1.346,0.687,92.9,red,223,TRUE
372,1660021611.073,2928,-3173,882,3.81,-1.045,1.688,77.5,yellow,223,TRUE
373,1660021611.287,2434,6816,3350,5.365,-1.352,-0.107,90.0,blue,223,TRUE
374,1660021611.378,2537,7356,750,4.157,-1.34,0.658,88.8,red,223,TRUE
375,1660021612.782,2450,6916,3350,5.361,-1.358,-0.107,89.3,blue,223,TRUE
376,1660021612.872,2495,7364,750,4.247,-1.331,0.566,90.1,red,223,TRUE
377,1660021612.964,2947,-3180,882,3.81,-1.045,1.688,71.9,yellow,223,TRUE
378,1660021613.17,2465,6975,3350,5.361,-1.356,-0.109,92.4,blue,223,TRUE
379,1660021613.263,2472,7389,750,4.18,-1.349,0.56,89.9,red,223,TRUE
380,1660021614.669,2461,6979,3350,5.375,-1.352,-0.117,87.2,blue,223,TRUE
381,1660021614.757,2462,7386,750,4.186,-1.384,0.898,90.2,red,223,TRUE
382,1660021616.143,2459,6989,3350,5.373,-1.35,-0.115,89.2,blue,223,TRUE
383,1660021616.233,2448,7397,750,4.146,-1.383,0.831,89.5,red,223,TRUE
384,1660021616.323,2954,-3188,882,3.81,-1.044,1.692,73.0,yellow,223,TRUE
385,1660021616.502,2462,6985,3350,5.37,-1.35,-0.11,90.1,blue,223,TRUE
386,1660021616.592,2421,7433,750,4.136,-1.383,0.804,89.6,red,223,TRUE
387,1660021616.685,2913,-3172,882,3.81,-1.044,1.692,86.8,yellow,223,TRUE
388,1660021616.909,2472,6973,3350,5.371,-1.352,-0.111,90.4,blue,223,TRUE
389,1660021617.011,2390,7455,750,4.169,-1.359,0.722,90.9,red,223,TRUE
390,1660021618.42,2472,6978,3350,5.371,-1.353,-0.107,87.6,blue,223,TRUE
391,1660021618.508,2380,7434,750,4.152,-1.378,0.747,89.0,red,223,TRUE
392,1660021618.598,2911,-3176,882,3.81,-1.044,1.692,90.2,yellow,223,TRUE
393,1660021618.794,2469,7003,3350,5.378,-1.348,-0.106,90.8,blue,223,TRUE
394,1660021618.885,2387,7427,750,4.144,-1.39,0.91,89.6,red,223,TRUE
395,1660021618.977,2900,-3187,882,3.808,-1.047,1.693,73.3,yellow,223,TRUE
396,1660021619.183,2464,7017,3350,5.375,-1.348,-0.103,91.9,blue,223,TRUE
397,1660021619.276,2379,7414,750,4.177,-1.405,0.905,90.2,red,223,TRUE
398,1660021619.367,2895,-3196,882,3.809,-1.047,1.69,74.7,yellow,223,TRUE
399,1660021619.533,2460,7046,3350,5.375,-1.35,-0.104,89.2,blue,223,TRUE
400,1660021619.635,2377,7367,750,4.202,-1.37,1.071,91.8,red,223,TRUE
401,1660021619.733,2905,-3204,882,3.808,-1.048,1.69,86.9,yellow,223,TRUE
402,1660021620.043,2457,7043,3350,5.373,-1.352,-0.109,92.7,blue,223,TRUE
403,1660021620.15,2362,7361,750,4.236,-1.336,0.956,92.0,red,223,TRUE
404,1660021620.243,2894,-3202,882,3.809,-1.049,1.689,90.3,yellow,223,TRUE
405,1660021620.435,2449,7031,3350,5.373,-1.353,-0.115,93.9,blue,223,TRUE
406,1660021620.528,2346,7343,750,4.234,-1.376,0.945,89.3,red,223,TRUE
407,1660021620.621,2894,-3202,882,3.809,-1.049,1.688,70.5,yellow,223,TRUE
408,1660021620.815,2442,6996,3350,5.371,-1.356,-0.117,90.1,blue,223,TRUE
409,1660021620.905,2380,7342,750,4.147,-1.369,0.984,91.3,red,223,TRUE
410,1660021622.309,2443,6962,3350,5.383,-1.357,-0.202,91.3,blue,223,TRUE
411,1660021622.4,2393,7314,750,4.027,-1.402,0.774,89.5,red,223,TRUE
412,1660021622.493,2901,-3197,882,3.806,-1.05,1.683,102.5,yellow,223,TRUE
413,1660021622.712,2444,6950,3350,5.409,-1.386,-0.172,91.5,blue,223,TRUE
414,1660021622.805,2401,7315,750,4.026,-1.403,0.773,91.0,red,223,TRUE
415,1660021622.897,2901,-3197,882,3.807,-1.05,1.682,74.2,yellow,223,TRUE
416,1660021623.078,2425,6930,3350,5.426,-1.38,-0.131,88.8,blue,223,TRUE
417,1660021623.18,2414,7358,750,4.021,-1.403,0.749,92.0,red,223,TRUE
418,1660021623.272,2897,-3195,882,3.808,-1.053,1.678,90.3,yellow,223,TRUE
419,1660021623.464,2408,6925,3350,5.415,-1.381,-0.106,78.4,blue,223,TRUE
420,1660021623.543,2415,7309,750,4.066,-1.383,0.701,88.9,red,223,TRUE
421,1660021624.938,2393,6916,3350,5.403,-1.369,-0.109,99.5,blue,223,TRUE
422,1660021625.038,2430,7288,750,4.084,-1.356,0.607,91.0,red,223,TRUE
423,1660021626.474,2391,6876,3350,5.401,-1.362,-0.103,88.5,blue,223,TRUE
424,1660021626.564,2438,7321,750,4.047,-1.377,0.605,89.2,red,223,TRUE
425,1660021627.739,2861,-2757,2526,4.934,-0.622,0.388,101.7,green,223,TRUE
426,1660021627.994,2377,6823,3350,5.186,-1.346,-0.457,87.6,blue,223,TRUE
427,1660021628.082,2437,7360,750,3.998,-1.401,0.676,89.8,red,223,TRUE
428,1660021628.203,2897,-3195,882,3.812,-1.058,1.66,73.1,yellow,223,TRUE
429,1660021629.509,2369,6738,3350,5.483,-1.336,-0.191,93.9,blue,223,TRUE
430,1660021629.604,2454,7391,750,4.008,-1.401,0.645,89.0,red,223,TRUE
431,1660021629.694,2897,-3195,882,3.816,-1.055,1.668,73.3,yellow,223,TRUE
432,1660021631.199,2436,7391,750,4.014,-1.415,0.714,88.8,red,223,TRUE
433,1660021634.783,2338,6729,3350,5.617,-1.381,0.092,96.6,blue,223,TRUE
434,1660021634.882,2443,7369,750,4.044,-1.378,0.625,88.9,red,223,TRUE
435,1660021634.98,2897,-3195,882,3.818,-1.056,1.642,82.3,yellow,223,TRUE
436,1660021636.282,2345,6701,3350,5.609,-1.395,0.017,90.4,blue,223,TRUE
437,1660021636.373,2460,7374,750,4.031,-1.398,0.684,90.8,red,223,TRUE
438,1660021636.474,2892,-3189,882,3.818,-1.056,1.638,80.3,yellow,223,TRUE
439,1660021636.768,2343,6683,3350,5.603,-1.393,0.003,87.9,blue,223,TRUE
440,1660021636.857,2458,7384,750,4.016,-1.396,0.683,90.0,red,223,TRUE
441,1660021636.95,2912,-3188,882,3.817,-1.057,1.641,73.9,yellow,223,TRUE
442,1660021637.171,2357,6661,3350,5.6,-1.386,0.0,77.8,blue,223,TRUE
443,1660021637.249,2461,7393,750,4.01,-1.4,0.741,91.0,red,223,TRUE
444,1660021637.34,2914,-3183,882,3.814,-1.059,1.641,90.6,yellow,223,TRUE
445,1660021637.549,2362,6687,3350,5.601,-1.385,-0.008,92.2,blue,223,TRUE
446,1660021637.642,2453,7400,750,4.018,-1.401,0.761,89.2,red,223,TRUE
447,1660021637.733,2930,-3180,882,3.811,-1.061,1.643,74.3,yellow,223,TRUE
448,1660021637.899,2363,6692,3350,5.603,-1.378,-0.011,90.0,blue,223,TRUE
449,1660021638.001,2457,7379,750,4.015,-1.401,0.757,92.6,red,223,TRUE
450,1660021639.392,2378,6669,3350,5.597,-1.39,-0.002,89.7,blue,223,TRUE
451,1660021639.484,2448,7419,750,4.042,-1.394,0.706,88.0,red,223,TRUE
452,1660021639.572,2930,-3180,882,3.814,-1.059,1.64,74.6,yellow,223,TRUE
453,1660021640.809,2377,6683,3350,5.592,-1.39,-0.004,91.9,blue,223,TRUE
454,1660021640.902,2446,7435,750,4.277,-1.353,0.903,89.5,red,223,TRUE
455,1660021641.002,2930,-3180,882,3.819,-1.054,1.658,79.6,yellow,223,TRUE
456,1660021641.309,2378,6703,3350,5.585,-1.389,-0.008,92.6,blue,223,TRUE
457,1660021641.403,2422,7421,750,4.256,-1.356,0.851,89.2,red,223,TRUE
458,1660021642.79,2387,6767,3350,5.581,-1.378,-0.035,93.6,blue,223,TRUE
459,1660021642.89,2408,7402,750,4.214,-1.389,0.801,95.9,red,223,TRUE
460,1660021642.99,2930,-3180,882,3.819,-1.053,1.666,71.0,yellow,223,TRUE
461,1660021643.21,2394,6738,3350,5.539,-1.354,0.019,77.3,blue,223,TRUE
462,1660021643.288,2382,7393,750,4.167,-1.394,0.743,90.2,red,223,TRUE
463,1660021643.379,2935,-3176,882,3.818,-1.055,1.668,75.6,yellow,223,TRUE
464,1660021643.572,2419,6738,3350,5.39,-1.367,-0.202,93.0,blue,223,TRUE
465,1660021643.665,2386,7408,750,4.165,-1.392,0.707,89.0,red,223,TRUE
466,1660021644.917,2861,-2757,2526,4.937,-0.508,0.337,73.8,green,223,TRUE
467,1660021646.14,2418,6724,3350,5.633,-1.438,0.125,88.2,blue,223,TRUE
468,1660021646.229,2378,7419,750,4.121,-1.389,0.551,89.5,red,223,TRUE
469,1660021649.771,2442,6762,3350,5.6,-1.434,0.06,86.1,blue,223,TRUE
470,1660021649.858,2364,7428,750,4.073,-1.404,0.627,87.8,red,223,TRUE
471,1660021649.96,2951,-3174,882,3.823,-1.059,1.659,74.7,yellow,223,TRUE
472,1660021652.345,2442,6738,3350,5.801,-1.359,0.033,85.3,blue,223,TRUE
473,1660021652.434,2364,7421,750,3.704,-1.44,0.543,85.8,red,223,TRUE
474,1660021652.526,2963,-3179,882,3.84,-1.047,1.653,85.1,yellow,223,TRUE
475,1660021654.944,2471,6658,3350,1.112,-1.335,-0.16,94.9,blue,223,TRUE
476,1660021655.045,2469,7380,750,1.621,-1.382,0.8,86.7,red,223,TRUE
477,1660021655.142,2981,-3180,882,3.834,-1.053,1.659,78.5,yellow,223,TRUE
478,1660021656.464,2560,6558,3350,0.716,-1.389,-0.602,91.1,blue,223,TRUE
479,1660021656.558,2597,7313,750,1.535,-1.305,1.264,86.6,red,223,TRUE
480,1660021656.652,2981,-3180,882,3.834,-1.053,1.659,67.6,yellow,223,TRUE
481,1660021658.003,2662,6462,3350,0.651,-1.403,-0.167,87.7,blue,223,TRUE
482,1660021658.094,2715,7229,750,1.344,-1.415,1.185,87.6,red,223,TRUE
483,1660021658.189,2981,-3180,882,3.834,-1.053,1.659,84.0,yellow,223,TRUE
484,1660021658.322,2853,-2749,2526,4.984,-0.569,0.389,87.3,green,223,TRUE
485,1660021658.529,2758,6402,3350,0.649,-1.41,-0.17,90.5,blue,223,TRUE
486,1660021658.633,2870,7143,750,1.372,-1.393,0.878,94.6,red,223,TRUE
487,1660021658.74,2992,-3179,882,3.834,-1.053,1.659,77.9,yellow,223,TRUE
488,1660021661.133,2856,6287,3350,0.54,-1.43,-0.323,96.8,blue,223,TRUE
489,1660021661.232,3001,7077,750,1.246,-1.341,0.668,86.5,red,223,TRUE
490,1660021661.325,3006,-3176,882,3.834,-1.053,1.659,86.8,yellow,223,TRUE
491,1660021661.414,2836,-2738,2526,4.976,-0.576,0.394,88.2,green,223,TRUE
492,1660021662.721,2955,6177,3350,0.614,-1.42,0.035,91.7,blue,223,TRUE
493,1660021662.813,3148,7010,750,1.428,-1.359,1.019,90.7,red,223,TRUE
494,1660021662.913,3023,-3184,882,3.835,-1.053,1.657,82.4,yellow,223,TRUE
495,1660021663.0,2866,-2734,2526,4.981,-0.569,0.397,85.3,green,223,TRUE
496,1660021664.304,3056,6038,3350,0.511,-1.422,-0.556,92.4,blue,223,TRUE
497,1660021664.398,3298,6944,750,1.271,-1.324,0.855,90.1,red,223,TRUE
498,1660021664.5,3041,-3189,882,3.834,-1.053,1.659,79.0,yellow,223,TRUE
499,1660021664.58,2877,-2736,2526,4.975,-0.569,0.396,120.0,green,223,TRUE
500,1660021664.833,3171,6022,3350,0.516,-1.429,-0.439,91.4,blue,223,TRUE
501,1660021664.928,3449,6878,750,1.278,-1.34,0.83,87.5,red,223,TRUE
502,1660021665.016,3063,-3200,882,3.834,-1.053,1.659,74.8,yellow,223,TRUE
503,1660021666.442,3283,5900,3350,0.704,-1.394,-0.196,83.5,blue,223,TRUE
504,1660021666.529,3603,6804,750,1.25,-1.406,0.628,87.1,red,223,TRUE
505,1660021666.617,3063,-3202,882,3.834,-1.053,1.659,74.5,yellow,223,TRUE
506,1660021669.106,3375,5800,3350,0.689,-1.383,-0.157,77.7,blue,223,TRUE
507,1660021669.188,3754,6720,750,1.208,-1.416,0.877,86.6,red,223,TRUE
508,1660021670.345,2839,-2778,2526,5.005,-0.539,0.411,74.3,green,223,TRUE
509,1660021671.61,3459,5680,3350,0.668,-1.385,-0.185,91.0,blue,223,TRUE
510,1660021671.702,3902,6628,750,1.238,-1.4,0.972,89.6,red,223,TRUE
511,1660021671.799,3070,-3207,882,3.836,-1.053,1.657,84.0,yellow,223,TRUE
512,1660021674.252,3588,5604,3350,0.689,-1.38,-0.166,97.0,blue,223,TRUE
513,1660021674.351,4043,6517,750,1.281,-1.393,0.962,91.1,red,223,TRUE
514,1660021674.454,3059,-3214,882,3.836,-1.053,1.656,78.7,yellow,223,TRUE
515,1660021675.822,3669,5612,3350,0.697,-1.374,-0.167,86.6,blue,223,TRUE
516,1660021675.91,4080,6456,750,1.268,-1.396,0.925,88.6,red,223,TRUE
517,1660021676.002,3074,-3214,882,3.836,-1.053,1.656,86.5,yellow,223,TRUE
518,1660021678.499,3711,5632,3350,0.61,-1.333,-0.171,98.3,blue,223,TRUE
519,1660021678.601,4065,6443,750,1.272,-1.39,0.864,86.3,red,223,TRUE
520,1660021681.003,3729,5646,3350,0.666,-1.374,-0.156,89.8,blue,223,TRUE
521,1660021681.093,4056,6426,750,1.208,-1.395,0.896,88.5,red,223,TRUE
522,1660021681.191,3071,-3222,882,3.838,-1.053,1.655,80.3,yellow,223,TRUE
523,1660021682.556,3745,5653,3350,0.663,-1.39,-0.151,88.4,blue,223,TRUE
524,1660021682.645,4034,6393,750,1.218,-1.394,0.897,89.1,red,223,TRUE
525,1660021683.985,3754,5665,3350,0.674,-1.379,-0.149,91.2,blue,223,TRUE
526,1660021684.076,4015,6362,750,1.228,-1.392,0.91,89.7,red,223,TRUE
527,1660021685.434,3772,5651,3350,0.65,-1.384,-0.181,88.6,blue,223,TRUE
528,1660021685.523,4024,6347,750,1.24,-1.371,0.796,90.9,red,223,TRUE
529,1660021685.627,3077,-3217,882,3.842,-1.054,1.65,77.8,yellow,223,TRUE
530,1660021685.762,3798,5664,3350,0.665,-1.37,-0.157,92.1,blue,223,TRUE
531,1660021685.855,4024,6311,750,1.235,-1.367,0.815,90.6,red,223,TRUE
532,1660021685.947,3077,-3217,882,3.842,-1.054,1.65,73.9,yellow,223,TRUE
533,1660021686.049,3798,5652,3350,0.683,-1.346,-0.168,93.2,blue,223,TRUE
534,1660021686.142,4024,6284,750,1.262,-1.353,0.793,89.9,red,223,TRUE
535,1660021686.232,3078,-3213,882,3.842,-1.054,1.65,74.7,yellow,223,TRUE
536,1660021686.314,3793,5644,3350,0.697,-1.366,-0.155,84.9,blue,223,TRUE
537,1660021686.412,4034,6258,750,1.299,-1.334,0.762,92.9,red,223,TRUE
538,1660021686.518,3081,-3215,882,3.842,-1.054,1.65,78.0,yellow,223,TRUE
539,1660021686.793,3818,5671,3350,0.689,-1.395,-0.136,90.7,blue,223,TRUE
540,1660021686.884,4031,6255,750,1.263,-1.323,0.654,90.0,red,223,TRUE
541,1660021686.977,3091,-3222,882,3.842,-1.054,1.65,73.2,yellow,223,TRUE
542,1660021687.091,3827,5675,3350,0.669,-1.389,-0.142,95.3,blue,223,TRUE
543,1660021687.186,4040,6278,750,1.186,-1.333,0.644,90.1,red,223,TRUE
544,1660021687.28,3094,-3226,882,3.842,-1.054,1.65,86.0,yellow,223,TRUE
545,1660021687.38,3813,5672,3350,0.677,-1.392,-0.145,92.3,blue,223,TRUE
546,1660021687.485,4030,6290,750,1.26,-1.309,0.652,92.9,red,223,TRUE
547,1660021687.591,3084,-3225,882,3.842,-1.054,1.65,77.8,yellow,223,TRUE
548,1660021687.727,3811,5677,3350,0.668,-1.38,-0.157,91.7,blue,223,TRUE
549,1660021687.82,4010,6290,750,1.355,-1.293,0.664,90.0,red,223,TRUE
550,1660021687.91,3089,-3222,882,3.841,-1.054,1.65,75.7,yellow,223,TRUE
551,1660021688.164,3812,5661,3350,0.685,-1.366,-0.139,92.0,blue,223,TRUE
552,1660021688.258,4010,6269,750,1.458,-1.299,0.678,87.6,red,223,TRUE
553,1660021688.347,3089,-3221,882,3.841,-1.054,1.65,89.6,yellow,223,TRUE
554,1660021688.45,3824,5673,3350,0.697,-1.371,-0.128,93.1,blue,223,TRUE
555,1660021688.556,4008,6267,750,1.551,-1.297,0.704,92.1,red,223,TRUE
556,1660021688.661,3085,-3220,882,3.841,-1.055,1.652,77.2,yellow,223,TRUE
557,1660021688.779,3843,5684,3350,0.697,-1.381,-0.151,95.6,blue,223,TRUE
558,1660021688.877,4009,6264,750,1.522,-1.316,0.697,88.1,red,223,TRUE
559,1660021688.965,3095,-3221,882,3.841,-1.055,1.652,75.2,yellow,223,TRUE
560,1660021689.098,3861,5682,3350,0.686,-1.379,-0.165,92.3,blue,223,TRUE
561,1660021689.191,4018,6255,750,1.486,-1.316,0.621,89.7,red,223,TRUE
562,1660021689.282,3103,-3227,882,3.841,-1.055,1.649,75.0,yellow,223,TRUE
563,1660021689.4,3860,5693,3350,0.707,-1.377,-0.155,92.9,blue,223,TRUE
564,1660021689.506,4001,6227,750,1.453,-1.319,0.676,92.6,red,223,TRUE
565,1660021689.612,3100,-3221,882,3.841,-1.055,1.649,77.8,yellow,223,TRUE
566,1660021689.794,3838,5689,3350,0.7,-1.378,-0.159,91.2,blue,223,TRUE
567,1660021689.887,3981,6216,750,1.345,-1.329,0.7,91.0,red,223,TRUE
568,1660021691.279,3849,5702,3350,0.7,-1.376,-0.145,88.3,blue,223,TRUE
569,1660021691.371,3953,6232,750,1.073,-1.373,0.664,86.2,red,223,TRUE
570,1660021691.459,3101,-3221,882,3.845,-1.055,1.638,88.5,yellow,223,TRUE
571,1660021691.664,3865,5682,3350,0.7,-1.376,-0.145,93.1,blue,223,TRUE
572,1660021691.77,3923,6229,750,1.085,-1.365,0.658,92.1,red,223,TRUE
573,1660021691.862,3098,-3223,882,3.846,-1.055,1.636,73.2,yellow,223,TRUE
574,1660021692.997,3867,5678,3350,0.698,-1.361,-0.127,91.5,blue,223,TRUE
575,1660021693.089,3910,6230,750,1.121,-1.373,0.732,89.8,red,223,TRUE
576,1660021693.187,3093,-3219,882,3.846,-1.055,1.636,82.4,yellow,223,TRUE
577,1660021693.485,3868,5675,3350,0.693,-1.373,-0.125,86.5,blue,223,TRUE
578,1660021693.573,3894,6203,750,1.13,-1.369,0.712,90.7,red,223,TRUE
579,1660021694.987,3871,5692,3350,0.69,-1.374,-0.135,90.2,blue,223,TRUE
580,1660021695.078,3880,6209,750,1.125,-1.378,0.812,89.9,red,223,TRUE
581,1660021695.168,3078,-3214,882,3.845,-1.056,1.638,74.4,yellow,223,TRUE
582,1660021696.301,3881,5682,3350,0.683,-1.369,-0.135,90.9,blue,223,TRUE
583,1660021696.393,3887,6216,750,1.138,-1.373,0.771,88.6,red,223,TRUE
584,1660021697.814,3864,5684,3350,0.696,-1.392,-0.14,87.8,blue,223,TRUE
585,1660021697.902,3919,6236,750,1.152,-1.365,0.746,91.1,red,223,TRUE
586,1660021700.261,3854,5666,3350,0.694,-1.37,-0.132,86.0,blue,223,TRUE
587,1660021700.348,3942,6228,750,1.16,-1.347,0.7,89.7,red,223,TRUE
588,1660021700.451,3067,-3206,882,3.848,-1.053,1.641,75.3,yellow,223,TRUE
589,1660021700.677,3845,5664,3350,0.69,-1.367,-0.133,93.3,blue,223,TRUE
590,1660021700.784,3955,6251,750,1.169,-1.343,0.724,92.8,red,223,TRUE
591,1660021703.141,3838,5652,3350,0.681,-1.384,-0.148,89.0,blue,223,TRUE
592,1660021703.231,3955,6256,750,1.214,-1.346,0.707,87.5,red,223,TRUE
593,1660021703.325,3074,-3207,882,3.844,-1.056,1.656,100.2,yellow,223,TRUE
594,1660021703.648,3846,5658,3350,0.681,-1.386,-0.16,92.7,blue,223,TRUE
595,1660021703.754,3966,6267,750,1.252,-1.333,0.747,92.3,red,223,TRUE
596,1660021703.846,3077,-3206,882,3.846,-1.056,1.654,75.6,yellow,223,TRUE
597,1660021704.014,3862,5664,3350,0.68,-1.386,-0.165,88.7,blue,223,TRUE
598,1660021704.116,3989,6266,750,1.26,-1.328,0.722,94.0,red,223,TRUE
599,1660021706.579,3845,5656,3350,0.678,-1.369,-0.203,89.2,blue,223,TRUE
600,1660021706.67,4006,6254,750,1.269,-1.332,0.722,90.0,red,223,TRUE
601,1660021706.768,3089,-3206,882,3.863,-1.052,1.642,81.3,yellow,223,TRUE
602,1660021708.133,3835,5668,3350,0.689,-1.361,-0.185,91.4,blue,223,TRUE
603,1660021708.225,4012,6265,750,1.266,-1.33,0.709,88.8,red,223,TRUE
604,1660021708.321,3093,-3207,882,3.86,-1.054,1.642,84.2,yellow,223,TRUE
605,1660021708.646,3846,5660,3350,0.69,-1.362,-0.187,90.9,blue,223,TRUE
606,1660021708.75,4026,6241,750,1.287,-1.33,0.698,90.2,red,223,TRUE
607,1660021708.841,3096,-3204,882,3.86,-1.054,1.642,74.8,yellow,223,TRUE
608,1660021710.036,3847,5654,3350,0.678,-1.359,-0.173,90.1,blue,223,TRUE
609,1660021710.127,4036,6223,750,1.106,-1.343,0.613,91.3,red,223,TRUE
610,1660021712.591,3843,5647,3350,0.696,-1.364,-0.149,88.7,blue,223,TRUE
611,1660021712.681,4046,6212,750,1.128,-1.372,0.704,91.7,red,223,TRUE
612,1660021712.783,3082,-3207,882,3.857,-1.055,1.643,79.3,yellow,223,TRUE
613,1660021714.042,3827,5651,3350,0.697,-1.368,-0.159,90.9,blue,223,TRUE
614,1660021714.133,4039,6205,750,1.128,-1.374,0.724,90.0,red,223,TRUE
615,1660021715.58,3834,5651,3350,0.702,-1.366,-0.158,88.2,blue,223,TRUE
616,1660021715.682,4035,6206,750,1.067,-1.407,0.813,93.4,red,223,TRUE
617,1660021715.789,3084,-3211,882,3.855,-1.055,1.644,76.1,yellow,223,TRUE
618,1660021716.998,3854,5659,3350,0.684,-1.367,-0.158,91.6,blue,223,TRUE
619,1660021717.09,3970,6256,750,1.089,-1.378,0.526,89.1,red,223,TRUE
620,1660021717.184,3081,-3212,882,3.853,-1.055,1.648,84.8,yellow,223,TRUE
621,1660021717.52,3866,5653,3350,0.711,-1.374,-0.164,101.7,blue,223,TRUE
622,1660021717.625,3972,6275,750,1.049,-1.365,0.404,99.1,red,223,TRUE
623,1660021717.737,3086,-3213,882,3.854,-1.055,1.65,77.2,yellow,223,TRUE
624,1660021718.884,3863,5667,3350,0.551,-1.391,-0.238,90.3,blue,223,TRUE
625,1660021718.975,3983,6271,750,1.028,-1.365,0.332,88.4,red,223,TRUE
626,1660021719.07,3084,-3210,882,3.857,-1.053,1.652,87.2,yellow,223,TRUE
627,1660021720.423,3861,5643,3350,0.742,-1.348,-0.044,90.6,blue,223,TRUE
628,1660021720.516,3971,6268,750,1.004,-1.365,0.325,87.6,red,223,TRUE
629,1660021721.932,3843,5621,3350,0.647,-1.323,-0.133,91.1,blue,223,TRUE
630,1660021722.025,3955,6279,750,1.005,-1.362,0.316,89.1,red,223,TRUE
631,1660021724.466,3860,5618,3350,0.683,-1.359,-0.152,89.3,blue,223,TRUE
632,1660021724.56,3965,6277,750,1.002,-1.359,0.333,86.0,red,223,TRUE
633,1660021724.654,3084,-3210,882,3.855,-1.056,1.653,66.4,yellow,223,TRUE
634,1660021725.974,3861,5632,3350,0.632,-1.383,0.232,91.2,blue,223,TRUE
635,1660021726.068,3980,6280,750,1.016,-1.357,0.372,88.2,red,223,TRUE
636,1660021727.477,3809,5612,3350,1.037,-1.345,-0.321,84.3,blue,223,TRUE
637,1660021727.563,3975,6287,750,1.09,-1.352,0.489,88.9,red,223,TRUE
638,1660021730.032,3757,5464,3350,2.311,-1.393,0.056,89.8,blue,223,TRUE
639,1660021730.125,3936,6186,750,2.513,-1.383,0.552,88.3,red,223,TRUE
640,1660021730.22,3084,-3210,882,3.852,-1.056,1.661,69.0,yellow,223,TRUE
641,1660021731.542,3714,5205,3350,2.106,-1.354,-0.259,86.0,blue,223,TRUE
642,1660021731.629,3911,5941,750,2.572,-1.305,0.578,90.8,red,223,TRUE
643,1660021731.726,3084,-3210,882,3.852,-1.056,1.662,68.7,yellow,223,TRUE
644,1660021733.063,3706,4894,3350,1.325,-1.416,-0.188,90.0,blue,223,TRUE
645,1660021733.154,3890,5622,750,2.102,-1.368,0.819,87.1,red,223,TRUE
646,1660021733.571,3685,4565,3350,1.156,-1.38,-0.541,91.7,blue,223,TRUE
647,1660021733.676,3861,5245,750,1.775,-1.374,0.807,92.8,red,223,TRUE
648,1660021733.782,3086,-3207,882,3.854,-1.054,1.652,77.0,yellow,223,TRUE
649,1660021733.863,3660,4239,3350,1.283,-1.397,-0.336,86.3,blue,223,TRUE
650,1660021733.962,3919,4870,750,1.665,-1.359,0.848,92.2,red,223,TRUE
651,1660021734.068,3084,-3203,882,3.854,-1.054,1.65,78.3,yellow,223,TRUE
652,1660021734.204,3640,3915,3350,1.355,-1.4,-0.165,93.2,blue,223,TRUE
653,1660021734.299,3916,4501,750,1.581,-1.358,0.832,87.6,red,223,TRUE
654,1660021734.388,3084,-3203,882,3.854,-1.054,1.65,73.8,yellow,223,TRUE
655,1660021734.476,3593,3578,3350,1.358,-1.408,-0.156,92.9,blue,223,TRUE
656,1660021734.582,3915,4176,750,1.511,-1.366,0.909,92.7,red,223,TRUE
657,1660021734.688,3092,-3196,882,3.854,-1.054,1.65,92.5,yellow,223,TRUE
658,1660021734.976,3604,3245,3350,1.376,-1.407,-0.131,88.5,blue,223,TRUE
659,1660021735.066,3930,3836,750,1.405,-1.393,0.953,90.0,red,223,TRUE
660,1660021735.169,3093,-3198,882,3.854,-1.054,1.65,76.4,yellow,223,TRUE
661,1660021735.3,3625,2921,3350,1.373,-1.41,-0.142,94.2,blue,223,TRUE
662,1660021735.395,3941,3492,750,1.396,-1.402,0.946,89.2,red,223,TRUE
663,1660021735.488,3093,-3198,882,3.854,-1.054,1.65,72.1,yellow,223,TRUE
664,1660021735.59,3616,2577,3350,1.36,-1.421,-0.193,91.6,blue,223,TRUE
665,1660021735.695,3931,3155,750,1.395,-1.407,0.95,91.9,red,223,TRUE
666,1660021735.799,3093,-3198,882,3.854,-1.054,1.65,79.6,yellow,223,TRUE
667,1660021735.892,3605,2214,3350,1.348,-1.426,-0.236,91.0,blue,223,TRUE
668,1660021735.997,3921,2812,750,1.403,-1.407,0.972,92.7,red,223,TRUE
669,1660021736.103,3092,-3201,882,3.854,-1.054,1.65,77.0,yellow,223,TRUE
670,1660021736.391,3641,1892,3350,1.346,-1.432,-0.271,91.7,blue,223,TRUE
671,1660021736.487,3919,2488,750,1.407,-1.409,1.001,88.2,red,223,TRUE
672,1660021736.577,3098,-3205,882,3.854,-1.054,1.65,86.3,yellow,223,TRUE
673,1660021736.722,3675,1694,3350,1.34,-1.438,-0.293,92.7,blue,223,TRUE
674,1660021736.815,3987,2273,750,1.44,-1.405,0.978,88.7,red,223,TRUE
675,1660021736.905,3093,-3205,882,3.854,-1.054,1.65,73.4,yellow,223,TRUE
676,1660021737.008,3693,1616,3350,1.332,-1.445,-0.317,90.4,blue,223,TRUE
677,1660021737.099,4027,2195,750,1.479,-1.404,0.945,88.6,red,223,TRUE
678,1660021738.448,3691,1581,3350,1.264,-1.441,-0.587,87.8,blue,223,TRUE
679,1660021738.537,4061,2173,750,1.522,-1.373,1.398,90.9,red,223,TRUE
680,1660021738.641,3106,-3198,882,3.855,-1.052,1.653,77.4,yellow,223,TRUE
681,1660021738.777,3695,1561,3350,1.205,-1.384,-0.525,92.6,blue,223,TRUE
682,1660021738.869,4078,2198,750,1.4,-1.37,1.222,89.6,red,223,TRUE
683,1660021738.96,3106,-3198,882,3.856,-1.05,1.653,75.5,yellow,223,TRUE
684,1660021739.063,3687,1571,3350,1.153,-1.371,-0.496,93.1,blue,223,TRUE
685,1660021739.157,4099,2187,750,1.373,-1.381,1.246,89.1,red,223,TRUE
686,1660021739.26,3115,-3195,882,3.856,-1.05,1.653,76.4,yellow,223,TRUE
687,1660021739.343,3670,1561,3350,1.182,-1.391,-0.273,84.0,blue,223,TRUE
688,1660021739.441,4107,2187,750,1.304,-1.4,1.06,92.9,red,223,TRUE
689,1660021739.547,3119,-3197,882,3.853,-1.054,1.653,78.7,yellow,223,TRUE
690,1660021739.837,3742,1574,3350,1.073,-1.425,0.265,92.1,blue,223,TRUE
691,1660021739.929,4116,2174,750,1.313,-1.406,0.975,89.6,red,223,TRUE
692,1660021741.27,3727,1592,3350,0.914,-1.485,-0.014,91.5,blue,223,TRUE
693,1660021741.362,4155,2169,750,1.295,-1.41,0.758,91.6,red,223,TRUE
694,1660021741.453,3109,-3196,882,3.851,-1.055,1.654,76.3,yellow,223,TRUE
695,1660021741.557,3711,1615,3350,0.911,-1.476,-0.014,91.4,blue,223,TRUE
696,1660021741.663,4168,2183,750,1.277,-1.408,0.709,92.2,red,223,TRUE
697,1660021741.769,3110,-3197,882,3.851,-1.055,1.654,77.6,yellow,223,TRUE
698,1660021741.849,3658,1646,3350,0.922,-1.453,-0.015,87.5,blue,223,TRUE
699,1660021741.95,4191,2164,750,1.289,-1.404,0.757,92.3,red,223,TRUE
700,1660021742.055,3109,-3204,882,3.851,-1.055,1.654,75.6,yellow,223,TRUE
701,1660021742.19,3658,1690,3350,0.918,-1.44,-0.142,91.6,blue,223,TRUE
702,1660021742.296,4211,2150,750,1.278,-1.408,0.829,91.6,red,223,TRUE
703,1660021742.388,3127,-3212,882,3.851,-1.055,1.654,73.9,yellow,223,TRUE
704,1660021742.655,3645,1722,3350,0.93,-1.44,-0.165,93.7,blue,223,TRUE
705,1660021742.761,4238,2146,750,1.271,-1.413,0.868,91.5,red,223,TRUE
706,1660021742.853,3118,-3216,882,3.851,-1.055,1.654,74.2,yellow,223,TRUE
707,1660021742.942,3661,1755,3350,0.928,-1.44,-0.167,92.9,blue,223,TRUE
708,1660021743.048,4238,2111,750,1.263,-1.418,0.915,93.6,red,223,TRUE
709,1660021744.397,3691,1766,3350,0.912,-1.429,-0.156,91.1,blue,223,TRUE
710,1660021744.491,4269,2087,750,1.314,-1.425,0.809,86.7,red,223,TRUE
711,1660021744.582,3107,-3218,882,3.851,-1.056,1.654,71.9,yellow,223,TRUE
712,1660021744.697,3691,1801,3350,0.924,-1.428,-0.153,93.6,blue,223,TRUE
713,1660021744.804,4286,2089,750,1.331,-1.422,0.837,92.0,red,223,TRUE
714,1660021744.896,3098,-3217,882,3.848,-1.057,1.653,74.8,yellow,223,TRUE
715,1660021744.983,3742,1847,3350,0.913,-1.429,-0.166,91.5,blue,223,TRUE
716,1660021745.088,4310,2078,750,1.335,-1.422,0.869,93.8,red,223,TRUE
717,1660021745.195,3081,-3214,882,3.848,-1.057,1.653,79.6,yellow,223,TRUE
718,1660021745.309,3800,1860,3350,0.906,-1.428,-0.165,98.2,blue,223,TRUE
719,1660021745.41,4316,2093,750,1.308,-1.428,0.849,87.2,red,223,TRUE
720,1660021745.498,3080,-3214,882,3.848,-1.057,1.652,74.4,yellow,223,TRUE
721,1660021745.781,3810,1881,3350,0.908,-1.414,-0.171,92.2,blue,223,TRUE
722,1660021745.874,4337,2103,750,1.304,-1.427,0.901,90.6,red,223,TRUE
723,1660021745.965,3077,-3218,882,3.848,-1.057,1.652,88.9,yellow,223,TRUE
724,1660021746.081,3771,1887,3350,0.911,-1.417,-0.181,93.7,blue,223,TRUE
725,1660021746.187,4358,2089,750,1.313,-1.429,0.912,92.4,red,223,TRUE
726,1660021746.28,3075,-3218,882,3.848,-1.057,1.652,74.4,yellow,223,TRUE
727,1660021746.362,3722,1905,3350,0.901,-1.42,-0.185,84.7,blue,223,TRUE
728,1660021746.46,4318,2085,750,1.307,-1.431,0.899,93.0,red,223,TRUE
729,1660021746.566,3078,-3217,882,3.848,-1.057,1.652,76.3,yellow,223,TRUE
730,1660021746.701,3714,1914,3350,0.901,-1.419,-0.171,94.6,blue,223,TRUE
731,1660021746.809,4309,2064,750,1.296,-1.43,0.862,92.1,red,223,TRUE
732,1660021748.262,3765,1921,3350,0.904,-1.416,-0.169,89.3,blue,223,TRUE
733,1660021748.352,4333,2058,750,1.31,-1.426,0.749,89.9,red,223,TRUE
734,1660021748.442,3082,-3222,882,3.851,-1.056,1.654,73.8,yellow,223,TRUE
735,1660021749.634,3779,1909,3350,0.92,-1.427,-0.178,91.7,blue,223,TRUE
736,1660021749.726,4353,2051,750,1.321,-1.431,0.836,89.5,red,223,TRUE
737,1660021749.821,3082,-3228,882,3.853,-1.055,1.654,98.5,yellow,223,TRUE
738,1660021750.144,3796,1910,3350,0.911,-1.427,-0.18,92.4,blue,223,TRUE
739,1660021750.249,4361,2027,750,1.324,-1.43,0.819,91.5,red,223,TRUE
740,1660021750.342,3094,-3226,882,3.852,-1.054,1.65,73.8,yellow,223,TRUE
741,1660021750.507,3785,1907,3350,0.911,-1.426,-0.18,90.1,blue,223,TRUE
742,1660021750.611,4375,2036,750,1.324,-1.436,0.875,93.6,red,223,TRUE
743,1660021753.151,3812,1899,3350,0.914,-1.425,-0.176,92.0,blue,223,TRUE
744,1660021753.244,4335,2050,750,1.261,-1.44,0.813,87.4,red,223,TRUE
745,1660021753.339,3082,-3222,882,3.853,-1.054,1.633,83.8,yellow,223,TRUE
746,1660021753.636,3827,1883,3350,0.911,-1.421,-0.172,85.1,blue,223,TRUE
747,1660021753.722,4313,2047,750,1.278,-1.437,0.836,90.3,red,223,TRUE
748,1660021755.137,3794,1870,3350,0.909,-1.418,-0.166,90.0,blue,223,TRUE
749,1660021755.228,4279,2057,750,1.261,-1.433,0.914,91.7,red,223,TRUE
750,1660021756.664,3758,1855,3350,0.912,-1.42,-0.167,88.5,blue,223,TRUE
751,1660021756.752,4249,2049,750,1.26,-1.432,0.934,89.5,red,223,TRUE
752,1660021759.108,3757,1855,3350,1.018,-1.396,-0.047,89.2,blue,223,TRUE
753,1660021759.198,4227,2033,750,1.258,-1.428,0.901,89.9,red,223,TRUE
754,1660021760.644,3771,1860,3350,1.0,-1.404,-0.048,89.9,blue,223,TRUE
755,1660021760.737,4201,2045,750,1.262,-1.428,0.908,88.0,red,223,TRUE
756,1660021761.975,2800,-2768,2526,5.163,-0.584,0.395,89.6,green,223,TRUE
757,1660021763.258,3820,1866,3350,0.977,-1.386,-0.047,91.4,blue,223,TRUE
758,1660021763.35,4199,2045,750,1.26,-1.426,0.915,89.4,red,223,TRUE
759,1660021763.445,3082,-3222,882,3.867,-1.037,1.642,70.5,yellow,223,TRUE
760,1660021763.52,2748,-2767,2526,5.184,-0.557,0.361,101.8,green,223,TRUE
761,1660021763.759,3836,1869,3350,0.978,-1.388,-0.047,88.4,blue,223,TRUE
762,1660021763.848,4201,2040,750,1.31,-1.416,0.891,89.0,red,223,TRUE
763,1660021763.938,3079,-3226,882,3.867,-1.037,1.642,74.8,yellow,223,TRUE
764,1660021764.016,2699,-2759,2526,5.189,-0.555,0.398,86.3,green,223,TRUE
765,1660021764.222,3837,1867,3350,0.976,-1.391,-0.047,93.8,blue,223,TRUE
766,1660021764.329,4166,2049,750,1.467,-1.394,0.933,91.1,red,223,TRUE
767,1660021764.421,3072,-3234,882,3.867,-1.037,1.642,74.2,yellow,223,TRUE
768,1660021764.496,2655,-2764,2526,5.187,-0.562,0.392,89.3,green,223,TRUE
769,1660021764.708,3827,1872,3350,0.974,-1.392,-0.045,90.1,blue,223,TRUE
770,1660021764.799,4139,2045,750,1.444,-1.38,1.046,89.6,red,223,TRUE
771,1660021765.958,2612,-2742,2526,5.196,-0.541,0.388,90.5,green,223,TRUE
772,1660021766.216,3838,1872,3350,0.972,-1.39,-0.076,89.2,blue,223,TRUE
773,1660021766.318,4123,2054,750,1.342,-1.367,0.969,92.1,red,223,TRUE
774,1660021766.41,3078,-3232,882,3.867,-1.037,1.642,75.5,yellow,223,TRUE
775,1660021766.486,2566,-2725,2526,5.197,-0.55,0.392,75.1,green,223,TRUE
776,1660021766.686,3844,1879,3350,0.978,-1.396,-0.077,85.9,blue,223,TRUE
777,1660021766.772,4092,2054,750,1.346,-1.368,0.873,89.4,red,223,TRUE
778,1660021769.147,3815,1883,3350,0.985,-1.405,-0.087,85.8,blue,223,TRUE
779,1660021769.235,4086,2054,750,1.284,-1.408,0.914,88.0,red,223,TRUE
780,1660021769.335,3078,-3232,882,3.869,-1.037,1.642,77.3,yellow,223,TRUE
781,1660021769.414,2563,-2739,2526,5.217,-0.568,0.415,89.6,green,223,TRUE
782,1660021769.594,3811,1881,3350,0.986,-1.398,-0.087,90.7,blue,223,TRUE
783,1660021769.686,4099,2075,750,1.277,-1.41,0.939,87.9,red,223,TRUE
784,1660021769.777,3078,-3232,882,3.871,-1.037,1.634,72.3,yellow,223,TRUE
785,1660021769.851,2559,-2737,2526,5.208,-0.575,0.403,119.6,green,223,TRUE
786,1660021770.062,3843,1868,3350,0.986,-1.398,-0.091,88.5,blue,223,TRUE
787,1660021770.165,4126,2077,750,1.271,-1.412,0.952,93.3,red,223,TRUE
788,1660021770.27,3094,-3230,882,3.871,-1.037,1.637,78.1,yellow,223,TRUE
789,1660021771.64,3824,1865,3350,0.982,-1.403,-0.091,96.5,blue,223,TRUE
790,1660021771.738,4135,2072,750,1.287,-1.408,0.897,86.9,red,223,TRUE
791,1660021771.828,3094,-3230,882,3.89,-1.026,1.635,73.7,yellow,223,TRUE
792,1660021774.277,3844,1862,3350,0.972,-1.405,-0.085,96.8,blue,223,TRUE
793,1660021774.376,4139,2057,750,1.297,-1.405,0.877,89.9,red,223,TRUE
794,1660021776.871,3839,1852,3350,0.868,-1.479,0.013,97.5,blue,223,TRUE
795,1660021776.971,4144,2061,750,1.269,-1.41,0.886,87.1,red,223,TRUE
796,1660021777.062,3101,-3234,882,3.89,-1.026,1.624,86.8,yellow,223,TRUE
797,1660021777.339,3829,1838,3350,0.647,-1.444,-0.706,95.7,blue,223,TRUE
798,1660021777.436,4158,2065,750,1.277,-1.414,0.845,91.7,red,223,TRUE
799,1660021777.529,3110,-3232,882,3.887,-1.028,1.631,72.8,yellow,223,TRUE
800,1660021778.689,3829,1823,3350,0.627,-1.438,-0.548,90.9,blue,223,TRUE
801,1660021778.781,4166,2067,750,1.245,-1.416,0.82,88.0,red,223,TRUE
802,1660021778.878,3097,-3234,882,3.878,-1.036,1.629,81.9,yellow,223,TRUE
803,1660021779.185,3827,1813,3350,0.699,-1.455,-0.038,92.3,blue,223,TRUE
804,1660021779.29,4189,2054,750,1.253,-1.415,0.836,92.2,red,223,TRUE
805,1660021779.382,3079,-3241,882,3.878,-1.036,1.629,75.7,yellow,223,TRUE
806,1660021779.561,3827,1806,3350,0.75,-1.446,-0.236,93.4,blue,223,TRUE
807,1660021779.667,4224,2056,750,1.272,-1.415,0.806,92.1,red,223,TRUE
808,1660021779.76,3076,-3245,882,3.878,-1.036,1.629,73.8,yellow,223,TRUE
809,1660021779.956,3812,1803,3350,0.752,-1.449,-0.229,90.3,blue,223,TRUE
810,1660021780.047,4244,2057,750,1.28,-1.415,0.755,90.1,red,223,TRUE
811,1660021780.139,3072,-3244,882,3.878,-1.036,1.629,73.2,yellow,223,TRUE
812,1660021781.39,3816,1809,3350,0.798,-1.383,-0.19,92.2,blue,223,TRUE
813,1660021781.484,4268,2061,750,1.298,-1.418,0.77,90.5,red,223,TRUE
814,1660021781.584,3071,-3248,882,3.878,-1.036,1.629,80.5,yellow,223,TRUE
815,1660021782.873,3806,1816,3350,0.954,-1.452,0.021,89.3,blue,223,TRUE
816,1660021782.964,4265,2051,750,1.368,-1.402,0.676,89.9,red,223,TRUE
817,1660021783.063,3072,-3256,882,3.878,-1.036,1.629,78.8,yellow,223,TRUE
818,1660021783.387,3806,1798,3350,0.906,-1.407,-0.19,89.3,blue,223,TRUE
819,1660021783.477,4252,2030,750,1.481,-1.401,0.815,91.1,red,223,TRUE
820,1660021783.571,3068,-3253,882,3.878,-1.036,1.629,86.5,yellow,223,TRUE
821,1660021784.79,3770,1805,3350,1.061,-1.458,-0.011,88.5,blue,223,TRUE
822,1660021784.88,4260,2010,750,1.529,-1.394,0.887,91.0,red,223,TRUE
823,1660021785.318,3769,1806,3350,1.033,-1.461,-0.012,92.1,blue,223,TRUE
824,1660021785.411,4234,1999,750,1.614,-1.39,0.813,91.1,red,223,TRUE
825,1660021785.502,3073,-3246,882,3.878,-1.036,1.629,75.7,yellow,223,TRUE
826,1660021786.707,3740,1791,3350,0.839,-1.453,-0.055,92.1,blue,223,TRUE
827,1660021786.8,4230,1999,750,1.427,-1.397,0.767,87.7,red,223,TRUE
828,1660021786.895,3057,-3243,882,3.878,-1.036,1.629,85.5,yellow,223,TRUE
829,1660021787.205,3773,1795,3350,0.873,-1.445,-0.425,93.3,blue,223,TRUE
830,1660021787.311,4232,1980,750,1.366,-1.356,0.664,93.4,red,223,TRUE
831,1660021787.405,3038,-3246,882,3.878,-1.036,1.629,72.7,yellow,223,TRUE
832,1660021787.582,3759,1794,3350,0.966,-1.426,-0.229,92.3,blue,223,TRUE
833,1660021787.687,4221,1965,750,1.391,-1.34,0.713,93.5,red,223,TRUE
834,1660021787.782,3028,-3243,882,3.878,-1.036,1.629,73.4,yellow,223,TRUE
835,1660021787.947,3754,1783,3350,0.978,-1.424,-0.276,88.6,blue,223,TRUE
836,1660021788.049,4257,1957,750,1.389,-1.325,0.773,92.7,red,223,TRUE
