,timestamp,x,y,z,yaw,roll,pitch,latency,student,session,success
0,1660086620.665,1676,-92,3350,5.077,-1.182,0.585,83.1,blue,225,TRUE
1,1660086620.75,1012,-870,750,5.395,-1.319,0.371,89.8,red,225,TRUE
2,1660086622.061,3543,-2885,2526,4.803,-1.289,-0.314,76.1,green,225,TRUE
3,1660086622.288,1864,184,3350,4.936,-1.142,0.603,89.7,blue,225,TRUE
4,1660086622.381,1199,-507,750,5.304,-1.252,0.756,87.1,red,225,TRUE
5,1660086623.61,3560,-2891,2526,4.799,-1.276,-0.317,91.4,green,225,TRUE
6,1660086623.851,1981,421,3350,4.376,-1.066,0.663,91.8,blue,225,TRUE
7,1660086623.955,1355,-201,750,4.345,-1.369,1.093,90.9,red,225,TRUE
8,1660086625.208,3616,-2919,2526,4.805,-1.287,-0.303,76.0,green,225,TRUE
9,1660086626.504,2013,528,3350,3.57,-1.148,0.736,90.7,blue,225,TRUE
10,1660086626.595,1350,29,750,3.788,-1.536,0.009,90.7,red,225,TRUE
11,1660086626.717,3014,-2659,882,5.322,-0.094,0.028,89.4,yellow,225,TRUE
12,1660086626.808,3552,-2878,2526,4.953,-1.426,2.463,88.9,green,225,TRUE
13,1660086627.08,2116,786,3350,3.648,-1.157,0.68,90.1,blue,225,TRUE
14,1660086627.173,1330,224,750,4.36,-1.403,1.391,86.8,red,225,TRUE
15,1660086630.806,2304,1132,3350,5.295,-1.189,0.542,97.7,blue,225,TRUE
16,1660086630.905,1489,578,750,6.142,-1.297,0.958,87.5,red,225,TRUE
17,1660086630.999,3009,-2655,882,5.328,-0.156,0.016,116.3,yellow,225,TRUE
18,1660086631.116,3551,-2916,2526,4.673,-1.188,-0.424,75.5,green,225,TRUE
19,1660086631.357,2522,1477,3350,4.924,-1.168,0.454,90.9,blue,225,TRUE
20,1660086631.45,1626,964,750,5.806,-1.312,0.766,88.5,red,225,TRUE
21,1660086631.54,2989,-2652,882,5.335,-0.157,0.014,87.9,yellow,225,TRUE
22,1660086631.629,3571,-2938,2526,4.671,-1.156,-0.397,91.2,green,225,TRUE
23,1660086632.867,2633,1842,3350,4.488,-1.174,0.657,89.2,blue,225,TRUE
24,1660086632.965,1743,1279,750,5.01,-1.259,0.798,96.7,red,225,TRUE
25,1660086636.541,2686,2098,3350,4.072,-1.214,0.673,97.7,blue,225,TRUE
26,1660086636.64,1807,1513,750,4.579,-1.257,0.684,87.4,red,225,TRUE
27,1660086636.735,3040,-2674,882,5.334,-0.074,0.0,82.7,yellow,225,TRUE
28,1660086636.819,3632,-2945,2526,4.683,-1.106,-0.301,87.8,green,225,TRUE
29,1660086638.165,2723,2346,3350,4.114,-1.202,0.665,90.8,blue,225,TRUE
30,1660086638.258,1827,1693,750,4.35,-1.347,0.587,86.7,red,225,TRUE
31,1660086638.35,3054,-2681,882,5.315,-0.084,0.031,84.8,yellow,225,TRUE
32,1660086638.439,3659,-2941,2526,4.687,-1.088,-0.272,84.8,green,225,TRUE
33,1660086638.691,2731,2509,3350,4.116,-1.2,0.662,87.3,blue,225,TRUE
34,1660086638.78,1825,1897,750,4.542,-1.305,0.812,90.2,red,225,TRUE
35,1660086638.884,3043,-2672,882,5.315,-0.076,0.028,91.8,yellow,225,TRUE
36,1660086638.977,3693,-2923,2526,4.692,-1.089,-0.272,87.7,green,225,TRUE
37,1660086640.281,2717,2661,3350,3.844,-1.359,1.105,89.7,blue,225,TRUE
38,1660086640.371,1827,2036,750,4.565,-1.347,0.849,88.8,red,225,TRUE
39,1660086640.467,3042,-2661,882,5.324,-0.103,0.013,82.8,yellow,225,TRUE
40,1660086640.551,3689,-2912,2526,4.688,-1.079,-0.269,88.8,green,225,TRUE
41,1660086641.882,2671,2771,3350,3.803,-1.316,0.639,89.8,blue,225,TRUE
42,1660086641.973,1841,2108,750,4.216,-1.368,0.293,88.8,red,225,TRUE
43,1660086642.068,3022,-2648,882,5.328,-0.015,0.019,83.8,yellow,225,TRUE
44,1660086642.154,3692,-2888,2526,4.746,-0.717,-0.06,87.8,green,225,TRUE
45,1660086643.487,2554,2822,3350,3.672,-1.268,0.513,88.8,blue,225,TRUE
46,1660086643.579,1837,2154,750,4.13,-1.366,0.071,86.8,red,225,TRUE
47,1660086643.672,3034,-2645,882,5.316,0.014,0.022,82.8,yellow,225,TRUE
48,1660086645.065,2501,2877,3350,3.734,-1.203,0.567,85.1,blue,225,TRUE
49,1660086645.154,1875,2254,750,4.103,-1.382,-0.01,85.6,red,225,TRUE
50,1660086645.24,3043,-2638,882,5.321,0.013,0.01,88.8,yellow,225,TRUE
51,1660086645.33,3686,-2882,2526,4.745,-0.801,-0.125,73.8,green,225,TRUE
52,1660086645.503,2511,3022,3350,3.735,-1.204,0.566,96.2,blue,225,TRUE
53,1660086645.603,2078,2398,750,4.088,-1.389,-0.026,87.5,red,225,TRUE
54,1660086645.691,3048,-2630,882,5.321,0.034,0.011,91.2,yellow,225,TRUE
55,1660086645.795,3687,-2880,2526,4.735,-0.797,-0.147,93.3,green,225,TRUE
56,1660086645.994,2537,3158,3350,3.738,-1.208,0.569,90.4,blue,225,TRUE
57,1660086646.088,2280,2585,750,4.085,-1.378,-0.013,86.0,red,225,TRUE
58,1660086646.175,3031,-2615,882,5.321,0.053,0.017,91.0,yellow,225,TRUE
59,1660086646.277,3583,-2884,2526,4.744,-0.808,-0.11,95.1,green,225,TRUE
60,1660086646.523,2515,3227,3350,3.732,-1.201,0.552,92.7,blue,225,TRUE
61,1660086646.616,2345,2661,750,4.095,-1.376,0.057,90.3,red,225,TRUE
62,1660086646.709,3046,-2621,882,5.32,0.017,0.029,87.0,yellow,225,TRUE
63,1660086646.797,3617,-2892,2526,4.763,-0.83,-0.097,90.9,green,225,TRUE
64,1660086646.997,2485,3311,3350,3.713,-1.201,0.519,87.8,blue,225,TRUE
65,1660086647.087,2377,2711,750,4.097,-1.376,0.089,90.6,red,225,TRUE
66,1660086647.179,3035,-2607,882,5.32,0.015,0.009,86.9,yellow,225,TRUE
67,1660086647.279,3608,-2894,2526,4.777,-0.87,-0.063,91.9,green,225,TRUE
68,1660086647.464,2475,3308,3350,3.721,-1.213,0.521,87.3,blue,225,TRUE
69,1660086647.554,2400,2794,750,4.169,-1.374,0.155,89.5,red,225,TRUE
70,1660086647.644,3037,-2609,882,5.318,0.008,0.017,89.0,yellow,225,TRUE
71,1660086647.735,3582,-2888,2526,4.773,-0.86,-0.08,89.5,green,225,TRUE
72,1660086647.987,2470,3352,3350,3.738,-1.202,0.514,95.1,blue,225,TRUE
73,1660086648.083,2483,2869,750,4.16,-1.38,0.057,75.1,red,225,TRUE
74,1660086648.161,3001,-2589,882,5.316,0.0,0.001,88.0,yellow,225,TRUE
75,1660086649.463,2441,3362,3350,3.754,-1.19,0.519,95.2,blue,225,TRUE
76,1660086649.561,2473,2862,750,4.145,-1.367,0.116,87.4,red,225,TRUE
77,1660086649.648,2990,-2579,882,5.318,0.033,0.002,89.7,yellow,225,TRUE
78,1660086650.982,2432,3390,3350,3.754,-1.187,0.515,97.2,blue,225,TRUE
79,1660086651.081,2522,2900,750,4.143,-1.336,0.136,88.8,red,225,TRUE
80,1660086651.17,2967,-2567,882,5.319,0.015,-0.002,90.5,yellow,225,TRUE
81,1660086653.602,2416,3414,3350,3.766,-1.193,0.533,84.8,blue,225,TRUE
82,1660086653.688,2599,2962,750,3.956,-1.398,0.025,73.9,red,225,TRUE
83,1660086653.901,3663,-2870,2526,4.753,-0.849,-0.096,89.0,green,225,TRUE
84,1660086654.159,2382,3423,3350,3.766,-1.191,0.53,87.6,blue,225,TRUE
85,1660086654.246,2618,2955,750,4.021,-1.404,0.028,89.7,red,225,TRUE
86,1660086654.339,2955,-2560,882,5.319,0.024,-0.001,88.6,yellow,225,TRUE
87,1660086654.429,3665,-2867,2526,4.753,-0.846,-0.095,88.0,green,225,TRUE
88,1660086655.683,2400,3458,3350,3.749,-1.18,0.511,87.4,blue,225,TRUE
89,1660086655.771,2633,2929,750,5.022,-1.345,0.424,89.0,red,225,TRUE
90,1660086655.866,2954,-2562,882,5.319,0.049,0.0,86.7,yellow,225,TRUE
91,1660086655.955,3641,-2874,2526,4.755,-0.842,-0.088,86.8,green,225,TRUE
92,1660086656.21,2385,3474,3350,3.71,-1.166,0.477,86.8,blue,225,TRUE
93,1660086656.298,2615,2891,750,4.83,-1.356,0.256,89.6,red,225,TRUE
94,1660086656.389,2954,-2562,882,5.319,0.053,0.0,90.0,yellow,225,TRUE
95,1660086656.48,3647,-2871,2526,4.755,-0.842,-0.087,89.5,green,225,TRUE
96,1660086656.737,2374,3490,3350,3.707,-1.158,0.468,87.7,blue,225,TRUE
97,1660086656.826,2609,2880,750,4.709,-1.241,0.506,89.9,red,225,TRUE
98,1660086656.929,2953,-2562,882,5.319,0.038,-0.002,93.1,yellow,225,TRUE
99,1660086657.023,3638,-2860,2526,4.755,-0.841,-0.087,89.0,green,225,TRUE
100,1660086657.294,2386,3545,3350,3.71,-1.169,0.487,89.8,blue,225,TRUE
101,1660086657.385,2594,2847,750,4.242,-1.262,0.473,89.5,red,225,TRUE
102,1660086657.475,2951,-2560,882,5.319,0.029,-0.003,88.1,yellow,225,TRUE
103,1660086657.566,3641,-2848,2526,4.755,-0.841,-0.087,90.1,green,225,TRUE
104,1660086657.823,2384,3562,3350,3.714,-1.182,0.503,89.9,blue,225,TRUE
105,1660086657.927,2569,2775,750,3.99,-1.325,0.434,92.0,red,225,TRUE
106,1660086658.02,2949,-2556,882,5.319,0.033,-0.004,88.5,yellow,225,TRUE
107,1660086658.11,3584,-2864,2526,4.755,-0.842,-0.088,74.8,green,225,TRUE
108,1660086658.362,2383,3576,3350,3.718,-1.181,0.5,90.8,blue,225,TRUE
109,1660086658.454,2559,2737,750,4.289,-1.268,0.624,88.8,red,225,TRUE
110,1660086658.544,2942,-2553,882,5.32,0.063,-0.003,88.7,yellow,225,TRUE
111,1660086658.636,3663,-2843,2526,4.756,-0.845,-0.088,85.8,green,225,TRUE
112,1660086658.903,2383,3582,3350,3.714,-1.176,0.491,94.0,blue,225,TRUE
113,1660086658.997,2522,2627,750,4.449,-1.225,0.673,89.6,red,225,TRUE
114,1660086659.087,2945,-2557,882,5.318,0.057,-0.001,90.2,yellow,225,TRUE
115,1660086659.18,3679,-2853,2526,4.761,-0.843,-0.069,89.0,green,225,TRUE
116,1660086659.452,2383,3586,3350,3.69,-1.164,0.461,88.5,blue,225,TRUE
117,1660086659.542,2442,2534,750,4.456,-1.21,0.7,88.7,red,225,TRUE
118,1660086659.634,2951,-2548,882,5.306,-0.081,-0.079,88.5,yellow,225,TRUE
119,1660086659.725,3712,-2862,2526,4.76,-0.846,-0.069,102.5,green,225,TRUE
120,1660086661.005,2400,3592,3350,3.668,-1.144,0.532,88.3,blue,225,TRUE
121,1660086661.094,2449,2519,750,4.384,-1.213,0.684,89.5,red,225,TRUE
122,1660086661.192,3008,-2566,882,5.34,-0.107,-0.351,96.9,yellow,225,TRUE
123,1660086661.291,3736,-2851,2526,4.76,-0.844,-0.069,103.4,green,225,TRUE
124,1660086661.593,2410,3580,3350,3.772,-1.16,0.614,88.5,blue,225,TRUE
125,1660086661.685,2398,2454,750,4.201,-1.259,0.723,88.0,red,225,TRUE
126,1660086661.774,3065,-2583,882,5.342,-0.112,-0.353,87.8,yellow,225,TRUE
127,1660086661.876,3697,-2864,2526,4.761,-0.843,-0.075,93.6,green,225,TRUE
128,1660086662.166,2379,3530,3350,3.685,-1.204,0.559,90.0,blue,225,TRUE
129,1660086662.259,2274,2294,750,3.827,-1.227,0.357,86.6,red,225,TRUE
130,1660086662.346,3088,-2581,882,5.349,-0.117,-0.353,90.7,yellow,225,TRUE
131,1660086663.788,2399,3503,3350,3.636,-1.218,0.478,96.5,blue,225,TRUE
132,1660086663.886,2279,2245,750,3.742,-1.246,0.449,74.6,red,225,TRUE
133,1660086663.974,3140,-2588,882,5.348,-0.086,-0.331,91.2,yellow,225,TRUE
134,1660086665.371,2417,3444,3350,3.548,-1.215,0.69,97.1,blue,225,TRUE
135,1660086665.469,2315,2260,750,3.711,-1.213,0.398,73.5,red,225,TRUE
136,1660086665.544,3176,-2597,882,5.307,-0.076,-0.302,90.0,yellow,225,TRUE
137,1660086665.637,3643,-2911,2526,4.763,-0.838,-0.079,87.6,green,225,TRUE
138,1660086666.929,2448,3393,3350,4.072,-1.191,0.678,90.4,blue,225,TRUE
139,1660086667.021,2377,2281,750,3.675,-1.229,0.363,75.1,red,225,TRUE
140,1660086667.205,3641,-2917,2526,4.758,-0.833,-0.085,86.1,green,225,TRUE
141,1660086668.471,2484,3353,3350,3.982,-1.251,0.757,89.5,blue,225,TRUE
142,1660086668.561,2434,2288,750,3.676,-1.244,0.358,75.7,red,225,TRUE
143,1660086668.645,3268,-2626,882,5.331,-0.116,-0.321,81.8,yellow,225,TRUE
144,1660086671.057,2521,3394,3350,4.031,-1.266,0.764,84.8,blue,225,TRUE
145,1660086671.143,2488,2307,750,3.677,-1.26,0.379,75.0,red,225,TRUE
146,1660086672.382,3547,-2957,2526,4.816,-0.93,0.068,75.3,green,225,TRUE
147,1660086672.609,2499,3424,3350,3.98,-1.191,0.745,91.4,blue,225,TRUE
148,1660086672.706,2531,2332,750,3.682,-1.222,0.364,85.3,red,225,TRUE
149,1660086673.937,3612,-2941,2526,4.803,-0.917,0.067,90.3,green,225,TRUE
150,1660086674.243,2437,3460,3350,3.787,-1.216,0.714,87.9,blue,225,TRUE
151,1660086674.332,2538,2322,750,3.725,-1.254,0.396,88.6,red,225,TRUE
152,1660086675.593,3632,-2945,2526,4.79,-0.93,0.033,92.9,green,225,TRUE
153,1660086675.867,2338,3497,3350,3.103,-1.304,0.526,86.4,blue,225,TRUE
154,1660086675.955,2506,2284,750,3.81,-1.18,0.388,88.7,red,225,TRUE
155,1660086679.365,2324,3513,3350,1.541,-1.222,0.477,86.8,blue,225,TRUE
156,1660086679.455,2535,2305,750,3.875,-1.222,0.533,85.4,red,225,TRUE
157,1660086679.548,3281,-2644,882,5.329,0.008,-0.256,83.9,yellow,225,TRUE
158,1660086680.904,2320,3550,3350,2.031,-1.181,0.539,96.1,blue,225,TRUE
159,1660086681.002,2537,2323,750,3.836,-1.256,0.521,88.0,red,225,TRUE
160,1660086681.091,3307,-2662,882,5.327,0.044,-0.237,90.4,yellow,225,TRUE
161,1660086681.182,3633,-2928,2526,4.768,-0.837,-0.08,90.0,green,225,TRUE
162,1660086681.45,2308,3599,3350,2.26,-1.18,0.616,92.4,blue,225,TRUE
163,1660086681.544,2549,2302,750,3.839,-1.232,0.484,91.3,red,225,TRUE
164,1660086681.635,3314,-2679,882,5.327,0.031,-0.244,89.6,yellow,225,TRUE
165,1660086681.727,3641,-2920,2526,4.768,-0.837,-0.08,88.2,green,225,TRUE
166,1660086681.996,2293,3669,3350,2.236,-1.218,0.626,91.9,blue,225,TRUE
167,1660086682.089,2617,2391,750,3.841,-1.22,0.48,91.2,red,225,TRUE
168,1660086682.18,3267,-2745,882,5.325,0.023,-0.248,91.8,yellow,225,TRUE
169,1660086682.275,3650,-2916,2526,4.768,-0.838,-0.08,86.6,green,225,TRUE
170,1660086682.542,2288,3702,3350,2.231,-1.213,0.616,90.8,blue,225,TRUE
171,1660086682.634,2569,2375,750,3.842,-1.213,0.468,89.4,red,225,TRUE
172,1660086682.727,3221,-2752,882,5.325,0.032,-0.242,87.5,yellow,225,TRUE
173,1660086682.819,3694,-2895,2526,4.769,-0.838,-0.076,85.2,green,225,TRUE
174,1660086684.173,2261,3729,3350,2.235,-1.233,0.665,91.4,blue,225,TRUE
175,1660086684.266,2513,2352,750,3.805,-1.254,0.482,89.7,red,225,TRUE
176,1660086684.365,3181,-2754,882,5.329,0.045,-0.236,96.0,yellow,225,TRUE
177,1660086685.77,2243,3792,3350,2.091,-1.286,0.791,94.5,blue,225,TRUE
178,1660086685.867,2452,2330,750,3.816,-1.22,0.497,91.2,red,225,TRUE
179,1660086685.969,3183,-2773,882,5.329,-0.013,-0.266,91.4,yellow,225,TRUE
180,1660086686.062,3700,-2898,2526,4.767,-0.851,-0.046,90.9,green,225,TRUE
181,1660086686.336,2188,3860,3350,1.856,-1.407,0.872,88.5,blue,225,TRUE
182,1660086686.437,2390,2304,750,3.812,-1.227,0.513,91.6,red,225,TRUE
183,1660086686.53,3145,-2786,882,5.306,0.044,-0.217,89.9,yellow,225,TRUE
184,1660086686.621,3708,-2902,2526,4.766,-0.856,-0.047,89.8,green,225,TRUE
185,1660086687.967,2157,3815,3350,1.941,-1.348,0.604,88.4,blue,225,TRUE
186,1660086688.056,2310,2243,750,3.844,-1.257,0.633,90.6,red,225,TRUE
187,1660086688.154,3125,-2788,882,5.275,-0.005,-0.242,96.7,yellow,225,TRUE
188,1660086688.254,3715,-2898,2526,4.753,-0.837,-0.075,88.7,green,225,TRUE
189,1660086689.606,2218,3814,3350,2.201,-1.166,0.728,91.4,blue,225,TRUE
190,1660086689.699,2237,2192,750,4.098,-1.203,0.747,90.0,red,225,TRUE
191,1660086689.801,3100,-2792,882,5.274,0.027,-0.22,91.4,yellow,225,TRUE
192,1660086689.895,3741,-2899,2526,4.753,-0.833,-0.077,88.6,green,225,TRUE
193,1660086691.19,2334,3767,3350,2.725,-1.202,0.878,89.9,blue,225,TRUE
194,1660086691.283,2247,2230,750,4.219,-1.217,0.541,87.2,red,225,TRUE
195,1660086691.376,3071,-2780,882,5.274,0.012,-0.231,85.4,yellow,225,TRUE
196,1660086691.463,3819,-2881,2526,4.752,-0.832,-0.076,88.8,green,225,TRUE
197,1660086691.796,2491,3690,3350,3.132,-1.166,0.872,88.0,blue,225,TRUE
198,1660086691.887,2299,2324,750,3.934,-1.235,0.359,87.3,red,225,TRUE
199,1660086691.975,3080,-2792,882,5.275,0.026,-0.223,89.4,yellow,225,TRUE
200,1660086692.066,3821,-2886,2526,4.748,-0.831,-0.083,104.2,green,225,TRUE
201,1660086693.342,2515,3586,3350,3.858,-1.155,0.549,90.2,blue,225,TRUE
202,1660086693.433,2244,2264,750,4.216,-1.245,0.733,90.2,red,225,TRUE
203,1660086693.531,3089,-2788,882,5.275,-0.023,-0.231,96.1,yellow,225,TRUE
204,1660086693.629,3821,-2885,2526,4.748,-0.836,-0.081,87.1,green,225,TRUE
205,1660086693.885,2536,3506,3350,4.05,-1.141,0.638,89.0,blue,225,TRUE
206,1660086693.975,2218,2218,750,4.193,-1.224,0.678,89.4,red,225,TRUE
207,1660086695.151,3817,-2891,2526,4.746,-0.831,-0.079,91.1,green,225,TRUE
208,1660086695.451,2573,3398,3350,4.112,-1.19,0.777,90.8,blue,225,TRUE
209,1660086695.543,2202,2191,750,4.158,-1.227,0.632,90.4,red,225,TRUE
210,1660086695.634,3104,-2782,882,5.267,-0.015,-0.22,89.6,yellow,225,TRUE
211,1660086695.727,3815,-2901,2526,4.746,-0.83,-0.075,87.2,green,225,TRUE
212,1660086695.996,2619,3291,3350,4.114,-1.2,0.791,90.1,blue,225,TRUE
213,1660086696.086,2162,2135,750,4.16,-1.233,0.656,89.7,red,225,TRUE
214,1660086696.177,3128,-2772,882,5.27,-0.019,-0.224,91.8,yellow,225,TRUE
215,1660086696.272,3822,-2902,2526,4.746,-0.831,-0.075,86.1,green,225,TRUE
216,1660086696.57,2624,3218,3350,4.115,-1.198,0.777,90.8,blue,225,TRUE
217,1660086696.662,2121,2077,750,4.153,-1.21,0.624,88.4,red,225,TRUE
218,1660086696.752,3209,-2724,882,5.268,-0.014,-0.215,87.9,yellow,225,TRUE
219,1660086696.841,3828,-2905,2526,4.746,-0.832,-0.075,89.4,green,225,TRUE
220,1660086698.173,2679,3163,3350,4.11,-1.189,0.76,89.2,blue,225,TRUE
221,1660086698.263,2094,2031,750,4.156,-1.202,0.634,89.2,red,225,TRUE
222,1660086698.361,3235,-2708,882,5.271,0.013,-0.219,96.3,yellow,225,TRUE
223,1660086698.459,3829,-2899,2526,4.755,-0.878,-0.061,89.2,green,225,TRUE
224,1660086698.747,2683,3054,3350,4.11,-1.209,0.82,89.4,blue,225,TRUE
225,1660086698.837,2080,1998,750,4.146,-1.222,0.629,90.2,red,225,TRUE
226,1660086698.93,3260,-2705,882,5.283,0.014,-0.231,88.0,yellow,225,TRUE
227,1660086699.019,3830,-2895,2526,4.751,-0.866,-0.061,89.4,green,225,TRUE
228,1660086700.303,2731,2948,3350,4.12,-1.213,0.834,87.7,blue,225,TRUE
229,1660086700.391,2040,1937,750,4.148,-1.192,0.571,91.4,red,225,TRUE
230,1660086700.492,3243,-2691,882,5.273,0.015,-0.221,95.8,yellow,225,TRUE
231,1660086700.589,3831,-2893,2526,4.749,-0.865,-0.051,90.7,green,225,TRUE
232,1660086701.933,2760,2878,3350,4.129,-1.203,0.803,90.1,blue,225,TRUE
233,1660086702.027,2023,1909,750,4.141,-1.212,0.576,82.9,red,225,TRUE
234,1660086702.117,3259,-2677,882,5.27,-0.011,-0.23,85.6,yellow,225,TRUE
235,1660086702.203,3832,-2894,2526,4.749,-0.864,-0.051,89.7,green,225,TRUE
236,1660086702.489,2743,2774,3350,4.132,-1.212,0.83,92.5,blue,225,TRUE
237,1660086702.583,1997,1873,750,4.147,-1.209,0.591,90.2,red,225,TRUE
238,1660086702.673,3269,-2670,882,5.27,-0.008,-0.228,90.6,yellow,225,TRUE
239,1660086702.766,3828,-2893,2526,4.749,-0.865,-0.052,88.7,green,225,TRUE
240,1660086704.058,2713,2704,3350,4.183,-1.212,0.842,90.1,blue,225,TRUE
241,1660086704.149,1929,1778,750,4.469,-1.382,0.92,89.6,red,225,TRUE
242,1660086704.251,3283,-2686,882,5.273,0.019,-0.218,93.6,yellow,225,TRUE
243,1660086704.346,3834,-2888,2526,4.749,-0.861,-0.053,88.4,green,225,TRUE
244,1660086705.664,2682,2662,3350,4.168,-1.208,0.832,89.9,blue,225,TRUE
245,1660086705.757,1858,1665,750,4.428,-1.391,0.752,87.8,red,225,TRUE
246,1660086705.853,3286,-2682,882,5.271,-0.003,-0.227,81.5,yellow,225,TRUE
247,1660086705.936,3848,-2883,2526,4.748,-0.853,-0.053,89.2,green,225,TRUE
248,1660086706.206,2696,2668,3350,4.156,-1.21,0.857,91.0,blue,225,TRUE
249,1660086706.3,1849,1647,750,4.428,-1.385,0.798,87.5,red,225,TRUE
250,1660086706.388,3292,-2673,882,5.272,-0.001,-0.227,90.4,yellow,225,TRUE
251,1660086706.479,3838,-2880,2526,4.748,-0.851,-0.055,88.3,green,225,TRUE
252,1660086706.768,2682,2653,3350,4.14,-1.218,0.911,86.0,blue,225,TRUE
253,1660086706.855,1838,1632,750,4.421,-1.389,0.733,91.9,red,225,TRUE
254,1660086706.95,3307,-2676,882,5.27,-0.021,-0.231,87.2,yellow,225,TRUE
255,1660086707.038,3843,-2871,2526,4.748,-0.854,-0.055,88.8,green,225,TRUE
256,1660086707.296,2670,2671,3350,4.153,-1.222,0.966,88.7,blue,225,TRUE
257,1660086707.397,1854,1661,750,4.583,-1.284,0.766,91.2,red,225,TRUE
258,1660086707.503,3310,-2691,882,5.268,-0.029,-0.236,92.7,yellow,225,TRUE
259,1660086707.597,3842,-2865,2526,4.748,-0.853,-0.053,89.2,green,225,TRUE
260,1660086707.854,2656,2680,3350,4.171,-1.214,0.971,89.1,blue,225,TRUE
261,1660086707.947,1842,1676,750,4.869,-1.251,0.742,88.3,red,225,TRUE
262,1660086708.036,3294,-2692,882,5.267,-0.043,-0.239,88.7,yellow,225,TRUE
263,1660086708.126,3836,-2860,2526,4.748,-0.851,-0.053,90.0,green,225,TRUE
264,1660086709.388,2677,2693,3350,4.236,-1.177,0.921,89.8,blue,225,TRUE
265,1660086709.479,1885,1732,750,5.012,-1.322,0.677,89.0,red,225,TRUE
266,1660086709.69,3830,-2855,2526,4.749,-0.85,-0.052,91.1,green,225,TRUE
267,1660086709.947,2674,2723,3350,4.382,-1.154,0.673,90.7,blue,225,TRUE
268,1660086710.042,1912,1766,750,4.981,-1.301,0.437,85.5,red,225,TRUE
269,1660086710.129,3370,-2742,882,5.27,-0.008,-0.225,90.4,yellow,225,TRUE
270,1660086710.222,3829,-2859,2526,4.758,-0.851,-0.061,88.0,green,225,TRUE
271,1660086710.519,2706,2781,3350,4.631,-1.157,0.686,92.7,blue,225,TRUE
272,1660086710.613,1944,1786,750,5.144,-1.32,0.789,90.8,red,225,TRUE
273,1660086710.705,3374,-2742,882,5.271,-0.027,-0.231,90.1,yellow,225,TRUE
274,1660086710.799,3831,-2862,2526,4.761,-0.852,-0.077,85.6,green,225,TRUE
275,1660086711.081,2746,2839,3350,5.177,-1.211,0.688,89.7,blue,225,TRUE
276,1660086711.171,2012,1886,750,5.609,-1.257,0.807,91.0,red,225,TRUE
277,1660086711.266,3389,-2755,882,5.271,-0.013,-0.223,85.1,yellow,225,TRUE
278,1660086711.352,3849,-2852,2526,4.763,-0.853,-0.075,89.5,green,225,TRUE
279,1660086712.632,2818,2974,3350,5.414,-1.234,0.84,90.4,blue,225,TRUE
280,1660086712.725,2077,2069,750,5.354,-1.296,0.99,88.6,red,225,TRUE
281,1660086712.821,3403,-2769,882,5.273,-0.005,-0.221,97.7,yellow,225,TRUE
282,1660086712.92,3863,-2847,2526,4.763,-0.852,-0.075,89.8,green,225,TRUE
283,1660086713.179,2886,3173,3350,5.447,-1.199,0.796,89.5,blue,225,TRUE
284,1660086713.272,2169,2270,750,4.711,-1.3,0.559,86.5,red,225,TRUE
285,1660086713.359,3415,-2776,882,5.272,-0.023,-0.229,90.8,yellow,225,TRUE
286,1660086713.45,3869,-2844,2526,4.763,-0.852,-0.075,89.1,green,225,TRUE
287,1660086713.725,2931,3385,3350,5.25,-1.256,0.788,87.4,blue,225,TRUE
288,1660086713.814,2236,2495,750,4.814,-1.301,0.994,89.8,red,225,TRUE
289,1660086713.905,3413,-2760,882,5.272,-0.021,-0.226,89.0,yellow,225,TRUE
290,1660086713.995,3880,-2835,2526,4.763,-0.852,-0.075,88.0,green,225,TRUE
291,1660086714.253,2975,3614,3350,5.075,-1.194,0.708,88.3,blue,225,TRUE
292,1660086714.342,2303,2778,750,5.071,-1.266,0.958,89.3,red,225,TRUE
293,1660086714.446,3437,-2774,882,5.273,-0.004,-0.218,91.1,yellow,225,TRUE
294,1660086714.541,3876,-2836,2526,4.765,-0.854,-0.072,88.1,green,225,TRUE
295,1660086714.812,3013,3850,3350,5.232,-1.176,0.716,88.4,blue,225,TRUE
296,1660086714.901,2345,3091,750,4.962,-1.272,0.687,91.3,red,225,TRUE
297,1660086714.993,3448,-2790,882,5.274,0.005,-0.214,89.0,yellow,225,TRUE
298,1660086715.086,3887,-2841,2526,4.765,-0.855,-0.073,86.9,green,225,TRUE
299,1660086715.355,3052,4151,3350,5.093,-1.214,0.688,88.8,blue,225,TRUE
300,1660086715.445,2376,3433,750,5.404,-1.211,0.948,89.2,red,225,TRUE
301,1660086715.655,3890,-2846,2526,4.765,-0.856,-0.074,91.8,green,225,TRUE
302,1660086715.913,3069,4417,3350,4.908,-1.179,0.639,90.1,blue,225,TRUE
303,1660086716.006,2359,3738,750,5.335,-1.242,0.661,86.9,red,225,TRUE
304,1660086716.095,3500,-2798,882,5.273,-0.016,-0.224,90.1,yellow,225,TRUE
305,1660086716.185,3901,-2847,2526,4.765,-0.857,-0.074,89.6,green,225,TRUE
306,1660086716.453,3084,4738,3350,5.082,-1.19,0.759,78.0,blue,225,TRUE
307,1660086716.542,2404,4091,750,5.09,-1.284,0.451,95.5,red,225,TRUE
308,1660086716.638,3524,-2803,882,5.274,-0.014,-0.221,90.6,yellow,225,TRUE
309,1660086716.732,3915,-2841,2526,4.766,-0.856,-0.075,85.5,green,225,TRUE
310,1660086718.024,3063,5075,3350,4.234,-1.249,0.705,90.9,blue,225,TRUE
311,1660086718.117,2356,4415,750,5.027,-1.456,3.035,87.5,red,225,TRUE
312,1660086718.213,3455,-2771,882,5.274,-0.001,-0.211,99.2,yellow,225,TRUE
313,1660086718.316,3946,-2833,2526,4.767,-0.854,-0.075,85.1,green,225,TRUE
314,1660086718.613,3028,5380,3350,4.3,-1.242,0.743,89.8,blue,225,TRUE
315,1660086718.704,2343,4789,750,5.034,-1.473,3.049,88.8,red,225,TRUE
316,1660086718.794,3426,-2750,882,5.272,-0.029,-0.218,88.9,yellow,225,TRUE
317,1660086718.884,3963,-2830,2526,4.767,-0.852,-0.076,90.0,green,225,TRUE
318,1660086719.155,2981,5669,3350,4.331,-1.257,0.794,89.5,blue,225,TRUE
319,1660086719.248,2318,5160,750,5.063,-1.47,3.043,87.0,red,225,TRUE
320,1660086719.336,3388,-2728,882,5.271,-0.016,-0.213,89.3,yellow,225,TRUE
321,1660086719.439,3974,-2827,2526,4.768,-0.854,-0.075,92.7,green,225,TRUE
322,1660086719.713,2915,5952,3350,4.319,-1.261,0.813,89.0,blue,225,TRUE
323,1660086719.805,2287,5472,750,5.058,-1.49,3.063,87.7,red,225,TRUE
324,1660086719.895,3352,-2700,882,5.271,-0.003,-0.205,88.3,yellow,225,TRUE
325,1660086719.984,3983,-2826,2526,4.768,-0.857,-0.075,88.5,green,225,TRUE
326,1660086720.255,2812,6168,3350,4.304,-1.276,0.842,90.7,blue,225,TRUE
327,1660086720.346,2253,5702,750,5.035,-1.503,3.074,90.6,red,225,TRUE
328,1660086720.449,3344,-2702,882,5.264,-0.048,-0.23,92.6,yellow,225,TRUE
329,1660086720.543,3991,-2821,2526,4.768,-0.857,-0.075,88.6,green,225,TRUE
330,1660086720.813,2722,6297,3350,4.302,-1.268,0.791,87.6,blue,225,TRUE
331,1660086720.902,2197,5915,750,5.027,-1.488,3.061,89.1,red,225,TRUE
332,1660086723.324,2658,6437,3350,4.308,-1.224,0.683,86.1,blue,225,TRUE
333,1660086723.412,2158,6105,750,4.79,-1.456,0.105,89.9,red,225,TRUE
334,1660086723.514,3330,-2714,882,5.265,-0.027,-0.238,77.3,yellow,225,TRUE
335,1660086723.593,3972,-2824,2526,4.776,-0.927,-0.016,90.5,green,225,TRUE
336,1660086724.844,2586,6549,3350,4.309,-1.221,0.683,89.0,blue,225,TRUE
337,1660086724.934,2142,6265,750,4.829,-1.445,0.83,90.4,red,225,TRUE
338,1660086725.03,3325,-2730,882,5.264,-0.007,-0.226,85.4,yellow,225,TRUE
339,1660086725.119,3995,-2833,2526,4.776,-0.908,-0.019,86.5,green,225,TRUE
340,1660086725.419,2523,6650,3350,4.319,-1.214,0.669,88.4,blue,225,TRUE
341,1660086725.52,2133,6397,750,4.805,-1.463,0.077,93.2,red,225,TRUE
342,1660086725.613,3313,-2736,882,5.264,-0.022,-0.23,74.6,yellow,225,TRUE
343,1660086726.965,2465,6703,3350,4.325,-1.221,0.681,97.4,blue,225,TRUE
344,1660086727.064,2136,6466,750,4.826,-1.453,0.08,90.2,red,225,TRUE
345,1660086727.156,3299,-2744,882,5.265,-0.008,-0.22,72.6,yellow,225,TRUE
346,1660086728.488,2444,6800,3350,4.326,-1.206,0.652,83.0,blue,225,TRUE
347,1660086728.573,2134,6553,750,5.105,-1.487,0.073,88.7,red,225,TRUE
348,1660086728.662,3261,-2725,882,5.263,-0.002,-0.229,90.4,yellow,225,TRUE
349,1660086728.755,3984,-2823,2526,4.77,-0.865,-0.036,88.6,green,225,TRUE
350,1660086730.08,2464,6873,3350,4.336,-1.206,0.661,89.6,blue,225,TRUE
351,1660086730.169,2105,6590,750,4.765,-1.485,0.038,90.3,red,225,TRUE
352,1660086730.272,3245,-2739,882,5.263,-0.026,-0.237,91.1,yellow,225,TRUE
353,1660086730.366,3978,-2812,2526,4.77,-0.861,-0.047,87.8,green,225,TRUE
354,1660086730.65,2455,6889,3350,4.364,-1.188,0.631,89.7,blue,225,TRUE
355,1660086730.743,2129,6616,750,4.685,-1.486,0.038,87.9,red,225,TRUE
356,1660086730.832,3231,-2736,882,5.263,-0.013,-0.23,90.0,yellow,225,TRUE
357,1660086730.934,3962,-2798,2526,4.77,-0.861,-0.047,93.3,green,225,TRUE
358,1660086731.199,2497,7034,3350,4.331,-1.203,0.542,86.0,blue,225,TRUE
359,1660086731.288,2116,6604,750,4.953,-1.451,0.085,87.6,red,225,TRUE
360,1660086731.376,3218,-2743,882,5.264,-0.002,-0.224,90.9,yellow,225,TRUE
361,1660086731.48,3942,-2795,2526,4.77,-0.861,-0.047,91.5,green,225,TRUE
362,1660086732.739,2510,7085,3350,4.403,-1.168,0.651,88.0,blue,225,TRUE
363,1660086732.829,2129,6592,750,4.52,-1.449,-2.455,87.3,red,225,TRUE
364,1660086732.924,3245,-2757,882,5.263,-0.025,-0.233,82.7,yellow,225,TRUE
365,1660086733.007,3903,-2795,2526,4.77,-0.861,-0.047,89.4,green,225,TRUE
366,1660086733.282,2524,7121,3350,4.4,-1.163,0.6,86.5,blue,225,TRUE
367,1660086733.37,2140,6604,750,4.517,-1.442,-2.424,88.8,red,225,TRUE
368,1660086733.472,3264,-2787,882,5.264,-0.011,-0.227,77.7,yellow,225,TRUE
369,1660086733.558,3879,-2788,2526,4.77,-0.869,-0.046,94.7,green,225,TRUE
370,1660086734.906,2536,7150,3350,4.252,-1.217,0.616,90.4,blue,225,TRUE
371,1660086734.998,2158,6608,750,4.479,-1.455,-3.053,89.0,red,225,TRUE
372,1660086735.094,3281,-2815,882,5.267,-0.002,-0.218,85.2,yellow,225,TRUE
373,1660086735.181,3899,-2783,2526,4.772,-0.887,-0.056,73.9,green,225,TRUE
374,1660086735.449,2543,7212,3350,4.246,-1.229,0.64,93.4,blue,225,TRUE
375,1660086735.554,2169,6611,750,4.475,-1.463,-3.051,93.6,red,225,TRUE
376,1660086736.721,3883,-2783,2526,4.77,-0.851,-0.055,90.9,green,225,TRUE
377,1660086738.051,2548,7294,3350,4.262,-1.206,0.621,89.5,blue,225,TRUE
378,1660086738.141,2195,6637,750,5.308,-1.48,0.081,88.9,red,225,TRUE
379,1660086738.239,3269,-2813,882,5.267,0.012,-0.22,81.8,yellow,225,TRUE
380,1660086739.694,2567,7363,3350,4.254,-1.187,0.587,90.6,blue,225,TRUE
381,1660086739.786,2215,6684,750,5.476,-1.444,1.069,88.8,red,225,TRUE
382,1660086740.977,3881,-2757,2526,4.77,-0.85,-0.056,89.9,green,225,TRUE
383,1660086741.251,2562,7413,3350,4.222,-1.202,0.595,86.5,blue,225,TRUE
384,1660086741.341,2242,6697,750,5.391,-1.442,0.614,86.8,red,225,TRUE
385,1660086742.499,3864,-2749,2526,4.77,-0.85,-0.057,89.6,green,225,TRUE
386,1660086743.83,2593,7455,3350,4.07,-1.262,0.56,87.0,blue,225,TRUE
387,1660086743.917,2255,6705,750,4.636,-1.491,-3.113,90.8,red,225,TRUE
388,1660086744.016,3266,-2810,882,5.272,0.0,-0.224,81.5,yellow,225,TRUE
389,1660086744.1,3848,-2755,2526,4.769,-0.842,-0.055,89.6,green,225,TRUE
390,1660086745.352,2611,7473,3350,4.074,-1.383,1.895,88.1,blue,225,TRUE
391,1660086745.441,2285,6700,750,4.625,-1.463,3.117,87.8,red,225,TRUE
392,1660086745.535,3270,-2800,882,5.271,-0.002,-0.226,84.2,yellow,225,TRUE
393,1660086747.054,2316,6700,750,4.696,-1.456,3.111,91.4,red,225,TRUE
394,1660086747.145,3274,-2787,882,5.271,-0.016,-0.231,89.0,yellow,225,TRUE
395,1660086749.583,2609,7506,3350,4.071,-1.128,0.588,88.5,blue,225,TRUE
396,1660086749.674,2325,6737,750,4.751,-1.52,3.099,85.8,red,225,TRUE
397,1660086749.771,3293,-2775,882,5.28,-0.079,-0.274,79.2,yellow,225,TRUE
398,1660086751.127,2594,7429,3350,4.024,-1.175,0.628,96.0,blue,225,TRUE
399,1660086751.225,2348,6762,750,4.885,-1.504,0.057,89.6,red,225,TRUE
400,1660086751.318,3287,-2782,882,5.319,-0.149,-0.419,86.5,yellow,225,TRUE
401,1660086751.421,3854,-2765,2526,4.772,-0.821,-0.051,89.8,green,225,TRUE
402,1660086751.694,2621,7453,3350,3.982,-1.211,0.658,88.8,blue,225,TRUE
403,1660086751.786,2339,6782,750,4.92,-1.492,0.065,86.0,red,225,TRUE
404,1660086751.872,3297,-2770,882,5.32,-0.112,-0.317,74.7,yellow,225,TRUE
405,1660086751.961,3802,-2796,2526,4.772,-0.827,-0.051,92.6,green,225,TRUE
406,1660086752.253,2646,7484,3350,3.966,-1.22,0.672,88.0,blue,225,TRUE
407,1660086752.344,2347,6800,750,4.935,-1.489,0.062,88.3,red,225,TRUE
408,1660086752.434,3288,-2765,882,5.351,-0.062,-0.182,89.5,yellow,225,TRUE
409,1660086752.536,3810,-2805,2526,4.777,-0.832,-0.061,91.1,green,225,TRUE
410,1660086752.795,2673,7480,3350,3.973,-1.238,0.713,88.9,blue,225,TRUE
411,1660086752.885,2341,6832,750,4.931,-1.506,0.056,89.8,red,225,TRUE
412,1660086752.976,3302,-2757,882,5.339,-0.085,-0.18,89.5,yellow,225,TRUE
413,1660086753.066,3808,-2820,2526,4.777,-0.834,-0.06,88.1,green,225,TRUE
414,1660086754.337,2701,7481,3350,4.015,-1.197,0.648,88.2,blue,225,TRUE
415,1660086754.426,2330,6848,750,4.936,-1.51,0.051,88.1,red,225,TRUE
416,1660086755.583,3809,-2837,2526,4.775,-0.829,-0.063,88.2,green,225,TRUE
417,1660086755.854,2729,7456,3350,4.021,-1.209,0.684,89.9,blue,225,TRUE
418,1660086755.957,2314,6838,750,4.936,-1.5,0.048,93.4,red,225,TRUE
419,1660086756.062,3294,-2755,882,5.247,-0.031,-0.223,92.1,yellow,225,TRUE
420,1660086756.155,3806,-2832,2526,4.775,-0.826,-0.061,102.8,green,225,TRUE
421,1660086756.441,2745,7452,3350,4.02,-1.193,0.656,89.6,blue,225,TRUE
422,1660086756.545,2293,6797,750,4.933,-1.509,0.045,92.8,red,225,TRUE
423,1660086756.639,3291,-2752,882,5.245,-0.021,-0.219,75.1,yellow,225,TRUE
424,1660086756.714,3771,-2849,2526,4.773,-0.822,-0.061,90.3,green,225,TRUE
425,1660086757.953,2807,7459,3350,4.108,-1.162,0.629,91.2,blue,225,TRUE
426,1660086758.045,2279,6783,750,4.917,-1.525,0.033,87.6,red,225,TRUE
427,1660086758.139,3304,-2744,882,5.244,-0.035,-0.227,87.6,yellow,225,TRUE
428,1660086758.231,3776,-2882,2526,4.773,-0.819,-0.061,114.1,green,225,TRUE
429,1660086759.508,2842,7461,3350,4.122,-1.16,0.528,88.4,blue,225,TRUE
430,1660086759.597,2264,6779,750,4.915,-1.503,0.05,91.3,red,225,TRUE
431,1660086760.766,3761,-2889,2526,4.773,-0.81,-0.059,86.1,green,225,TRUE
432,1660086761.033,2853,7479,3350,4.207,-1.33,1.619,90.1,blue,225,TRUE
433,1660086761.123,2264,6780,750,4.933,-1.514,0.055,90.8,red,225,TRUE
434,1660086761.215,3306,-2741,882,5.25,-0.106,-0.266,89.1,yellow,225,TRUE
435,1660086761.307,3757,-2899,2526,4.772,-0.806,-0.055,86.6,green,225,TRUE
436,1660086761.575,2864,7501,3350,4.081,-1.326,2.022,89.0,blue,225,TRUE
437,1660086761.665,2261,6798,750,4.933,-1.51,0.058,91.8,red,225,TRUE
438,1660086761.759,3306,-2741,882,5.31,-0.154,-0.397,72.8,yellow,225,TRUE
439,1660086761.832,3713,-2911,2526,4.772,-0.802,-0.055,89.9,green,225,TRUE
440,1660086763.131,2890,7521,3350,4.026,-1.317,2.217,90.2,blue,225,TRUE
441,1660086763.223,2268,6779,750,4.913,-1.49,0.058,87.7,red,225,TRUE
442,1660086763.324,3321,-2740,882,5.329,-0.158,-0.478,91.6,yellow,225,TRUE
443,1660086764.735,2884,7520,3350,4.049,-1.31,2.193,97.3,blue,225,TRUE
444,1660086764.837,2269,6775,750,4.876,-1.537,0.026,84.5,red,225,TRUE
445,1660086764.922,3331,-2739,882,5.332,-0.149,-0.47,90.8,yellow,225,TRUE
446,1660086766.352,2873,7502,3350,4.031,-1.309,2.242,92.9,blue,225,TRUE
447,1660086766.45,2275,6773,750,4.878,-1.508,0.026,86.3,red,225,TRUE
448,1660086766.536,3345,-2737,882,5.335,-0.163,-0.481,89.4,yellow,225,TRUE
449,1660086767.89,2887,7508,3350,3.97,-1.362,1.52,81.7,blue,225,TRUE
450,1660086767.974,2250,6757,750,4.873,-1.525,0.029,88.8,red,225,TRUE
451,1660086768.072,3343,-2738,882,5.339,-0.146,-0.472,80.2,yellow,225,TRUE
452,1660086768.169,3746,-2926,2526,4.773,-0.809,-0.059,89.6,green,225,TRUE
453,1660086768.426,2900,7537,3350,3.953,-1.369,1.501,89.0,blue,225,TRUE
454,1660086768.518,2237,6741,750,4.862,-1.545,0.022,86.2,red,225,TRUE
455,1660086768.606,3354,-2732,882,5.34,-0.155,-0.476,88.9,yellow,225,TRUE
456,1660086768.696,3774,-2926,2526,4.771,-0.806,-0.056,87.9,green,225,TRUE
457,1660086768.963,2912,7548,3350,3.954,-1.373,1.731,76.8,blue,225,TRUE
458,1660086769.054,2233,6733,750,4.863,-1.533,0.022,91.9,red,225,TRUE
459,1660086769.147,3357,-2734,882,5.341,-0.161,-0.48,76.0,yellow,225,TRUE
460,1660086769.224,3729,-2944,2526,4.771,-0.805,-0.056,88.9,green,225,TRUE
461,1660086769.48,2920,7549,3350,3.955,-1.37,1.809,88.4,blue,225,TRUE
462,1660086769.568,2227,6737,750,4.864,-1.512,0.027,90.2,red,225,TRUE
463,1660086769.659,3379,-2750,882,5.342,-0.161,-0.482,89.3,yellow,225,TRUE
464,1660086769.749,3723,-2947,2526,4.771,-0.803,-0.056,105.3,green,225,TRUE
465,1660086770.032,2930,7554,3350,3.98,-1.361,1.619,77.9,blue,225,TRUE
466,1660086770.11,2221,6737,750,4.878,-1.496,0.036,90.5,red,225,TRUE
467,1660086771.277,3696,-2942,2526,4.773,-0.802,-0.059,86.8,green,225,TRUE
468,1660086771.546,2880,7600,3350,4.091,-1.169,0.662,87.3,blue,225,TRUE
469,1660086771.634,2204,6725,750,5.027,-1.442,0.644,89.4,red,225,TRUE
470,1660086771.724,3367,-2749,882,5.349,-0.179,-0.478,89.0,yellow,225,TRUE
471,1660086771.816,3666,-2953,2526,4.773,-0.802,-0.059,89.6,green,225,TRUE
472,1660086772.103,2849,7581,3350,4.244,-1.187,0.784,90.5,blue,225,TRUE
473,1660086772.194,2219,6752,750,5.095,-1.484,0.035,91.1,red,225,TRUE
474,1660086772.288,3380,-2739,882,5.347,-0.173,-0.467,86.6,yellow,225,TRUE
475,1660086772.375,3701,-2939,2526,4.773,-0.801,-0.059,105.5,green,225,TRUE
476,1660086773.656,2854,7562,3350,4.169,-1.208,0.662,90.4,blue,225,TRUE
477,1660086773.747,2243,6757,750,5.955,-1.47,0.096,89.1,red,225,TRUE
478,1660086773.848,3403,-2721,882,5.352,-0.171,-0.468,95.4,yellow,225,TRUE
479,1660086773.944,3665,-2948,2526,4.776,-0.822,-0.07,89.6,green,225,TRUE
480,1660086774.26,2866,7523,3350,4.127,-1.224,0.665,91.1,blue,225,TRUE
481,1660086774.354,2266,6755,750,5.508,-1.537,0.033,86.6,red,225,TRUE
482,1660086774.442,3416,-2701,882,5.354,-0.173,-0.471,90.8,yellow,225,TRUE
483,1660086774.535,3608,-2964,2526,4.775,-0.806,-0.063,91.1,green,225,TRUE
484,1660086775.816,2861,7508,3350,4.158,-1.235,0.769,86.0,blue,225,TRUE
485,1660086775.902,2279,6765,750,5.109,-1.306,3.011,90.6,red,225,TRUE
486,1660086776.0,3440,-2691,882,5.352,-0.158,-0.452,82.6,yellow,225,TRUE
487,1660086776.083,3588,-2969,2526,4.796,-0.897,-0.069,89.7,green,225,TRUE
488,1660086777.384,2899,7508,3350,2.681,-1.21,0.395,89.1,blue,225,TRUE
489,1660086777.474,2280,6775,750,5.165,-1.472,3.051,88.6,red,225,TRUE
490,1660086777.571,3449,-2675,882,5.347,-0.145,-0.428,83.3,yellow,225,TRUE
491,1660086777.656,3624,-2959,2526,4.799,-0.894,-0.058,88.7,green,225,TRUE
492,1660086778.908,2963,7513,3350,2.109,-1.15,0.626,89.5,blue,225,TRUE
493,1660086778.998,2334,6765,750,1.11,-1.268,2.136,90.4,red,225,TRUE
494,1660086779.095,3428,-2672,882,5.296,-0.058,-0.328,80.7,yellow,225,TRUE
495,1660086779.178,3615,-2952,2526,4.794,-0.868,-0.06,89.6,green,225,TRUE
496,1660086779.465,3013,7470,3350,1.794,-1.203,0.591,89.3,blue,225,TRUE
497,1660086779.558,2384,6735,750,1.146,-1.412,2.082,86.3,red,225,TRUE
498,1660086779.645,3433,-2680,882,5.301,-0.063,-0.346,90.7,yellow,225,TRUE
499,1660086779.736,3570,-2955,2526,4.792,-0.857,-0.057,91.3,green,225,TRUE
500,1660086780.035,3063,7408,3350,1.77,-1.23,0.598,91.0,blue,225,TRUE
501,1660086780.127,2457,6677,750,1.367,-1.373,1.957,90.4,red,225,TRUE
502,1660086780.219,3437,-2681,882,5.299,-0.045,-0.337,90.1,yellow,225,TRUE
503,1660086780.312,3571,-2941,2526,4.791,-0.853,-0.056,87.2,green,225,TRUE
504,1660086780.583,3127,7336,3350,2.049,-1.193,0.635,87.1,blue,225,TRUE
505,1660086780.671,2549,6623,750,1.276,-1.354,2.003,89.1,red,225,TRUE
506,1660086780.761,3422,-2675,882,5.294,-0.032,-0.334,105.6,yellow,225,TRUE
507,1660086780.87,3553,-2933,2526,4.789,-0.848,-0.061,88.0,green,225,TRUE
508,1660086781.139,3191,7228,3350,1.851,-1.23,0.626,89.6,blue,225,TRUE
509,1660086781.229,2644,6540,750,0.611,-1.534,3.106,89.5,red,225,TRUE
510,1660086782.394,3543,-2927,2526,4.79,-0.837,-0.058,88.4,green,225,TRUE
511,1660086782.679,3255,7133,3350,1.163,-1.145,0.651,89.9,blue,225,TRUE
512,1660086782.77,2776,6444,750,0.088,-1.537,-3.127,89.8,red,225,TRUE
513,1660086782.863,3414,-2665,882,5.297,-0.046,-0.337,86.8,yellow,225,TRUE
514,1660086782.951,3560,-2924,2526,4.791,-0.834,-0.053,90.1,green,225,TRUE
515,1660086783.223,3386,6989,3350,1.187,-1.142,0.658,88.9,blue,225,TRUE
516,1660086783.314,2907,6363,750,0.276,-1.491,3.063,88.9,red,225,TRUE
517,1660086785.75,3479,6897,3350,1.162,-1.206,0.589,95.1,blue,225,TRUE
518,1660086785.849,3031,6259,750,0.561,-1.458,0.099,86.3,red,225,TRUE
519,1660086785.936,3393,-2645,882,5.309,-0.029,-0.329,90.1,yellow,225,TRUE
520,1660086786.039,3545,-2922,2526,4.789,-0.828,-0.05,107.6,green,225,TRUE
521,1660086786.332,3595,6885,3350,1.149,-1.235,0.662,88.0,blue,225,TRUE
522,1660086786.422,3125,6209,750,0.824,-1.41,1.301,87.4,red,225,TRUE
523,1660086786.511,3411,-2655,882,5.319,-0.064,-0.352,90.5,yellow,225,TRUE
524,1660086786.603,3521,-2925,2526,4.79,-0.832,-0.05,90.6,green,225,TRUE
525,1660086786.875,3672,6812,3350,1.149,-1.247,0.706,88.9,blue,225,TRUE
526,1660086786.977,3226,6120,750,0.575,-1.441,0.573,92.8,red,225,TRUE
527,1660086787.083,3421,-2677,882,5.321,-0.061,-0.352,91.3,yellow,225,TRUE
528,1660086787.175,3571,-2923,2526,4.799,-0.854,-0.055,89.8,green,225,TRUE
529,1660086788.413,3758,6715,3350,1.105,-1.262,0.681,89.0,blue,225,TRUE
530,1660086788.512,3337,6025,750,0.791,-1.47,3.043,96.1,red,225,TRUE
531,1660086788.609,3409,-2679,882,5.312,-0.001,-0.304,91.3,yellow,225,TRUE
532,1660086788.702,3603,-2905,2526,4.797,-0.841,-0.058,89.2,green,225,TRUE
533,1660086788.971,3812,6622,3350,1.1,-1.28,0.741,92.6,blue,225,TRUE
534,1660086789.076,3467,5937,750,0.747,-1.482,3.057,91.5,red,225,TRUE
535,1660086789.169,3403,-2702,882,5.315,-0.015,-0.311,91.2,yellow,225,TRUE
536,1660086790.58,3846,6538,3350,1.098,-1.251,0.641,97.7,blue,225,TRUE
537,1660086790.681,3530,5854,750,0.732,-1.486,0.083,88.1,red,225,TRUE
538,1660086790.77,3380,-2698,882,5.316,-0.007,-0.304,89.8,yellow,225,TRUE
539,1660086792.162,3899,6485,3350,1.103,-1.254,0.692,98.3,blue,225,TRUE
540,1660086792.263,3621,5802,750,0.747,-1.449,1.11,87.1,red,225,TRUE
541,1660086792.353,3387,-2715,882,5.319,-0.032,-0.317,88.4,yellow,225,TRUE
542,1660086793.848,3684,5774,750,0.745,-1.453,0.107,88.6,red,225,TRUE
543,1660086793.937,3410,-2718,882,5.321,-0.007,-0.304,90.2,yellow,225,TRUE
544,1660086794.06,3586,-2889,2526,4.797,-0.838,-0.057,103.2,green,225,TRUE
545,1660086794.363,3908,6430,3350,1.11,-1.233,0.631,86.7,blue,225,TRUE
546,1660086794.451,3724,5742,750,0.702,-1.461,0.1,88.7,red,225,TRUE
547,1660086794.541,3399,-2712,882,5.322,-0.011,-0.308,89.6,yellow,225,TRUE
548,1660086794.631,3613,-2878,2526,4.796,-0.833,-0.058,90.9,green,225,TRUE
549,1660086794.906,3929,6433,3350,1.114,-1.233,0.628,90.1,blue,225,TRUE
550,1660086795.008,3760,5727,750,0.677,-1.473,0.093,92.6,red,225,TRUE
551,1660086795.102,3404,-2718,882,5.323,-0.031,-0.314,91.5,yellow,225,TRUE
552,1660086796.483,3948,6434,3350,1.12,-1.222,0.611,99.8,blue,225,TRUE
553,1660086796.583,3768,5742,750,0.656,-1.456,0.094,88.8,red,225,TRUE
554,1660086799.022,3935,6448,3350,1.116,-1.221,0.62,98.0,blue,225,TRUE
555,1660086799.121,3785,5745,750,0.637,-1.462,0.097,88.4,red,225,TRUE
556,1660086799.209,3434,-2737,882,5.325,-0.05,-0.329,89.7,yellow,225,TRUE
557,1660086799.301,3602,-2880,2526,4.793,-0.831,-0.047,88.6,green,225,TRUE
558,1660086799.571,3888,6474,3350,1.116,-1.246,0.677,88.8,blue,225,TRUE
559,1660086799.661,3778,5738,750,0.647,-1.453,0.103,90.6,red,225,TRUE
560,1660086799.755,3428,-2747,882,5.325,-0.045,-0.322,86.2,yellow,225,TRUE
561,1660086799.844,3587,-2887,2526,4.794,-0.826,-0.038,73.3,green,225,TRUE
562,1660086800.104,3850,6407,3350,1.122,-1.246,0.678,85.6,blue,225,TRUE
563,1660086800.19,3783,5690,750,0.644,-1.448,1.024,90.0,red,225,TRUE
564,1660086800.283,3434,-2774,882,5.327,-0.053,-0.327,88.9,yellow,225,TRUE
565,1660086800.373,3591,-2891,2526,4.792,-0.827,-0.044,88.6,green,225,TRUE
566,1660086800.662,3849,6411,3350,1.128,-1.236,0.65,88.7,blue,225,TRUE
567,1660086800.755,3782,5679,750,0.658,-1.437,0.989,87.1,red,225,TRUE
568,1660086800.846,3431,-2772,882,5.327,-0.049,-0.32,86.0,yellow,225,TRUE
569,1660086800.933,3570,-2899,2526,4.791,-0.831,-0.051,89.1,green,225,TRUE
570,1660086801.204,3861,6417,3350,1.13,-1.232,0.624,89.3,blue,225,TRUE
571,1660086801.296,3777,5672,750,0.662,-1.437,1.005,88.1,red,225,TRUE
572,1660086801.385,3413,-2761,882,5.325,-0.036,-0.312,88.0,yellow,225,TRUE
573,1660086801.487,3543,-2903,2526,4.791,-0.833,-0.052,92.4,green,225,TRUE
574,1660086801.75,3908,6416,3350,1.131,-1.228,0.608,85.4,blue,225,TRUE
575,1660086801.839,3772,5649,750,0.656,-1.45,1.0,87.7,red,225,TRUE
576,1660086801.927,3410,-2770,882,5.325,-0.026,-0.305,89.6,yellow,225,TRUE
577,1660086802.03,3505,-2911,2526,4.79,-0.839,-0.053,92.5,green,225,TRUE
578,1660086802.291,3915,6423,3350,1.129,-1.24,0.628,87.2,blue,225,TRUE
579,1660086802.378,3782,5656,750,0.651,-1.462,0.093,90.6,red,225,TRUE
580,1660086802.481,3396,-2775,882,5.327,-0.041,-0.313,93.3,yellow,225,TRUE
581,1660086802.576,3435,-2907,2526,4.79,-0.844,-0.053,88.3,green,225,TRUE
582,1660086802.848,3896,6426,3350,1.132,-1.235,0.622,86.2,blue,225,TRUE
583,1660086802.936,3777,5650,750,0.633,-1.467,0.091,89.5,red,225,TRUE
584,1660086803.038,3406,-2796,882,5.325,-0.048,-0.315,92.1,yellow,225,TRUE
585,1660086803.131,3426,-2914,2526,4.79,-0.845,-0.053,89.5,green,225,TRUE
586,1660086803.4,3946,6425,3350,1.133,-1.225,0.597,89.0,blue,225,TRUE
587,1660086803.504,3775,5648,750,0.633,-1.46,0.091,92.3,red,225,TRUE
588,1660086803.596,3378,-2789,882,5.323,-0.037,-0.308,90.4,yellow,225,TRUE
589,1660086803.687,3400,-2920,2526,4.79,-0.845,-0.053,89.1,green,225,TRUE
590,1660086803.941,3948,6442,3350,1.119,-1.227,0.576,90.8,blue,225,TRUE
591,1660086804.046,3780,5654,750,0.628,-1.456,0.092,93.2,red,225,TRUE
592,1660086804.14,3388,-2799,882,5.323,-0.024,-0.301,89.8,yellow,225,TRUE
593,1660086804.231,3334,-2940,2526,4.79,-0.845,-0.053,89.9,green,225,TRUE
594,1660086804.515,3932,6472,3350,1.058,-1.265,0.65,92.6,blue,225,TRUE
595,1660086804.608,3789,5658,750,0.625,-1.461,0.085,89.4,red,225,TRUE
596,1660086804.698,3380,-2799,882,5.324,-0.038,-0.308,91.2,yellow,225,TRUE
597,1660086804.796,3304,-2939,2526,4.79,-0.846,-0.053,96.3,green,225,TRUE
598,1660086805.085,3936,6518,3350,1.025,-1.28,0.672,93.1,blue,225,TRUE
599,1660086805.178,3792,5657,750,0.636,-1.45,0.927,89.3,red,225,TRUE
600,1660086805.269,3385,-2802,882,5.324,-0.049,-0.313,89.2,yellow,225,TRUE
601,1660086805.36,3266,-2946,2526,4.791,-0.846,-0.057,88.9,green,225,TRUE
602,1660086805.629,3922,6531,3350,0.857,-1.334,0.512,92.1,blue,225,TRUE
603,1660086805.721,3794,5667,750,0.619,-1.451,1.048,90.6,red,225,TRUE
604,1660086805.962,3281,-2940,2526,4.791,-0.846,-0.057,91.4,green,225,TRUE
605,1660086806.235,3978,6551,3350,0.984,-1.271,0.717,89.8,blue,225,TRUE
606,1660086806.327,3799,5664,750,0.626,-1.45,1.137,86.8,red,225,TRUE
607,1660086806.415,3375,-2794,882,5.319,-0.024,-0.295,90.3,yellow,225,TRUE
608,1660086806.52,3310,-2922,2526,4.795,-0.844,-0.038,93.3,green,225,TRUE
609,1660086806.783,4023,6575,3350,1.125,-1.293,0.909,87.1,blue,225,TRUE
610,1660086806.873,3799,5656,750,0.637,-1.454,0.112,86.5,red,225,TRUE
611,1660086806.961,3367,-2782,882,5.32,-0.04,-0.302,89.1,yellow,225,TRUE
612,1660086807.051,3328,-2917,2526,4.801,-0.86,-0.02,88.4,green,225,TRUE
613,1660086807.325,4039,6591,3350,1.113,-1.299,0.938,87.1,blue,225,TRUE
614,1660086807.413,3802,5646,750,0.635,-1.458,0.111,90.2,red,225,TRUE
615,1660086807.516,3382,-2772,882,5.32,-0.073,-0.317,92.9,yellow,225,TRUE
616,1660086807.61,3356,-2919,2526,4.797,-0.846,-0.044,90.1,green,225,TRUE
617,1660086807.883,4020,6597,3350,1.119,-1.273,0.945,89.2,blue,225,TRUE
618,1660086807.972,3809,5638,750,0.62,-1.472,0.097,91.4,red,225,TRUE
619,1660086808.076,3375,-2765,882,5.31,-0.038,-0.315,92.3,yellow,225,TRUE
620,1660086808.17,3399,-2905,2526,4.796,-0.821,-0.048,89.9,green,225,TRUE
621,1660086808.442,3974,6608,3350,1.142,-1.258,0.898,88.3,blue,225,TRUE
622,1660086808.544,3812,5679,750,0.686,-1.456,0.108,93.8,red,225,TRUE
623,1660086808.637,3375,-2785,882,5.301,0.012,-0.28,89.3,yellow,225,TRUE
624,1660086808.728,3432,-2906,2526,4.795,-0.815,-0.053,90.7,green,225,TRUE
625,1660086808.997,3972,6601,3350,1.136,-1.26,0.89,92.7,blue,225,TRUE
626,1660086809.09,3821,5699,750,0.524,-1.452,0.086,89.1,red,225,TRUE
627,1660086809.18,3382,-2800,882,5.305,0.029,-0.273,75.1,yellow,225,TRUE
628,1660086809.255,3434,-2912,2526,4.794,-0.815,-0.056,90.0,green,225,TRUE
629,1660086809.525,3973,6601,3350,1.128,-1.269,0.912,92.4,blue,225,TRUE
630,1660086809.618,3834,5743,750,0.322,-1.444,0.569,90.7,red,225,TRUE
631,1660086809.709,3401,-2802,882,5.307,0.004,-0.284,90.8,yellow,225,TRUE
632,1660086809.803,3450,-2911,2526,4.794,-0.815,-0.056,86.6,green,225,TRUE
633,1660086810.07,3989,6633,3350,1.124,-1.268,0.904,91.6,blue,225,TRUE
634,1660086810.162,3840,5814,750,0.308,-1.436,0.986,89.2,red,225,TRUE
635,1660086810.253,3411,-2799,882,5.307,-0.003,-0.286,89.8,yellow,225,TRUE
636,1660086810.345,3478,-2906,2526,4.794,-0.813,-0.056,89.7,green,225,TRUE
637,1660086810.616,4004,6631,3350,1.133,-1.261,0.881,90.1,blue,225,TRUE
638,1660086810.707,3826,5852,750,0.284,-1.436,0.949,89.0,red,225,TRUE
639,1660086810.799,3427,-2798,882,5.304,0.008,-0.281,87.6,yellow,225,TRUE
640,1660086810.891,3538,-2894,2526,4.794,-0.81,-0.056,87.1,green,225,TRUE
641,1660086811.158,4043,6643,3350,1.151,-1.253,0.866,90.6,blue,225,TRUE
642,1660086811.248,3816,5889,750,0.262,-1.456,0.095,92.2,red,225,TRUE
643,1660086811.344,3408,-2788,882,5.301,0.022,-0.275,86.3,yellow,225,TRUE
644,1660086811.431,3567,-2891,2526,4.794,-0.81,-0.055,105.7,green,225,TRUE
645,1660086811.716,4067,6621,3350,1.172,-1.248,0.861,90.9,blue,225,TRUE
646,1660086811.813,3808,5925,750,0.254,-1.458,0.094,84.6,red,225,TRUE
647,1660086811.898,3416,-2789,882,5.303,0.026,-0.273,90.0,yellow,225,TRUE
648,1660086812.001,3614,-2888,2526,4.794,-0.808,-0.056,93.1,green,225,TRUE
649,1660086812.293,4112,6623,3350,1.172,-1.253,0.88,89.9,blue,225,TRUE
650,1660086812.386,3791,5971,750,0.248,-1.449,1.044,87.4,red,225,TRUE
651,1660086812.474,3408,-2789,882,5.304,0.003,-0.283,89.6,yellow,225,TRUE
652,1660086812.577,3638,-2886,2526,4.8,-0.817,-0.047,93.0,green,225,TRUE
653,1660086812.841,4129,6614,3350,1.176,-1.256,0.884,98.1,blue,225,TRUE
654,1660086812.94,3784,6018,750,0.244,-1.444,1.096,89.9,red,225,TRUE
655,1660086813.042,3407,-2791,882,5.301,-0.002,-0.287,91.9,yellow,225,TRUE
656,1660086813.135,3679,-2888,2526,4.809,-0.879,0.004,90.4,green,225,TRUE
657,1660086813.407,4115,6618,3350,1.178,-1.246,0.846,87.2,blue,225,TRUE
658,1660086813.508,3774,6070,750,0.255,-1.434,1.066,91.4,red,225,TRUE
659,1660086813.613,3429,-2807,882,5.299,0.012,-0.279,92.1,yellow,225,TRUE
660,1660086813.706,3690,-2891,2526,4.808,-0.993,0.019,89.8,green,225,TRUE
661,1660086813.977,4126,6651,3350,1.185,-1.237,0.812,90.9,blue,225,TRUE
662,1660086814.081,3753,6121,750,0.255,-1.427,1.041,90.7,red,225,TRUE
663,1660086814.173,3422,-2816,882,5.299,0.023,-0.274,75.1,yellow,225,TRUE
664,1660086814.249,3731,-2896,2526,4.814,-0.989,0.032,74.4,green,225,TRUE
665,1660086814.503,4170,6676,3350,1.24,-1.229,0.791,92.8,blue,225,TRUE
666,1660086814.608,3735,6169,750,0.257,-1.431,1.029,93.8,red,225,TRUE
667,1660086814.703,3425,-2820,882,5.299,0.019,-0.275,86.0,yellow,225,TRUE
668,1660086814.79,3739,-2904,2526,4.82,-0.993,0.044,89.8,green,225,TRUE
669,1660086815.09,4216,6745,3350,1.31,-1.237,0.864,93.5,blue,225,TRUE
670,1660086815.183,3708,6185,750,0.255,-1.439,1.044,90.9,red,225,TRUE
671,1660086815.275,3435,-2813,882,5.299,-0.001,-0.284,102.8,yellow,225,TRUE
672,1660086816.668,4188,6757,3350,1.398,-1.244,0.717,85.2,blue,225,TRUE
673,1660086816.755,3697,6213,750,0.417,-1.414,1.16,90.3,red,225,TRUE
674,1660086816.849,3440,-2803,882,5.296,0.025,-0.276,86.1,yellow,225,TRUE
675,1660086818.269,4188,6754,3350,1.752,-1.168,0.802,85.0,blue,225,TRUE
676,1660086818.358,3679,6212,750,0.409,-1.392,1.485,87.6,red,225,TRUE
677,1660086818.447,3439,-2799,882,5.294,-0.003,-0.289,88.7,yellow,225,TRUE
678,1660086819.888,4182,6724,3350,1.565,-1.194,0.736,98.1,blue,225,TRUE
679,1660086819.991,3665,6204,750,0.405,-1.395,1.552,98.1,red,225,TRUE
680,1660086820.103,3433,-2797,882,5.294,0.014,-0.278,95.2,yellow,225,TRUE
681,1660086820.248,3773,-2880,2526,4.818,-0.857,-0.001,83.2,green,225,TRUE
682,1660086820.528,4174,6718,3350,1.594,-1.206,0.77,90.1,blue,225,TRUE
683,1660086820.618,3659,6216,750,0.395,-1.409,1.641,89.5,red,225,TRUE
684,1660086820.709,3439,-2805,882,5.296,0.017,-0.276,89.6,yellow,225,TRUE
685,1660086820.801,3762,-2875,2526,4.815,-0.851,-0.007,87.0,green,225,TRUE
686,1660086821.07,4169,6683,3350,1.587,-1.217,0.803,91.3,blue,225,TRUE
687,1660086821.163,3649,6243,750,0.394,-1.414,1.599,89.9,red,225,TRUE
688,1660086821.253,3452,-2813,882,5.297,0.014,-0.279,91.4,yellow,225,TRUE
689,1660086821.346,3744,-2874,2526,4.815,-0.849,-0.007,88.7,green,225,TRUE
690,1660086821.618,4149,6659,3350,1.553,-1.224,0.827,88.8,blue,225,TRUE
691,1660086821.707,3648,6229,750,0.397,-1.401,1.234,89.6,red,225,TRUE
692,1660086821.799,3452,-2817,882,5.296,-0.003,-0.287,88.3,yellow,225,TRUE
693,1660086821.89,3736,-2864,2526,4.815,-0.848,-0.007,88.0,green,225,TRUE
694,1660086822.158,4128,6643,3350,1.539,-1.229,0.842,91.6,blue,225,TRUE
695,1660086822.251,3655,6187,750,0.445,-1.33,0.899,89.0,red,225,TRUE
696,1660086822.342,3447,-2804,882,5.295,-0.002,-0.287,87.4,yellow,225,TRUE
697,1660086822.43,3758,-2874,2526,4.815,-0.849,-0.007,90.0,green,225,TRUE
698,1660086822.7,4110,6629,3350,1.525,-1.241,0.884,89.8,blue,225,TRUE
699,1660086822.793,3659,6187,750,0.657,-1.299,1.041,86.7,red,225,TRUE
700,1660086822.88,3446,-2807,882,5.293,0.011,-0.279,89.5,yellow,225,TRUE
701,1660086824.287,4085,6608,3350,1.535,-1.224,0.803,97.9,blue,225,TRUE
702,1660086824.389,3681,6214,750,0.424,-1.481,0.055,87.4,red,225,TRUE
703,1660086824.476,3447,-2812,882,5.295,0.002,-0.284,90.0,yellow,225,TRUE
704,1660086825.903,4065,6560,3350,1.516,-1.217,0.792,97.9,blue,225,TRUE
705,1660086826.007,3707,6205,750,0.451,-1.458,0.076,97.6,red,225,TRUE
706,1660086826.106,3455,-2803,882,5.286,0.015,-0.277,89.6,yellow,225,TRUE
707,1660086827.527,4038,6520,3350,1.53,-1.206,0.776,94.5,blue,225,TRUE
708,1660086827.623,3731,6197,750,0.427,-1.441,0.611,88.1,red,225,TRUE
709,1660086827.712,3455,-2798,882,5.284,-0.002,-0.286,89.8,yellow,225,TRUE
710,1660086828.028,4008,6438,3350,1.533,-1.205,0.768,90.4,blue,225,TRUE
711,1660086828.125,3767,6182,750,0.417,-1.448,0.624,83.3,red,225,TRUE
712,1660086828.21,3448,-2783,882,5.282,-0.002,-0.287,91.3,yellow,225,TRUE
713,1660086828.495,4009,6428,3350,1.532,-1.204,0.771,93.0,blue,225,TRUE
714,1660086828.601,3777,6167,750,0.428,-1.451,0.702,92.5,red,225,TRUE
715,1660086828.693,3451,-2784,882,5.275,0.019,-0.278,90.1,yellow,225,TRUE
716,1660086828.949,4023,6420,3350,1.53,-1.213,0.795,89.2,blue,225,TRUE
717,1660086829.051,3795,6144,750,0.429,-1.455,0.076,93.2,red,225,TRUE
718,1660086829.145,3453,-2785,882,5.272,0.025,-0.275,89.0,yellow,225,TRUE
719,1660086829.251,3712,-2880,2526,4.776,-1.11,0.034,88.5,green,225,TRUE
720,1660086829.548,4026,6407,3350,1.529,-1.209,0.784,91.5,blue,225,TRUE
721,1660086829.641,3815,6125,750,0.422,-1.458,0.076,90.5,red,225,TRUE
722,1660086829.731,3457,-2783,882,5.272,0.028,-0.273,90.3,yellow,225,TRUE
723,1660086831.165,4032,6391,3350,1.537,-1.196,0.734,83.2,blue,225,TRUE
724,1660086831.25,3837,6092,750,0.427,-1.429,0.67,89.7,red,225,TRUE
725,1660086831.344,3450,-2781,882,5.268,0.004,-0.286,86.9,yellow,225,TRUE
726,1660086831.431,3670,-2879,2526,4.872,-1.278,0.35,89.6,green,225,TRUE
727,1660086831.704,4041,6403,3350,1.556,-1.202,0.733,88.8,blue,225,TRUE
728,1660086831.796,3855,6079,750,0.429,-1.414,0.617,86.4,red,225,TRUE
729,1660086831.884,3443,-2780,882,5.264,0.019,-0.278,90.7,yellow,225,TRUE
730,1660086831.977,3658,-2872,2526,4.835,-1.04,0.056,89.8,green,225,TRUE
731,1660086832.231,4043,6406,3350,1.605,-1.199,0.743,90.3,blue,225,TRUE
732,1660086832.324,3870,6086,750,0.42,-1.414,0.515,87.4,red,225,TRUE
733,1660086832.411,3439,-2777,882,5.262,0.025,-0.276,91.9,yellow,225,TRUE
734,1660086832.516,3638,-2853,2526,4.818,-0.887,0.007,92.6,green,225,TRUE
735,1660086832.788,4046,6438,3350,1.667,-1.17,0.718,88.5,blue,225,TRUE
736,1660086832.88,3883,6094,750,0.418,-1.418,0.477,88.4,red,225,TRUE
737,1660086832.971,3436,-2782,882,5.261,0.025,-0.277,86.3,yellow,225,TRUE
738,1660086833.058,3634,-2851,2526,4.814,-0.884,-0.001,91.2,green,225,TRUE
739,1660086833.316,4064,6456,3350,1.713,-1.137,0.725,89.0,blue,225,TRUE
740,1660086833.406,3886,6074,750,0.416,-1.424,0.49,89.5,red,225,TRUE
741,1660086833.508,3433,-2774,882,5.26,0.026,-0.276,91.5,yellow,225,TRUE
742,1660086833.613,3651,-2853,2526,4.811,-0.884,-0.002,91.9,green,225,TRUE
743,1660086833.873,4071,6470,3350,1.705,-1.138,0.733,90.7,blue,225,TRUE
744,1660086833.969,3879,6023,750,0.419,-1.421,0.454,97.2,red,225,TRUE
745,1660086834.067,3423,-2780,882,5.261,0.026,-0.275,73.0,yellow,225,TRUE
746,1660086834.141,3687,-2849,2526,4.809,-0.884,0.0,90.9,green,225,TRUE
747,1660086834.413,4079,6476,3350,1.612,-1.169,0.732,90.0,blue,225,TRUE
748,1660086834.518,3876,6028,750,0.457,-1.424,0.503,92.2,red,225,TRUE
749,1660086834.611,3422,-2776,882,5.259,0.021,-0.278,89.7,yellow,225,TRUE
750,1660086834.702,3714,-2855,2526,4.813,-0.888,-0.011,88.3,green,225,TRUE
751,1660086834.957,4065,6485,3350,1.422,-1.191,0.825,89.6,blue,225,TRUE
752,1660086835.05,3870,6011,750,0.418,-1.428,0.372,87.8,red,225,TRUE
753,1660086835.139,3423,-2782,882,5.259,0.001,-0.287,89.9,yellow,225,TRUE
754,1660086835.229,3740,-2858,2526,4.809,-0.876,-0.016,89.4,green,225,TRUE
755,1660086835.498,4043,6498,3350,1.296,-1.175,0.832,92.7,blue,225,TRUE
756,1660086835.604,3863,6009,750,0.515,-1.413,0.513,91.1,red,225,TRUE
757,1660086835.696,3432,-2788,882,5.257,0.0,-0.289,90.0,yellow,225,TRUE
758,1660086835.786,3775,-2860,2526,4.809,-0.876,-0.019,89.9,green,225,TRUE
759,1660086836.046,4054,6496,3350,1.331,-1.162,0.774,87.9,blue,225,TRUE
760,1660086836.134,3858,5983,750,0.702,-1.383,0.69,87.3,red,225,TRUE
761,1660086836.223,3434,-2792,882,5.253,0.013,-0.281,89.9,yellow,225,TRUE
762,1660086836.316,3769,-2846,2526,4.809,-0.875,-0.016,87.7,green,225,TRUE
763,1660086836.6,4009,6499,3350,1.324,-1.16,0.764,92.0,blue,225,TRUE
764,1660086836.693,3848,5988,750,0.733,-1.329,0.67,90.1,red,225,TRUE
765,1660086836.783,3428,-2792,882,5.253,0.021,-0.277,89.7,yellow,225,TRUE
766,1660086836.875,3849,-2826,2526,4.808,-0.875,-0.015,87.8,green,225,TRUE
767,1660086837.13,3994,6505,3350,1.305,-1.154,0.767,90.8,blue,225,TRUE
768,1660086837.221,3823,5991,750,0.961,-1.353,1.146,90.3,red,225,TRUE
769,1660086837.312,3430,-2793,882,5.256,0.021,-0.277,90.6,yellow,225,TRUE
770,1660086837.405,3854,-2826,2526,4.808,-0.876,-0.015,88.5,green,225,TRUE
771,1660086837.676,3967,6513,3350,1.275,-1.157,0.778,90.0,blue,225,TRUE
772,1660086837.766,3812,5971,750,0.95,-1.397,0.908,90.9,red,225,TRUE
773,1660086837.86,3430,-2791,882,5.256,0.007,-0.284,87.4,yellow,225,TRUE
774,1660086837.948,3901,-2827,2526,4.808,-0.876,-0.015,88.7,green,225,TRUE
775,1660086838.202,3940,6501,3350,1.301,-1.163,0.776,89.0,blue,225,TRUE
776,1660086838.292,3818,5939,750,0.867,-1.437,0.79,93.7,red,225,TRUE
777,1660086838.393,3439,-2787,882,5.255,-0.009,-0.291,82.1,yellow,225,TRUE
778,1660086838.475,3909,-2829,2526,4.808,-0.876,-0.015,90.8,green,225,TRUE
779,1660086838.792,3904,6498,3350,1.297,-1.15,0.756,90.1,blue,225,TRUE
780,1660086838.885,3802,5910,750,0.782,-1.429,0.316,88.7,red,225,TRUE
781,1660086838.973,3441,-2790,882,5.252,0.001,-0.287,90.0,yellow,225,TRUE
782,1660086839.066,3911,-2829,2526,4.808,-0.872,-0.014,87.0,green,225,TRUE
783,1660086840.344,3872,6468,3350,1.282,-1.158,0.771,89.2,blue,225,TRUE
784,1660086840.435,3787,5887,750,0.896,-1.424,1.019,89.3,red,225,TRUE
785,1660086840.531,3439,-2794,882,5.251,0.012,-0.28,84.5,yellow,225,TRUE
786,1660086840.616,3902,-2834,2526,4.808,-0.873,-0.014,88.1,green,225,TRUE
787,1660086840.889,3825,6447,3350,1.277,-1.164,0.785,87.6,blue,225,TRUE
788,1660086840.978,3772,5873,750,0.899,-1.408,0.985,90.4,red,225,TRUE
789,1660086841.07,3433,-2781,882,5.25,-0.008,-0.29,87.4,yellow,225,TRUE
790,1660086841.159,3893,-2838,2526,4.808,-0.869,-0.014,90.2,green,225,TRUE
791,1660086841.416,3803,6438,3350,1.26,-1.148,0.752,88.2,blue,225,TRUE
792,1660086841.518,3747,5857,750,0.894,-1.408,1.029,91.5,red,225,TRUE
793,1660086841.624,3443,-2761,882,5.249,-0.014,-0.293,92.4,yellow,225,TRUE
794,1660086841.717,3883,-2846,2526,4.808,-0.868,-0.014,89.7,green,225,TRUE
795,1660086841.974,3775,6439,3350,1.242,-1.152,0.76,89.2,blue,225,TRUE
796,1660086842.066,3751,5860,750,0.891,-1.408,1.002,87.4,red,225,TRUE
797,1660086842.154,3446,-2756,882,5.247,-0.007,-0.29,88.5,yellow,225,TRUE
798,1660086842.243,3900,-2836,2526,4.82,-0.928,0.01,89.3,green,225,TRUE
799,1660086842.542,3787,6431,3350,1.214,-1.178,0.738,91.9,blue,225,TRUE
800,1660086842.638,3729,5848,750,0.917,-1.39,0.826,88.5,red,225,TRUE
801,1660086842.726,3448,-2747,882,5.26,0.005,-0.256,90.1,yellow,225,TRUE
802,1660086844.04,3783,6474,3350,1.287,-1.154,0.746,85.6,blue,225,TRUE
803,1660086844.129,3721,5811,750,0.989,-1.392,0.909,85.4,red,225,TRUE
804,1660086844.216,3429,-2742,882,5.253,-0.105,-0.056,88.8,yellow,225,TRUE
805,1660086844.306,3836,-2826,2526,4.705,-1.341,-0.547,90.9,green,225,TRUE
806,1660086844.575,3777,6486,3350,1.514,-1.162,0.745,91.6,blue,225,TRUE
807,1660086844.667,3717,5796,750,1.11,-1.382,0.922,89.7,red,225,TRUE
808,1660086844.757,3385,-2720,882,5.221,0.065,0.11,89.1,yellow,225,TRUE
809,1660086844.849,3843,-2834,2526,4.697,-1.326,-0.53,72.0,green,225,TRUE
810,1660086845.089,3796,6490,3350,1.479,-1.149,0.712,87.5,blue,225,TRUE
811,1660086845.178,3712,5801,750,1.272,-1.364,0.977,89.6,red,225,TRUE
812,1660086845.268,3343,-2708,882,5.174,0.113,0.063,89.1,yellow,225,TRUE
813,1660086845.36,3852,-2847,2526,4.696,-1.313,-0.488,88.1,green,225,TRUE
814,1660086845.637,3779,6481,3350,1.306,-1.184,0.649,97.9,blue,225,TRUE
815,1660086845.736,3710,5757,750,1.474,-1.348,1.349,90.2,red,225,TRUE
816,1660086846.899,3810,-2853,2526,4.688,-1.301,-0.479,88.8,green,225,TRUE
817,1660086847.175,3793,6447,3350,2.097,-1.145,0.797,85.0,blue,225,TRUE
818,1660086847.261,3700,5707,750,2.018,-1.474,0.071,89.5,red,225,TRUE
819,1660086847.353,3293,-2686,882,5.176,0.046,0.007,86.8,yellow,225,TRUE
820,1660086847.44,3773,-2851,2526,4.683,-1.308,-0.509,90.8,green,225,TRUE
821,1660086847.714,3786,6393,3350,2.122,-1.209,0.82,91.3,blue,225,TRUE
822,1660086847.808,3679,5617,750,2.505,-1.391,1.72,88.8,red,225,TRUE
823,1660086847.898,3261,-2675,882,5.174,0.019,-0.019,88.7,yellow,225,TRUE
824,1660086847.988,3757,-2860,2526,4.653,-1.331,-0.726,89.3,green,225,TRUE
825,1660086848.273,3793,6326,3350,2.14,-1.239,0.884,92.1,blue,225,TRUE
826,1660086848.367,3687,5512,750,2.383,-1.445,1.726,87.4,red,225,TRUE
827,1660086848.454,3222,-2659,882,5.172,0.023,-0.019,90.1,yellow,225,TRUE
828,1660086848.558,3721,-2873,2526,4.648,-1.336,-0.753,90.5,green,225,TRUE
829,1660086848.818,3800,6208,3350,2.376,-1.225,0.952,86.7,blue,225,TRUE
