,timestamp,x,y,z,yaw,roll,pitch,latency,student,session,success
0,1660090399.912,1552,-1507,3350,0.229,-1.433,1.094,93.4,blue,226,TRUE
1,1660090400.007,1093,-933,750,1.612,-1.193,1.185,90.3,red,226,TRUE
2,1660090400.106,3780,-2523,882,4.573,-0.984,-0.455,96.8,yellow,226,TRUE
3,1660090402.631,1492,-1226,3350,6.019,-1.276,0.672,97.1,blue,226,TRUE
4,1660090402.729,1146,-627,750,0.818,-1.108,1.326,89.4,red,226,TRUE
5,1660090405.303,1553,-758,3350,5.835,-1.311,0.434,83.0,blue,226,TRUE
6,1660090405.39,1312,-247,750,6.231,-1.206,1.492,87.9,red,226,TRUE
7,1660090405.844,1614,-305,3350,5.009,-1.342,0.544,87.4,blue,226,TRUE
8,1660090405.932,1429,59,750,5.824,-1.293,1.837,89.5,red,226,TRUE
9,1660090406.025,3741,-2498,882,4.516,-1.016,-0.589,87.4,yellow,226,TRUE
10,1660090406.295,1668,133,3350,4.505,-1.384,0.657,89.7,blue,226,TRUE
11,1660090406.387,1531,340,750,5.86,-1.257,1.643,88.0,red,226,TRUE
12,1660090406.476,3711,-2488,882,4.549,-0.966,-0.514,89.9,yellow,226,TRUE
13,1660090406.793,1735,616,3350,4.459,-1.346,0.496,89.7,blue,226,TRUE
14,1660090406.885,1653,662,750,5.57,-1.23,1.273,88.1,red,226,TRUE
15,1660090406.975,3711,-2488,882,4.573,-0.894,-0.379,74.6,yellow,226,TRUE
16,1660090408.343,1853,1044,3350,4.661,-1.266,0.325,91.2,blue,226,TRUE
17,1660090408.438,1717,946,750,5.445,-1.239,1.236,87.1,red,226,TRUE
18,1660090408.535,3714,-2500,882,4.483,-1.022,-0.634,81.1,yellow,226,TRUE
19,1660090408.847,1920,1408,3350,4.575,-1.254,0.299,88.5,blue,226,TRUE
20,1660090408.936,1857,1236,750,5.49,-1.15,1.104,89.6,red,226,TRUE
21,1660090409.027,3697,-2491,882,4.502,-0.987,-0.559,90.1,yellow,226,TRUE
22,1660090409.329,1970,1765,3350,4.581,-1.326,0.652,88.5,blue,226,TRUE
23,1660090409.42,1933,1563,750,5.621,-1.088,1.144,88.1,red,226,TRUE
24,1660090409.509,3701,-2502,882,4.527,-0.942,-0.454,90.1,yellow,226,TRUE
25,1660090410.867,2070,2082,3350,4.674,-1.35,0.556,91.1,blue,226,TRUE
26,1660090410.962,2005,1916,750,5.185,-1.161,0.985,87.3,red,226,TRUE
27,1660090411.056,3703,-2504,882,4.543,-1.013,-0.482,84.2,yellow,226,TRUE
28,1660090411.384,2199,2329,3350,4.675,-1.349,0.543,87.8,blue,226,TRUE
29,1660090411.473,2111,2176,750,5.229,-1.162,0.983,92.8,red,226,TRUE
30,1660090411.579,3712,-2496,882,4.548,-0.963,-0.451,92.5,yellow,226,TRUE
31,1660090411.855,2357,2567,3350,4.682,-1.356,0.552,90.5,blue,226,TRUE
32,1660090411.947,2183,2347,750,5.248,-1.157,0.997,88.5,red,226,TRUE
33,1660090412.035,3691,-2485,882,4.542,-0.962,-0.43,90.0,yellow,226,TRUE
34,1660090413.287,2500,2807,3350,4.742,-1.364,0.575,90.7,blue,226,TRUE
35,1660090413.382,2247,2444,750,5.353,-1.155,1.066,87.1,red,226,TRUE
36,1660090415.936,2581,2998,3350,5.052,-1.38,0.724,83.0,blue,226,TRUE
37,1660090416.021,2351,2492,750,5.192,-1.142,0.9,90.0,red,226,TRUE
38,1660090416.12,3717,-2499,882,4.563,-0.932,-0.386,96.3,yellow,226,TRUE
39,1660090416.219,3153,-2783,2526,4.83,-0.69,0.122,90.0,green,226,TRUE
40,1660090417.562,2577,2994,3350,4.976,-1.39,0.782,91.4,blue,226,TRUE
41,1660090417.654,2318,2447,750,5.21,-1.167,0.911,90.4,red,226,TRUE
42,1660090417.751,3726,-2513,882,4.557,-0.96,-0.437,83.8,yellow,226,TRUE
43,1660090417.837,3089,-2795,2526,4.829,-0.673,0.121,120.4,green,226,TRUE
44,1660090418.11,2575,3009,3350,4.984,-1.394,0.804,89.0,blue,226,TRUE
45,1660090418.2,2324,2472,750,5.212,-1.165,0.912,89.7,red,226,TRUE
46,1660090418.29,3757,-2537,882,4.512,-0.959,-0.463,91.2,yellow,226,TRUE
47,1660090419.698,2584,3023,3350,5.004,-1.393,0.788,86.3,blue,226,TRUE
48,1660090419.785,2338,2503,750,5.229,-1.145,0.953,88.8,red,226,TRUE
49,1660090419.877,3779,-2538,882,4.55,-0.969,-0.464,86.8,yellow,226,TRUE
50,1660090421.303,2572,3034,3350,4.741,-1.352,0.615,84.0,blue,226,TRUE
51,1660090421.39,2332,2484,750,5.208,-1.138,0.897,88.0,red,226,TRUE
52,1660090421.479,3768,-2535,882,4.569,-0.961,-0.424,88.8,yellow,226,TRUE
53,1660090422.946,2562,3026,3350,4.752,-1.361,0.646,96.3,blue,226,TRUE
54,1660090423.045,2328,2479,750,5.286,-1.149,1.019,87.8,red,226,TRUE
55,1660090423.134,3779,-2528,882,4.565,-0.969,-0.432,90.5,yellow,226,TRUE
56,1660090423.467,2563,3046,3350,4.752,-1.364,0.654,89.1,blue,226,TRUE
57,1660090423.569,2323,2502,750,5.3,-1.167,0.892,92.6,red,226,TRUE
58,1660090423.67,3775,-2522,882,4.565,-0.968,-0.431,94.6,yellow,226,TRUE
59,1660090424.928,2565,3038,3350,5.231,-1.357,0.764,90.7,blue,226,TRUE
60,1660090425.019,2318,2516,750,5.679,-1.182,0.896,90.0,red,226,TRUE
61,1660090425.115,3781,-2511,882,4.562,-0.963,-0.435,83.0,yellow,226,TRUE
62,1660090426.512,2575,3016,3350,4.957,-1.358,0.687,90.8,blue,226,TRUE
63,1660090426.604,2298,2499,750,5.102,-1.298,0.774,88.6,red,226,TRUE
64,1660090426.699,3791,-2514,882,4.595,-1.11,-0.257,84.9,yellow,226,TRUE
65,1660090428.037,2592,3002,3350,4.767,-1.366,0.666,91.2,blue,226,TRUE
66,1660090428.129,2285,2509,750,5.077,-1.298,0.759,90.3,red,226,TRUE
67,1660090428.551,2588,3010,3350,4.695,-1.38,0.714,91.7,blue,226,TRUE
68,1660090428.656,2277,2521,750,5.078,-1.298,0.737,93.4,red,226,TRUE
69,1660090428.75,3813,-2521,882,4.55,-0.966,-0.393,90.8,yellow,226,TRUE
70,1660090428.945,2607,3009,3350,4.647,-1.379,0.718,91.5,blue,226,TRUE
71,1660090429.038,2267,2552,750,5.072,-1.306,0.744,88.4,red,226,TRUE
72,1660090429.126,3783,-2522,882,4.533,-0.958,-0.551,88.7,yellow,226,TRUE
73,1660090429.311,2625,3018,3350,4.645,-1.365,0.687,87.8,blue,226,TRUE
74,1660090429.411,2259,2584,750,5.084,-1.299,0.773,92.5,red,226,TRUE
75,1660090429.516,3780,-2508,882,4.543,-0.986,-0.494,91.2,yellow,226,TRUE
76,1660090429.729,2616,3030,3350,4.659,-1.34,0.612,90.0,blue,226,TRUE
77,1660090429.822,2239,2591,750,5.071,-1.301,0.74,87.1,red,226,TRUE
78,1660090429.91,3772,-2501,882,4.553,-0.98,-0.453,91.9,yellow,226,TRUE
79,1660090431.351,2616,3038,3350,4.526,-1.385,1.086,95.9,blue,226,TRUE
80,1660090431.449,2222,2592,750,5.067,-1.283,0.664,89.4,red,226,TRUE
81,1660090431.552,3769,-2500,882,4.576,-0.948,-0.405,93.0,yellow,226,TRUE
82,1660090433.116,2204,2598,750,5.07,-1.306,0.73,90.1,red,226,TRUE
83,1660090433.207,3769,-2503,882,4.568,-0.952,-0.373,89.3,yellow,226,TRUE
84,1660090434.628,2606,3023,3350,4.516,-1.388,0.788,97.6,blue,226,TRUE
85,1660090434.728,2193,2615,750,5.057,-1.313,0.723,88.2,red,226,TRUE
86,1660090434.817,3769,-2500,882,4.572,-0.957,-0.397,89.1,yellow,226,TRUE
87,1660090435.147,2617,3044,3350,4.388,-1.384,0.728,90.6,blue,226,TRUE
88,1660090435.24,2165,2636,750,5.036,-1.311,0.695,88.6,red,226,TRUE
89,1660090435.331,3779,-2501,882,4.569,-0.959,-0.392,88.3,yellow,226,TRUE
90,1660090435.613,2619,3052,3350,4.373,-1.386,0.752,92.1,blue,226,TRUE
91,1660090435.706,2114,2588,750,5.034,-1.314,0.709,89.1,red,226,TRUE
92,1660090435.795,3775,-2498,882,4.568,-0.959,-0.393,90.8,yellow,226,TRUE
93,1660090436.08,2630,3064,3350,4.407,-1.37,0.724,93.2,blue,226,TRUE
94,1660090436.173,2098,2557,750,5.041,-1.316,0.729,88.4,red,226,TRUE
95,1660090436.262,3772,-2499,882,4.569,-0.958,-0.389,90.2,yellow,226,TRUE
96,1660090437.558,2659,3095,3350,4.492,-1.405,0.9,91.4,blue,226,TRUE
97,1660090437.65,2125,2606,750,6.184,-1.082,1.144,87.2,red,226,TRUE
98,1660090437.744,3766,-2487,882,4.568,-0.958,-0.389,85.5,yellow,226,TRUE
99,1660090438.069,2682,3119,3350,4.835,-1.428,0.581,92.6,blue,226,TRUE
100,1660090438.163,2159,2632,750,6.046,-1.205,0.917,88.9,red,226,TRUE
101,1660090438.253,3764,-2492,882,4.567,-0.963,-0.393,88.3,yellow,226,TRUE
102,1660090438.521,2729,3168,3350,5.119,-1.433,0.266,93.2,blue,226,TRUE
103,1660090438.627,2191,2641,750,5.9,-1.236,0.813,92.2,red,226,TRUE
104,1660090438.72,3770,-2483,882,4.567,-0.964,-0.394,89.6,yellow,226,TRUE
105,1660090439.005,2755,3244,3350,4.943,-1.439,0.071,93.7,blue,226,TRUE
106,1660090439.112,2230,2645,750,5.821,-1.239,0.89,92.7,red,226,TRUE
107,1660090439.206,3790,-2475,882,4.567,-0.963,-0.393,89.1,yellow,226,TRUE
108,1660090439.552,2791,3335,3350,4.955,-1.436,0.249,92.1,blue,226,TRUE
109,1660090439.658,2257,2647,750,5.411,-1.347,1.045,91.8,red,226,TRUE
110,1660090439.751,3792,-2476,882,4.567,-0.958,-0.389,91.1,yellow,226,TRUE
111,1660090440.038,2812,3363,3350,4.412,-1.355,0.232,92.9,blue,226,TRUE
112,1660090440.132,2304,2674,750,5.39,-1.349,1.139,87.4,red,226,TRUE
113,1660090440.22,3800,-2481,882,4.567,-0.957,-0.388,92.6,yellow,226,TRUE
114,1660090440.521,2818,3377,3350,4.218,-1.359,0.642,93.3,blue,226,TRUE
115,1660090440.627,2323,2705,750,5.196,-1.317,1.019,91.7,red,226,TRUE
116,1660090440.719,3803,-2481,882,4.567,-0.957,-0.388,91.0,yellow,226,TRUE
117,1660090442.126,2831,3427,3350,4.299,-1.357,0.964,89.3,blue,226,TRUE
118,1660090442.216,2341,2766,750,5.887,-1.148,0.998,90.6,red,226,TRUE
119,1660090442.314,3804,-2479,882,4.554,-0.957,-0.407,83.4,yellow,226,TRUE
120,1660090443.725,2842,3530,3350,5.301,-1.352,0.947,90.1,blue,226,TRUE
121,1660090443.816,2404,2807,750,5.824,-1.276,1.028,90.4,red,226,TRUE
122,1660090443.916,3807,-2482,882,4.552,-0.958,-0.404,95.5,yellow,226,TRUE
123,1660090445.337,2777,3722,3350,5.13,-1.344,0.752,92.1,blue,226,TRUE
124,1660090445.432,2489,2992,750,5.728,-1.14,0.852,89.2,red,226,TRUE
125,1660090445.532,3803,-2479,882,4.552,-0.956,-0.401,92.8,yellow,226,TRUE
126,1660090445.839,2749,3930,3350,5.274,-1.266,1.029,89.9,blue,226,TRUE
127,1660090445.929,2561,3250,750,5.731,-1.094,0.813,89.0,red,226,TRUE
128,1660090446.019,3800,-2483,882,4.552,-0.954,-0.4,91.9,yellow,226,TRUE
129,1660090446.232,2708,4258,3350,5.406,-1.346,0.741,91.7,blue,226,TRUE
130,1660090446.33,2620,3537,750,5.656,-1.154,0.986,86.6,red,226,TRUE
131,1660090446.417,3799,-2481,882,4.552,-0.953,-0.399,88.8,yellow,226,TRUE
132,1660090446.654,2646,4553,3350,5.657,-1.349,0.596,91.9,blue,226,TRUE
133,1660090446.746,2650,3769,750,5.568,-1.173,0.773,91.8,red,226,TRUE
134,1660090446.839,3803,-2479,882,4.552,-0.953,-0.399,89.3,yellow,226,TRUE
135,1660090447.168,2589,4879,3350,5.697,-1.292,0.867,94.5,blue,226,TRUE
136,1660090447.262,2677,3998,750,5.864,-1.144,0.798,88.3,red,226,TRUE
137,1660090447.352,3798,-2478,882,4.552,-0.952,-0.399,91.3,yellow,226,TRUE
138,1660090447.576,2532,5172,3350,5.577,-1.38,0.86,93.1,blue,226,TRUE
139,1660090447.683,2710,4317,750,5.908,-1.169,1.14,93.0,red,226,TRUE
140,1660090447.777,3813,-2485,882,4.549,-0.952,-0.4,88.6,yellow,226,TRUE
141,1660090447.97,2478,5416,3350,5.643,-1.364,0.639,77.7,blue,226,TRUE
142,1660090448.061,2718,4596,750,5.664,-1.172,1.053,92.3,red,226,TRUE
143,1660090448.167,3825,-2491,882,4.544,-0.949,-0.411,91.5,yellow,226,TRUE
144,1660090448.47,2406,5680,3350,5.529,-1.373,0.542,91.5,blue,226,TRUE
145,1660090448.574,2742,4911,750,5.381,-1.272,0.945,92.4,red,226,TRUE
146,1660090448.681,3832,-2493,882,4.548,-0.964,-0.405,92.2,yellow,226,TRUE
147,1660090448.866,2359,5942,3350,5.402,-1.453,0.079,85.9,blue,226,TRUE
148,1660090448.965,2757,5258,750,5.259,-1.248,0.876,91.9,red,226,TRUE
149,1660090449.07,3831,-2491,882,4.548,-0.958,-0.401,93.2,yellow,226,TRUE
150,1660090449.286,2306,6223,3350,5.36,-1.501,0.058,85.7,blue,226,TRUE
151,1660090449.375,2781,5580,750,4.975,-1.086,0.997,87.3,red,226,TRUE
152,1660090449.463,3837,-2492,882,4.548,-0.958,-0.4,89.5,yellow,226,TRUE
153,1660090449.792,2260,6508,3350,5.765,-1.502,0.058,92.5,blue,226,TRUE
154,1660090449.886,2820,5933,750,4.062,-1.122,1.016,89.5,red,226,TRUE
155,1660090449.977,3853,-2495,882,4.554,-0.951,-0.388,89.2,yellow,226,TRUE
156,1660090450.19,2207,6727,3350,5.994,-1.497,0.062,87.4,blue,226,TRUE
157,1660090450.283,2801,6276,750,3.553,-1.262,1.102,84.6,red,226,TRUE
158,1660090450.368,3864,-2498,882,4.553,-0.948,-0.386,90.0,yellow,226,TRUE
159,1660090450.605,2244,6828,3350,6.247,-1.433,1.134,92.2,blue,226,TRUE
160,1660090450.698,2795,6515,750,3.341,-1.288,1.17,91.0,red,226,TRUE
161,1660090450.79,3863,-2514,882,4.552,-0.951,-0.387,90.1,yellow,226,TRUE
162,1660090451.121,2254,6976,3350,6.273,-1.352,0.921,91.8,blue,226,TRUE
163,1660090451.214,2805,6724,750,3.454,-1.136,1.11,90.8,red,226,TRUE
164,1660090451.305,3891,-2522,882,4.55,-0.958,-0.393,88.6,yellow,226,TRUE
165,1660090451.513,2249,6996,3350,6.221,-1.252,0.695,77.4,blue,226,TRUE
166,1660090451.604,2806,6904,750,3.268,-1.116,1.136,91.8,red,226,TRUE
167,1660090451.695,3914,-2527,882,4.55,-0.956,-0.395,91.2,yellow,226,TRUE
168,1660090451.89,2255,7001,3350,6.098,-1.236,0.647,77.7,blue,226,TRUE
169,1660090451.981,2795,7079,750,3.222,-1.097,1.102,91.2,red,226,TRUE
170,1660090452.085,3929,-2534,882,4.55,-0.95,-0.392,92.1,yellow,226,TRUE
171,1660090452.464,2781,7250,750,3.146,-1.093,1.126,91.1,red,226,TRUE
172,1660090452.568,3947,-2538,882,4.55,-0.949,-0.388,93.6,yellow,226,TRUE
173,1660090452.892,2279,7079,3350,6.116,-1.242,0.686,86.6,blue,226,TRUE
174,1660090452.982,2750,7350,750,3.098,-1.056,1.105,87.8,red,226,TRUE
175,1660090453.071,3908,-2523,882,4.538,-0.938,-0.403,88.8,yellow,226,TRUE
176,1660090453.372,2280,7102,3350,6.172,-1.246,0.698,90.4,blue,226,TRUE
177,1660090453.466,2738,7472,750,3.025,-1.05,1.097,87.8,red,226,TRUE
178,1660090453.555,3891,-2521,882,4.536,-0.903,-0.369,89.3,yellow,226,TRUE
179,1660090453.901,2277,7060,3350,6.173,-1.253,0.69,89.7,blue,226,TRUE
180,1660090453.992,2720,7551,750,2.957,-1.041,1.093,89.7,red,226,TRUE
181,1660090454.095,3883,-2531,882,4.544,-0.927,-0.349,78.0,yellow,226,TRUE
182,1660090454.372,2279,7067,3350,6.145,-1.249,0.68,87.8,blue,226,TRUE
183,1660090454.463,2710,7596,750,2.928,-1.033,1.072,85.5,red,226,TRUE
184,1660090454.55,3892,-2548,882,4.494,-0.966,-0.398,90.2,yellow,226,TRUE
185,1660090454.853,2281,7059,3350,6.161,-1.222,0.66,89.8,blue,226,TRUE
186,1660090454.946,2710,7689,750,2.906,-1.032,1.073,87.1,red,226,TRUE
187,1660090455.034,3893,-2562,882,4.544,-1.01,-0.428,89.8,yellow,226,TRUE
188,1660090455.383,2283,7095,3350,6.154,-1.22,0.664,86.4,blue,226,TRUE
189,1660090455.472,2703,7691,750,2.887,-1.026,1.045,89.1,red,226,TRUE
190,1660090455.561,3870,-2555,882,4.52,-1.02,-0.424,90.5,yellow,226,TRUE
191,1660090455.863,2310,7027,3350,6.137,-1.222,0.669,75.9,blue,226,TRUE
192,1660090455.942,2699,7704,750,2.878,-1.021,1.033,87.2,red,226,TRUE
193,1660090456.03,3856,-2554,882,4.527,-0.996,-0.419,89.4,yellow,226,TRUE
194,1660090456.33,2339,7051,3350,6.15,-1.222,0.669,90.0,blue,226,TRUE
195,1660090456.426,2686,7697,750,2.877,-1.016,1.035,84.2,red,226,TRUE
196,1660090456.512,3850,-2538,882,4.532,-0.999,-0.439,89.8,yellow,226,TRUE
197,1660090456.873,2352,6955,3350,6.121,-1.299,0.737,74.8,blue,226,TRUE
198,1660090456.95,2679,7695,750,2.877,-1.01,1.033,88.6,red,226,TRUE
199,1660090457.04,3825,-2527,882,4.553,-0.993,-0.433,89.4,yellow,226,TRUE
200,1660090457.341,2397,6914,3350,6.136,-1.282,0.664,89.5,blue,226,TRUE
201,1660090457.436,2680,7669,750,2.86,-1.017,1.024,85.1,red,226,TRUE
202,1660090457.523,3792,-2521,882,4.564,-1.0,-0.439,89.5,yellow,226,TRUE
203,1660090457.823,2377,6821,3350,6.102,-1.364,0.985,75.3,blue,226,TRUE
204,1660090457.902,2688,7658,750,2.874,-1.014,1.01,86.5,red,226,TRUE
205,1660090457.988,3770,-2513,882,4.568,-1.0,-0.439,90.7,yellow,226,TRUE
206,1660090458.351,2377,6821,3350,6.097,-1.368,1.026,75.1,blue,226,TRUE
207,1660090458.433,2685,7639,750,2.858,-1.016,0.977,84.4,red,226,TRUE
208,1660090458.518,3747,-2507,882,4.568,-0.999,-0.437,90.5,yellow,226,TRUE
209,1660090458.821,2353,6611,3350,6.064,-1.376,1.024,74.2,blue,226,TRUE
210,1660090458.898,2689,7619,750,2.853,-1.019,0.992,88.1,red,226,TRUE
211,1660090458.987,3766,-2515,882,4.568,-0.998,-0.436,91.2,yellow,226,TRUE
212,1660090459.289,2377,6528,3350,6.069,-1.376,0.99,74.8,blue,226,TRUE
213,1660090459.369,2695,7608,750,2.863,-1.018,1.001,84.4,red,226,TRUE
214,1660090459.456,3765,-2512,882,4.569,-1.01,-0.468,89.0,yellow,226,TRUE
215,1660090459.801,2377,6528,3350,6.08,-1.366,0.968,76.3,blue,226,TRUE
216,1660090459.88,2701,7619,750,2.86,-1.022,1.008,87.9,red,226,TRUE
217,1660090459.969,3792,-2511,882,4.565,-0.992,-0.43,89.5,yellow,226,TRUE
218,1660090460.287,2377,6528,3350,6.085,-1.365,0.972,74.3,blue,226,TRUE
219,1660090460.362,2708,7612,750,2.863,-1.025,1.024,88.9,red,226,TRUE
220,1660090460.456,3908,-2444,882,4.586,-0.99,-0.375,87.0,yellow,226,TRUE
221,1660090460.757,2377,6528,3350,6.085,-1.368,1.005,75.5,blue,226,TRUE
222,1660090460.832,2717,7607,750,2.884,-1.021,1.02,89.7,red,226,TRUE
223,1660090460.925,3921,-2443,882,4.602,-0.952,-0.364,88.3,yellow,226,TRUE
224,1660090461.285,2377,6528,3350,6.08,-1.369,1.019,74.0,blue,226,TRUE
225,1660090461.359,2717,7608,750,2.875,-1.019,1.031,91.6,red,226,TRUE
226,1660090461.458,3902,-2457,882,4.587,-0.945,-0.37,97.0,yellow,226,TRUE
227,1660090461.767,2377,6528,3350,6.085,-1.372,1.061,75.4,blue,226,TRUE
228,1660090461.842,2719,7634,750,2.874,-1.018,1.026,91.2,red,226,TRUE
229,1660090461.937,3858,-2440,882,4.58,-0.98,-0.385,86.1,yellow,226,TRUE
230,1660090462.22,2412,6419,3350,6.268,-1.356,1.199,74.1,blue,226,TRUE
231,1660090462.295,2716,7650,750,2.872,-1.022,1.037,89.9,red,226,TRUE
232,1660090462.51,3088,-2833,2526,5.204,-0.621,0.032,88.5,green,226,TRUE
233,1660090462.779,2412,6419,3350,6.201,-1.355,1.157,75.3,blue,226,TRUE
234,1660090462.857,2714,7666,750,2.875,-1.022,1.045,87.5,red,226,TRUE
235,1660090462.945,3864,-2437,882,4.576,-1.007,-0.43,89.8,yellow,226,TRUE
236,1660090464.322,2412,6419,3350,6.113,-1.378,1.141,68.8,blue,226,TRUE
237,1660090464.396,2713,7669,750,2.858,-1.018,1.024,84.1,red,226,TRUE
238,1660090464.481,3882,-2450,882,4.596,-0.978,-0.336,90.4,yellow,226,TRUE
239,1660090466.902,2479,6444,3350,6.126,-1.391,1.146,82.6,blue,226,TRUE
240,1660090466.987,2704,7652,750,2.872,-0.999,1.03,86.1,red,226,TRUE
241,1660090467.081,3887,-2464,882,4.589,-0.982,-0.333,84.7,yellow,226,TRUE
242,1660090468.521,2485,6485,3350,6.134,-1.395,1.141,76.1,blue,226,TRUE
243,1660090468.599,2703,7651,750,2.861,-1.004,1.033,89.8,red,226,TRUE
244,1660090468.701,3886,-2485,882,4.586,-0.988,-0.339,92.4,yellow,226,TRUE
245,1660090469.037,2475,6487,3350,6.138,-1.392,1.119,75.6,blue,226,TRUE
246,1660090469.125,2706,7649,750,2.862,-1.005,1.032,91.8,red,226,TRUE
247,1660090469.218,3902,-2497,882,4.586,-0.987,-0.339,88.4,yellow,226,TRUE
248,1660090470.455,2517,6452,3350,6.136,-1.394,1.17,90.8,blue,226,TRUE
249,1660090470.547,2707,7642,750,2.866,-1.002,1.033,88.9,red,226,TRUE
250,1660090470.644,3916,-2508,882,4.586,-0.988,-0.338,96.5,yellow,226,TRUE
251,1660090470.985,2575,6487,3350,6.136,-1.392,1.153,89.1,blue,226,TRUE
252,1660090471.087,2700,7620,750,2.863,-0.997,1.026,93.3,red,226,TRUE
253,1660090471.193,3909,-2506,882,4.586,-0.986,-0.338,93.4,yellow,226,TRUE
254,1660090471.499,2569,6463,3350,6.149,-1.389,1.12,89.0,blue,226,TRUE
255,1660090471.601,2691,7626,750,2.858,-0.99,1.021,91.4,red,226,TRUE
256,1660090471.706,3790,-2576,882,4.589,-0.978,-0.319,77.7,yellow,226,TRUE
257,1660090471.964,2590,6502,3350,6.15,-1.392,1.11,90.0,blue,226,TRUE
258,1660090472.067,2692,7603,750,2.856,-0.994,1.018,92.0,red,226,TRUE
259,1660090472.173,3766,-2576,882,4.6,-0.928,-0.295,77.0,yellow,226,TRUE
260,1660090472.495,2616,6491,3350,6.137,-1.391,1.049,89.7,blue,226,TRUE
261,1660090472.598,2701,7594,750,2.83,-0.99,1.014,92.3,red,226,TRUE
262,1660090472.703,3773,-2586,882,4.636,-0.865,-0.273,77.4,yellow,226,TRUE
263,1660090472.961,2682,6561,3350,6.128,-1.392,1.071,90.8,blue,226,TRUE
264,1660090473.053,2697,7575,750,2.787,-0.956,1.01,88.5,red,226,TRUE
265,1660090473.155,3821,-2607,882,4.567,-0.905,-0.392,77.2,yellow,226,TRUE
266,1660090473.416,2698,6561,3350,6.126,-1.4,1.082,74.4,blue,226,TRUE
267,1660090473.503,2707,7570,750,2.503,-0.978,1.115,92.7,red,226,TRUE
268,1660090473.609,3819,-2615,882,4.554,-0.981,-0.466,92.2,yellow,226,TRUE
269,1660090473.943,2722,6559,3350,6.124,-1.402,1.09,89.9,blue,226,TRUE
270,1660090474.046,2718,7567,750,2.206,-1.07,0.963,91.9,red,226,TRUE
271,1660090475.485,2720,6563,3350,6.108,-1.391,1.066,75.9,blue,226,TRUE
272,1660090475.571,2733,7583,750,2.695,-1.03,1.081,91.3,red,226,TRUE
273,1660090475.676,3826,-2611,882,4.596,-0.971,-0.341,91.7,yellow,226,TRUE
274,1660090475.95,2705,6475,3350,6.108,-1.392,1.078,95.0,blue,226,TRUE
275,1660090476.054,2759,7596,750,2.683,-1.059,1.144,94.3,red,226,TRUE
276,1660090476.159,3826,-2597,882,4.601,-0.972,-0.346,93.3,yellow,226,TRUE
277,1660090476.493,2729,6447,3350,6.116,-1.395,1.094,89.7,blue,226,TRUE
278,1660090476.597,2773,7604,750,2.669,-1.071,1.174,92.0,red,226,TRUE
279,1660090476.703,3830,-2581,882,4.6,-0.968,-0.345,91.6,yellow,226,TRUE
280,1660090477.039,2783,6443,3350,6.094,-1.4,1.134,89.1,blue,226,TRUE
281,1660090477.141,2783,7609,750,2.692,-1.053,1.173,92.0,red,226,TRUE
282,1660090477.234,3842,-2561,882,4.6,-0.97,-0.346,90.7,yellow,226,TRUE
283,1660090477.503,2754,6441,3350,6.058,-1.434,1.211,91.7,blue,226,TRUE
284,1660090477.609,2801,7615,750,2.678,-1.05,1.174,93.0,red,226,TRUE
285,1660090477.714,3834,-2547,882,4.6,-0.97,-0.346,94.9,yellow,226,TRUE
286,1660090478.002,2700,6491,3350,5.977,-1.469,3.055,78.1,blue,226,TRUE
287,1660090478.094,2822,7622,750,2.68,-1.042,1.173,92.2,red,226,TRUE
288,1660090478.199,3841,-2538,882,4.6,-0.972,-0.347,90.8,yellow,226,TRUE
289,1660090478.533,2700,6396,3350,5.983,-1.453,3.066,75.3,blue,226,TRUE
290,1660090478.621,2844,7634,750,2.683,-1.04,1.149,92.3,red,226,TRUE
291,1660090478.715,3841,-2533,882,4.599,-0.977,-0.353,92.8,yellow,226,TRUE
292,1660090479.013,2693,6304,3350,5.97,-1.453,3.06,77.4,blue,226,TRUE
293,1660090479.103,2858,7647,750,2.692,-1.035,1.145,92.1,red,226,TRUE
294,1660090479.209,3837,-2513,882,4.6,-0.98,-0.356,92.3,yellow,226,TRUE
295,1660090479.485,2645,6341,3350,5.881,-1.489,3.088,75.1,blue,226,TRUE
296,1660090479.573,2871,7674,750,2.699,-1.03,1.164,93.5,red,226,TRUE
297,1660090479.679,3851,-2500,882,4.6,-0.978,-0.356,92.4,yellow,226,TRUE
298,1660090480.013,2645,6341,3350,5.954,-1.479,3.053,74.9,blue,226,TRUE
299,1660090480.102,2889,7691,750,2.714,-1.03,1.154,92.5,red,226,TRUE
300,1660090480.207,3878,-2481,882,4.6,-0.978,-0.356,94.1,yellow,226,TRUE
301,1660090480.484,2630,6396,3350,5.997,-1.47,3.063,89.7,blue,226,TRUE
302,1660090480.587,2895,7695,750,2.7,-1.032,1.158,92.6,red,226,TRUE
303,1660090480.692,3888,-2476,882,4.6,-0.98,-0.356,92.8,yellow,226,TRUE
304,1660090480.966,2619,6499,3350,5.98,-1.464,3.07,88.1,blue,226,TRUE
305,1660090481.068,2900,7699,750,2.704,-1.031,1.157,91.9,red,226,TRUE
306,1660090481.174,3897,-2478,882,4.601,-0.98,-0.358,92.7,yellow,226,TRUE
307,1660090481.283,3161,-2856,2526,5.223,-0.538,0.046,88.0,green,226,TRUE
308,1660090481.553,2604,6591,3350,5.979,-1.463,3.069,89.7,blue,226,TRUE
309,1660090481.657,2899,7701,750,2.719,-1.037,1.15,91.5,red,226,TRUE
310,1660090481.75,3897,-2482,882,4.601,-0.98,-0.359,90.6,yellow,226,TRUE
311,1660090481.841,3162,-2839,2526,5.221,-0.531,0.046,89.7,green,226,TRUE
312,1660090482.126,2573,6733,3350,5.994,-1.466,3.052,92.0,blue,226,TRUE
313,1660090482.22,2900,7699,750,2.692,-1.04,1.155,89.6,red,226,TRUE
314,1660090482.309,3902,-2485,882,4.601,-0.98,-0.358,90.3,yellow,226,TRUE
315,1660090482.402,3182,-2838,2526,5.22,-0.521,0.047,88.0,green,226,TRUE
316,1660090482.685,2525,6805,3350,5.994,-1.458,3.03,92.4,blue,226,TRUE
317,1660090482.779,2900,7696,750,2.645,-1.035,1.154,90.4,red,226,TRUE
318,1660090482.869,3903,-2485,882,4.601,-0.98,-0.358,90.2,yellow,226,TRUE
319,1660090482.962,3187,-2821,2526,5.221,-0.525,0.048,85.7,green,226,TRUE
320,1660090483.25,2485,6844,3350,5.994,-1.448,1.502,86.7,blue,226,TRUE
321,1660090483.338,2905,7694,750,2.647,-1.028,1.145,90.0,red,226,TRUE
322,1660090483.434,3911,-2491,882,4.601,-0.98,-0.358,85.1,yellow,226,TRUE
323,1660090483.52,3186,-2806,2526,5.222,-0.54,0.045,87.5,green,226,TRUE
324,1660090483.819,2449,6957,3350,5.983,-1.441,1.455,91.1,blue,226,TRUE
325,1660090483.912,2908,7697,750,2.655,-1.021,1.16,91.8,red,226,TRUE
326,1660090484.006,3910,-2493,882,4.601,-0.98,-0.358,86.5,yellow,226,TRUE
327,1660090484.104,3157,-2781,2526,5.222,-0.548,0.046,93.2,green,226,TRUE
328,1660090484.409,2451,6998,3350,5.996,-1.426,1.282,91.4,blue,226,TRUE
329,1660090484.506,2903,7701,750,2.64,-1.024,1.154,85.5,red,226,TRUE
330,1660090484.592,3912,-2495,882,4.601,-0.978,-0.357,88.1,yellow,226,TRUE
331,1660090484.695,3124,-2750,2526,5.221,-0.537,0.044,95.2,green,226,TRUE
332,1660090484.972,2451,6994,3350,0.489,-1.299,0.924,87.2,blue,226,TRUE
333,1660090485.06,2905,7698,750,2.638,-1.026,1.138,92.4,red,226,TRUE
334,1660090485.162,3901,-2492,882,4.601,-0.978,-0.357,92.2,yellow,226,TRUE
335,1660090485.255,3137,-2744,2526,5.221,-0.526,0.045,88.8,green,226,TRUE
336,1660090485.544,2439,7086,3350,1.345,-1.388,1.161,86.8,blue,226,TRUE
337,1660090485.644,2906,7700,750,2.646,-1.024,1.104,92.1,red,226,TRUE
338,1660090485.736,3924,-2502,882,4.596,-0.976,-0.384,94.1,yellow,226,TRUE
339,1660090487.179,2473,7132,3350,2.002,-1.506,3.084,95.4,blue,226,TRUE
340,1660090487.276,2917,7690,750,1.648,-1.238,1.008,89.2,red,226,TRUE
341,1660090487.365,3940,-2508,882,4.62,-0.963,-0.317,90.7,yellow,226,TRUE
342,1660090488.808,2539,7063,3350,1.881,-1.468,3.039,83.4,blue,226,TRUE
343,1660090489.984,3938,-2518,882,4.62,-0.912,-0.271,87.4,yellow,226,TRUE
344,1660090492.389,2652,6956,3350,1.576,-1.427,0.651,98.7,blue,226,TRUE
345,1660090492.497,3007,7598,750,1.236,-1.031,0.995,91.2,red,226,TRUE
346,1660090492.595,3919,-2514,882,4.58,-1.0,-0.37,98.0,yellow,226,TRUE
347,1660090492.938,2757,6872,3350,1.668,-1.441,0.69,88.4,blue,226,TRUE
348,1660090493.026,3102,7489,750,1.39,-1.049,1.035,91.2,red,226,TRUE
349,1660090493.131,3914,-2514,882,4.59,-0.984,-0.361,91.2,yellow,226,TRUE
350,1660090493.403,2858,6772,3350,1.635,-1.46,0.075,89.7,blue,226,TRUE
351,1660090493.495,3196,7381,750,1.558,-1.055,1.034,85.4,red,226,TRUE
352,1660090493.581,3910,-2515,882,4.585,-0.982,-0.37,90.0,yellow,226,TRUE
353,1660090493.884,2987,6617,3350,1.702,-1.467,0.082,89.3,blue,226,TRUE
354,1660090493.976,3292,7280,750,1.631,-1.058,1.011,89.1,red,226,TRUE
355,1660090494.066,3911,-2521,882,4.586,-0.98,-0.358,88.0,yellow,226,TRUE
356,1660090494.415,3124,6532,3350,1.704,-1.458,0.074,86.0,blue,226,TRUE
357,1660090494.502,3385,7193,750,1.611,-1.053,1.028,89.5,red,226,TRUE
358,1660090494.605,3916,-2534,882,4.585,-0.984,-0.361,92.5,yellow,226,TRUE
359,1660090494.909,3256,6412,3350,1.726,-1.442,0.796,90.7,blue,226,TRUE
360,1660090495.003,3484,7099,750,1.634,-1.053,1.011,86.0,red,226,TRUE
361,1660090495.09,3920,-2540,882,4.585,-0.985,-0.361,91.3,yellow,226,TRUE
362,1660090495.391,3381,6239,3350,1.705,-1.424,0.756,89.7,blue,226,TRUE
363,1660090495.487,3578,7018,750,1.638,-1.055,1.005,98.0,red,226,TRUE
364,1660090495.587,3928,-2552,882,4.585,-0.984,-0.36,87.9,yellow,226,TRUE
365,1660090495.936,3501,6123,3350,1.681,-1.427,0.721,86.5,blue,226,TRUE
366,1660090496.023,3661,6916,750,1.622,-1.056,0.997,90.0,red,226,TRUE
367,1660090496.126,3910,-2554,882,4.585,-0.983,-0.36,92.1,yellow,226,TRUE
368,1660090496.418,3607,6007,3350,1.672,-1.43,0.725,88.8,blue,226,TRUE
369,1660090496.51,3752,6813,750,1.61,-1.064,0.989,88.7,red,226,TRUE
370,1660090496.599,3913,-2553,882,4.585,-0.983,-0.362,89.9,yellow,226,TRUE
371,1660090496.9,3710,5919,3350,1.67,-1.43,0.721,90.8,blue,226,TRUE
372,1660090498.064,3898,-2555,882,4.54,-0.974,-0.408,90.1,yellow,226,TRUE
373,1660090499.334,3767,5880,3350,1.673,-1.428,0.725,88.4,blue,226,TRUE
374,1660090499.432,3835,6726,750,1.58,-1.05,1.006,96.1,red,226,TRUE
375,1660090499.53,3848,-2555,882,4.533,-0.953,-0.405,76.0,yellow,226,TRUE
376,1660090499.639,3176,-2765,2526,5.191,-0.596,0.105,87.7,green,226,TRUE
377,1660090499.909,3814,5831,3350,1.676,-1.427,0.72,87.3,blue,226,TRUE
378,1660090499.997,3919,6624,750,1.584,-1.053,0.988,88.0,red,226,TRUE
379,1660090500.099,3842,-2560,882,4.514,-0.926,-0.4,78.1,yellow,226,TRUE
380,1660090500.191,3243,-2766,2526,5.192,-0.593,0.11,91.9,green,226,TRUE
381,1660090501.434,3800,5807,3350,1.669,-1.438,0.792,91.1,blue,226,TRUE
382,1660090501.528,3994,6523,750,1.565,-1.056,0.984,97.1,red,226,TRUE
383,1660090501.632,3853,-2560,882,4.566,-0.998,-0.397,84.9,yellow,226,TRUE
384,1660090501.719,3226,-2752,2526,5.193,-0.58,0.085,88.1,green,226,TRUE
385,1660090503.0,3804,5770,3350,1.648,-1.451,0.083,88.1,blue,226,TRUE
386,1660090503.089,3987,6513,750,1.577,-1.046,1.02,89.6,red,226,TRUE
387,1660090503.186,3864,-2575,882,4.667,-0.908,-0.301,84.2,yellow,226,TRUE
388,1660090503.271,3226,-2749,2526,5.189,-0.557,0.088,118.8,green,226,TRUE
389,1660090504.643,3800,5751,3350,1.719,-1.422,0.772,92.2,blue,226,TRUE
390,1660090504.736,3984,6503,750,1.558,-1.06,1.017,89.0,red,226,TRUE
391,1660090504.832,3849,-2578,882,4.684,-0.972,-0.411,84.7,yellow,226,TRUE
392,1660090504.92,3183,-2748,2526,5.192,-0.585,0.082,71.6,green,226,TRUE
393,1660090505.232,3790,5733,3350,1.721,-1.424,0.779,92.5,blue,226,TRUE
394,1660090505.326,3987,6498,750,1.388,-1.045,1.05,90.1,red,226,TRUE
395,1660090505.417,3827,-2570,882,4.744,-1.016,-0.423,88.9,yellow,226,TRUE
396,1660090505.51,3192,-2777,2526,5.19,-0.587,0.097,88.1,green,226,TRUE
397,1660090506.834,3788,5719,3350,1.708,-1.428,0.768,90.9,blue,226,TRUE
398,1660090506.925,3984,6490,750,1.357,-1.11,1.289,90.1,red,226,TRUE
399,1660090507.023,3807,-2555,882,4.723,-1.006,-0.44,82.9,yellow,226,TRUE
400,1660090507.107,3249,-2814,2526,5.195,-0.55,0.116,89.3,green,226,TRUE
401,1660090508.451,3787,5710,3350,1.702,-1.427,0.766,90.4,blue,226,TRUE
402,1660090508.544,3979,6487,750,1.324,-1.098,1.167,89.1,red,226,TRUE
403,1660090508.644,3782,-2534,882,4.724,-1.002,-0.431,94.1,yellow,226,TRUE
404,1660090508.739,3203,-2812,2526,5.201,-0.565,0.084,73.4,green,226,TRUE
405,1660090510.052,3788,5700,3350,1.707,-1.428,0.765,91.3,blue,226,TRUE
406,1660090510.144,3975,6490,750,1.343,-1.092,1.152,88.3,red,226,TRUE
407,1660090510.238,3757,-2519,882,4.722,-1.0,-0.427,84.3,yellow,226,TRUE
408,1660090510.325,3203,-2837,2526,5.201,-0.555,0.087,74.8,green,226,TRUE
409,1660090510.552,3788,5699,3350,1.707,-1.429,0.768,88.4,blue,226,TRUE
410,1660090510.641,3969,6481,750,1.342,-1.09,1.13,91.5,red,226,TRUE
411,1660090510.739,3746,-2503,882,4.721,-1.005,-0.43,83.2,yellow,226,TRUE
412,1660090510.824,3149,-2828,2526,5.202,-0.551,0.089,75.5,green,226,TRUE
413,1660090511.003,3789,5694,3350,1.701,-1.438,0.8,91.1,blue,226,TRUE
414,1660090511.108,3973,6490,750,1.333,-1.086,1.107,92.0,red,226,TRUE
415,1660090511.213,3729,-2498,882,4.722,-1.004,-0.43,91.8,yellow,226,TRUE
416,1660090511.305,3088,-2817,2526,5.203,-0.557,0.091,75.2,green,226,TRUE
417,1660090511.478,3791,5692,3350,1.733,-1.41,0.614,96.2,blue,226,TRUE
418,1660090511.576,3976,6500,750,1.338,-1.091,1.098,91.1,red,226,TRUE
419,1660090511.68,3708,-2483,882,4.725,-1.0,-0.422,77.5,yellow,226,TRUE
420,1660090511.758,3037,-2806,2526,5.204,-0.564,0.081,75.6,green,226,TRUE
421,1660090512.046,3819,5716,3350,1.758,-1.188,0.268,91.1,blue,226,TRUE
422,1660090512.15,3975,6488,750,1.345,-1.081,1.096,92.1,red,226,TRUE
423,1660090512.243,3735,-2473,882,4.728,-0.984,-0.41,89.7,yellow,226,TRUE
424,1660090512.334,2960,-2770,2526,5.203,-0.562,0.072,89.0,green,226,TRUE
425,1660090512.609,3826,5714,3350,1.764,-1.173,0.271,87.0,blue,226,TRUE
426,1660090512.697,3983,6489,750,1.34,-1.083,1.094,89.6,red,226,TRUE
427,1660090512.787,3728,-2450,882,4.728,-0.99,-0.413,90.3,yellow,226,TRUE
428,1660090512.877,2883,-2731,2526,5.203,-0.553,0.075,74.9,green,226,TRUE
429,1660090513.148,3845,5727,3350,1.761,-1.21,0.317,93.0,blue,226,TRUE
430,1660090513.242,3982,6496,750,1.338,-1.091,1.094,88.9,red,226,TRUE
431,1660090513.331,3724,-2445,882,4.728,-0.99,-0.413,91.1,yellow,226,TRUE
432,1660090513.425,2810,-2696,2526,5.204,-0.549,0.079,72.4,green,226,TRUE
433,1660090513.678,3849,5727,3350,1.788,-1.259,0.38,89.1,blue,226,TRUE
434,1660090513.768,3996,6497,750,1.353,-1.094,1.114,90.5,red,226,TRUE
435,1660090513.859,3705,-2423,882,4.728,-0.99,-0.413,89.8,yellow,226,TRUE
436,1660090513.952,2734,-2657,2526,5.205,-0.541,0.083,72.1,green,226,TRUE
437,1660090514.233,3854,5728,3350,1.81,-1.281,0.412,92.6,blue,226,TRUE
438,1660090514.327,3999,6520,750,1.344,-1.094,1.127,90.9,red,226,TRUE
439,1660090514.418,3717,-2410,882,4.724,-0.992,-0.417,90.7,yellow,226,TRUE
440,1660090514.512,2730,-2657,2526,5.207,-0.521,0.085,72.5,green,226,TRUE
441,1660090514.782,3857,5739,3350,1.68,-1.295,0.386,89.6,blue,226,TRUE
442,1660090514.871,3997,6531,750,1.328,-1.1,1.122,91.3,red,226,TRUE
443,1660090514.965,3723,-2409,882,4.723,-0.992,-0.415,87.8,yellow,226,TRUE
444,1660090515.054,2720,-2652,2526,5.208,-0.515,0.088,89.9,green,226,TRUE
445,1660090515.342,3853,5780,3350,1.488,-1.392,1.032,90.5,blue,226,TRUE
446,1660090515.437,3998,6531,750,1.17,-1.081,0.948,84.8,red,226,TRUE
447,1660090515.523,3725,-2403,882,4.721,-0.998,-0.422,90.7,yellow,226,TRUE
448,1660090515.617,2626,-2615,2526,5.209,-0.526,0.092,72.3,green,226,TRUE
449,1660090515.871,3853,5772,3350,1.938,-1.361,0.916,90.1,blue,226,TRUE
450,1660090515.964,3986,6544,750,1.106,-1.101,1.153,92.1,red,226,TRUE
451,1660090516.171,2620,-2610,2526,5.21,-0.536,0.091,77.6,green,226,TRUE
452,1660090516.434,3844,5673,3350,2.472,-1.427,0.923,89.3,blue,226,TRUE
453,1660090516.526,3952,6546,750,1.384,-1.094,1.03,85.4,red,226,TRUE
454,1660090516.615,3734,-2402,882,4.721,-0.998,-0.421,86.0,yellow,226,TRUE
455,1660090516.703,2556,-2571,2526,5.21,-0.541,0.089,74.1,green,226,TRUE
456,1660090516.99,3873,5553,3350,2.749,-1.494,0.048,89.1,blue,226,TRUE
457,1660090517.082,3883,6549,750,1.864,-1.141,1.506,88.1,red,226,TRUE
458,1660090517.183,3746,-2397,882,4.721,-0.996,-0.42,90.7,yellow,226,TRUE
459,1660090517.274,2561,-2574,2526,5.21,-0.54,0.089,77.5,green,226,TRUE
460,1660090517.533,3911,5399,3350,2.896,-1.379,1.108,89.6,blue,226,TRUE
461,1660090517.625,3867,6476,750,2.147,-1.249,1.388,89.4,red,226,TRUE
462,1660090517.715,3751,-2398,882,4.721,-0.993,-0.409,89.9,yellow,226,TRUE
463,1660090517.806,2566,-2578,2526,5.211,-0.533,0.092,75.6,green,226,TRUE
464,1660090518.068,3969,5218,3350,2.845,-1.428,0.709,83.0,blue,226,TRUE
465,1660090518.166,3809,6424,750,2.539,-1.156,0.987,78.0,red,226,TRUE
466,1660090518.244,3766,-2408,882,4.731,-0.978,-0.377,89.3,yellow,226,TRUE
467,1660090518.333,2627,-2615,2526,5.211,-0.526,0.094,89.7,green,226,TRUE
468,1660090518.609,4014,4982,3350,2.511,-1.346,1.163,85.8,blue,226,TRUE
469,1660090518.695,3745,6366,750,2.281,-1.107,1.006,89.7,red,226,TRUE
470,1660090518.786,3779,-2411,882,4.751,-0.94,-0.348,92.9,yellow,226,TRUE
471,1660090518.879,2630,-2622,2526,5.212,-0.527,0.095,73.6,green,226,TRUE
472,1660090519.146,4133,4771,3350,2.166,-1.413,0.918,91.6,blue,226,TRUE
473,1660090519.244,3748,6291,750,2.099,-1.144,1.145,85.6,red,226,TRUE
474,1660090519.329,3766,-2414,882,4.728,-1.036,-0.479,90.9,yellow,226,TRUE
475,1660090519.423,2657,-2644,2526,5.212,-0.533,0.094,88.0,green,226,TRUE
476,1660090519.693,4320,4540,3350,2.268,-1.342,0.647,89.5,blue,226,TRUE
477,1660090519.783,3691,6225,750,2.159,-1.201,1.254,76.1,red,226,TRUE
478,1660090519.859,3767,-2413,882,4.735,-1.001,-0.428,91.6,yellow,226,TRUE
479,1660090519.953,2663,-2650,2526,5.212,-0.537,0.094,72.8,green,226,TRUE
480,1660090520.235,4498,4282,3350,2.63,-1.401,0.963,93.0,blue,226,TRUE
481,1660090520.329,3639,6093,750,2.573,-1.199,1.326,89.3,red,226,TRUE
482,1660090520.419,3764,-2410,882,4.733,-1.006,-0.43,88.9,yellow,226,TRUE
483,1660090520.511,2672,-2660,2526,5.212,-0.535,0.095,72.7,green,226,TRUE
484,1660090520.763,4647,3981,3350,4.22,-1.379,1.62,90.7,blue,226,TRUE
485,1660090520.855,3586,5963,750,2.466,-1.238,1.114,91.6,red,226,TRUE
486,1660090520.95,3767,-2403,882,4.733,-1.001,-0.427,87.9,yellow,226,TRUE
487,1660090521.038,2721,-2687,2526,5.213,-0.525,0.096,76.9,green,226,TRUE
488,1660090521.343,4809,3747,3350,4.696,-1.405,1.557,91.5,blue,226,TRUE
489,1660090521.436,3543,5839,750,2.035,-1.217,1.26,90.1,red,226,TRUE
490,1660090521.528,3765,-2400,882,4.731,-0.993,-0.42,88.8,yellow,226,TRUE
491,1660090521.621,2681,-2667,2526,5.213,-0.526,0.096,83.8,green,226,TRUE
492,1660090521.887,4995,3484,3350,4.279,-1.42,1.379,89.7,blue,226,TRUE
493,1660090521.979,3497,5747,750,1.986,-1.154,1.224,87.6,red,226,TRUE
494,1660090522.068,3759,-2400,882,4.736,-0.996,-0.409,88.5,yellow,226,TRUE
495,1660090522.171,2677,-2663,2526,5.215,-0.541,0.094,77.4,green,226,TRUE
496,1660090522.432,5157,3274,3350,4.015,-1.415,1.173,93.1,blue,226,TRUE
497,1660090522.644,3761,-2404,882,4.733,-0.989,-0.413,88.7,yellow,226,TRUE
498,1660090522.733,2664,-2656,2526,5.215,-0.543,0.093,74.0,green,226,TRUE
499,1660090523.007,5331,3157,3350,3.875,-1.408,1.084,89.3,blue,226,TRUE
500,1660090523.097,3433,5407,750,0.897,-1.276,1.558,73.1,red,226,TRUE
501,1660090523.184,3750,-2414,882,4.727,-0.987,-0.428,91.3,yellow,226,TRUE
502,1660090523.276,2679,-2672,2526,5.215,-0.542,0.093,75.3,green,226,TRUE
503,1660090523.534,5474,3057,3350,3.796,-1.407,1.079,89.6,blue,226,TRUE
504,1660090523.626,3393,5328,750,1.217,-1.245,1.65,74.9,red,226,TRUE
505,1660090523.701,3741,-2419,882,4.736,-1.006,-0.369,89.9,yellow,226,TRUE
506,1660090523.792,2681,-2678,2526,5.215,-0.536,0.094,73.6,green,226,TRUE
507,1660090525.058,5638,2965,3350,2.988,-1.438,0.514,89.9,blue,226,TRUE
508,1660090525.149,3376,5340,750,1.582,-1.155,1.344,90.3,red,226,TRUE
509,1660090525.248,3743,-2436,882,4.752,-1.211,-0.015,81.7,yellow,226,TRUE
510,1660090525.332,2683,-2680,2526,5.216,-0.54,0.089,72.5,green,226,TRUE
511,1660090525.587,5755,2900,3350,3.026,-1.441,1.209,89.9,blue,226,TRUE
512,1660090525.68,3409,5330,750,1.573,-1.168,1.377,87.3,red,226,TRUE
513,1660090525.768,3720,-2432,882,4.771,-1.211,0.049,88.9,yellow,226,TRUE
514,1660090525.858,2615,-2640,2526,5.214,-0.533,0.057,73.9,green,226,TRUE
515,1660090526.126,5870,2858,3350,3.154,-1.41,1.299,91.9,blue,226,TRUE
516,1660090526.231,3448,5316,750,1.518,-1.179,1.289,92.1,red,226,TRUE
517,1660090526.324,3719,-2442,882,4.758,-1.182,-0.073,91.2,yellow,226,TRUE
518,1660090526.416,2601,-2630,2526,5.213,-0.531,0.063,75.2,green,226,TRUE
519,1660090527.653,5928,2799,3350,1.706,-1.474,0.096,87.2,blue,226,TRUE
520,1660090527.741,3411,5313,750,1.528,-1.185,1.268,88.8,red,226,TRUE
521,1660090527.838,3758,-2454,882,4.685,-0.997,-0.574,84.1,yellow,226,TRUE
522,1660090527.923,2729,-2668,2526,5.213,-0.525,0.071,74.0,green,226,TRUE
523,1660090528.191,5910,2747,3350,1.636,-1.444,2.001,93.0,blue,226,TRUE
524,1660090528.284,3438,5303,750,1.516,-1.187,1.248,90.2,red,226,TRUE
525,1660090528.375,3755,-2458,882,4.7,-1.043,-0.493,91.2,yellow,226,TRUE
526,1660090528.469,2728,-2666,2526,5.213,-0.552,0.085,73.6,green,226,TRUE
527,1660090529.756,5945,2753,3350,1.547,-1.448,1.753,90.9,blue,226,TRUE
528,1660090529.85,3457,5350,750,1.662,-1.148,1.139,98.9,red,226,TRUE
529,1660090529.957,3764,-2475,882,4.703,-1.037,-0.492,97.8,yellow,226,TRUE
530,1660090530.056,2725,-2662,2526,5.215,-0.55,0.069,72.0,green,226,TRUE
531,1660090530.327,5981,2796,3350,1.688,-1.431,1.58,89.4,blue,226,TRUE
532,1660090530.418,3471,5437,750,1.766,-1.131,1.097,93.3,red,226,TRUE
533,1660090530.517,3760,-2482,882,4.699,-1.05,-0.49,96.7,yellow,226,TRUE
534,1660090530.615,2677,-2634,2526,5.215,-0.54,0.07,89.1,green,226,TRUE
535,1660090530.901,5990,2762,3350,1.578,-1.426,1.424,90.7,blue,226,TRUE
536,1660090530.994,3477,5453,750,2.05,-1.112,1.068,88.6,red,226,TRUE
537,1660090531.084,3764,-2488,882,4.704,-1.025,-0.449,90.0,yellow,226,TRUE
538,1660090531.188,2655,-2619,2526,5.215,-0.536,0.071,91.8,green,226,TRUE
539,1660090532.441,6064,2737,3350,1.516,-1.438,1.373,88.7,blue,226,TRUE
540,1660090532.531,3507,5473,750,2.006,-1.132,1.173,89.4,red,226,TRUE
541,1660090532.625,3769,-2489,882,4.704,-1.022,-0.439,85.6,yellow,226,TRUE
542,1660090532.714,2635,-2604,2526,5.217,-0.551,0.065,85.5,green,226,TRUE
543,1660090532.985,6086,2696,3350,1.584,-1.366,0.81,87.2,blue,226,TRUE
544,1660090533.073,3555,5552,750,1.961,-1.146,1.186,90.8,red,226,TRUE
545,1660090533.177,3766,-2491,882,4.7,-1.021,-0.442,92.8,yellow,226,TRUE
546,1660090533.27,2652,-2614,2526,5.217,-0.549,0.064,91.5,green,226,TRUE
547,1660090533.543,6153,2615,3350,1.732,-1.424,1.257,88.3,blue,226,TRUE
548,1660090533.633,3573,5626,750,1.923,-1.152,1.196,89.3,red,226,TRUE
549,1660090533.725,3775,-2489,882,4.701,-1.02,-0.439,87.9,yellow,226,TRUE
550,1660090533.814,2706,-2643,2526,5.214,-0.541,0.074,88.3,green,226,TRUE
551,1660090534.085,6194,2556,3350,1.612,-1.427,1.82,90.0,blue,226,TRUE
552,1660090534.189,3665,5620,750,1.931,-1.141,1.177,96.9,red,226,TRUE
553,1660090534.287,3773,-2489,882,4.701,-1.019,-0.437,84.4,yellow,226,TRUE
554,1660090534.372,2742,-2647,2526,5.219,-0.533,0.101,90.5,green,226,TRUE
555,1660090534.646,6156,2563,3350,0.242,-1.319,0.243,91.0,blue,226,TRUE
556,1660090534.74,3677,5663,750,1.896,-1.144,1.12,89.5,red,226,TRUE
557,1660090534.831,3765,-2474,882,4.701,-1.028,-0.456,85.5,yellow,226,TRUE
558,1660090534.918,2775,-2659,2526,5.226,-0.553,0.129,88.8,green,226,TRUE
559,1660090535.201,6115,2589,3350,5.678,-1.377,0.429,90.7,blue,226,TRUE
560,1660090535.293,3678,5669,750,1.76,-1.148,1.133,88.8,red,226,TRUE
561,1660090535.382,3783,-2475,882,4.692,-1.049,-0.478,88.8,yellow,226,TRUE
562,1660090535.473,2820,-2681,2526,5.226,-0.565,0.128,87.8,green,226,TRUE
563,1660090535.742,6032,2643,3350,5.177,-1.382,0.993,88.3,blue,226,TRUE
564,1660090535.832,3696,5678,750,1.338,-1.181,1.109,89.6,red,226,TRUE
565,1660090535.922,3789,-2473,882,4.7,-1.009,-0.431,89.9,yellow,226,TRUE
566,1660090536.015,2872,-2704,2526,5.224,-0.553,0.123,87.6,green,226,TRUE
567,1660090536.315,5947,2737,3350,5.138,-1.376,0.777,88.6,blue,226,TRUE
568,1660090536.404,3706,5702,750,1.373,-1.209,1.021,90.5,red,226,TRUE
569,1660090536.498,3766,-2471,882,4.698,-1.024,-0.441,87.4,yellow,226,TRUE
570,1660090536.586,2763,-2668,2526,5.222,-0.547,0.119,89.2,green,226,TRUE
571,1660090536.856,5829,2868,3350,5.283,-1.366,0.714,90.6,blue,226,TRUE
572,1660090536.949,3737,5719,750,1.635,-1.197,1.229,87.0,red,226,TRUE
573,1660090537.037,3787,-2480,882,4.695,-1.03,-0.455,91.6,yellow,226,TRUE
574,1660090537.141,2799,-2684,2526,5.223,-0.552,0.118,92.6,green,226,TRUE
575,1660090537.429,5676,3016,3350,5.09,-1.278,0.941,90.3,blue,226,TRUE
576,1660090537.523,3754,5739,750,1.674,-1.18,1.239,87.5,red,226,TRUE
577,1660090537.611,3791,-2475,882,4.697,-1.034,-0.448,88.3,yellow,226,TRUE
578,1660090537.7,2832,-2700,2526,5.224,-0.565,0.117,89.5,green,226,TRUE
579,1660090537.974,5541,3203,3350,4.964,-1.353,0.642,90.9,blue,226,TRUE
580,1660090538.065,3781,5721,750,1.841,-1.148,1.218,91.1,red,226,TRUE
581,1660090538.169,3824,-2481,882,4.705,-1.02,-0.454,92.8,yellow,226,TRUE
582,1660090538.263,2857,-2710,2526,5.224,-0.557,0.115,89.7,green,226,TRUE
583,1660090538.534,5380,3359,3350,4.357,-1.358,0.69,89.1,blue,226,TRUE
584,1660090538.624,3814,5770,750,2.149,-1.092,1.156,89.0,red,226,TRUE
585,1660090538.713,3820,-2487,882,4.699,-1.035,-0.502,89.7,yellow,226,TRUE
586,1660090538.806,2908,-2727,2526,5.224,-0.548,0.113,89.0,green,226,TRUE
587,1660090539.075,5155,3519,3350,3.535,-1.43,0.722,90.8,blue,226,TRUE
588,1660090539.179,3826,5729,750,2.386,-1.093,0.934,90.8,red,226,TRUE
589,1660090539.271,3825,-2487,882,4.725,-1.067,-0.449,89.5,yellow,226,TRUE
590,1660090539.361,2964,-2759,2526,5.226,-0.532,0.107,105.2,green,226,TRUE
591,1660090539.648,5024,3668,3350,3.126,-1.42,0.646,88.9,blue,226,TRUE
592,1660090539.737,3842,5646,750,2.415,-1.155,0.826,89.6,red,226,TRUE
593,1660090539.83,3843,-2483,882,4.709,-1.045,-0.46,87.6,yellow,226,TRUE
594,1660090539.918,3026,-2790,2526,5.227,-0.561,0.084,89.1,green,226,TRUE
595,1660090540.202,4827,3835,3350,3.006,-1.404,0.834,92.6,blue,226,TRUE
596,1660090540.295,3860,5542,750,2.294,-1.119,0.876,89.1,red,226,TRUE
597,1660090540.385,3845,-2480,882,4.701,-1.06,-0.478,94.9,yellow,226,TRUE
598,1660090540.487,3057,-2792,2526,5.228,-0.565,0.084,109.4,green,226,TRUE
599,1660090540.779,4657,3989,3350,3.138,-1.371,0.924,87.8,blue,226,TRUE
600,1660090540.867,3873,5389,750,2.458,-1.092,0.866,90.2,red,226,TRUE
601,1660090540.959,3858,-2478,882,4.704,-1.04,-0.449,90.8,yellow,226,TRUE
602,1660090541.05,3097,-2820,2526,5.229,-0.56,0.085,119.5,green,226,TRUE
603,1660090541.366,4535,4102,3350,3.109,-1.343,0.897,89.9,blue,226,TRUE
604,1660090541.458,3894,5135,750,2.645,-1.125,0.757,89.1,red,226,TRUE
605,1660090541.548,3867,-2474,882,4.705,-1.052,-0.46,89.4,yellow,226,TRUE
606,1660090542.902,4412,4153,3350,2.931,-1.34,0.616,83.0,blue,226,TRUE
607,1660090542.989,3900,4808,750,2.914,-1.108,0.749,102.6,red,226,TRUE
608,1660090543.091,3864,-2462,882,4.698,-1.038,-0.455,91.0,yellow,226,TRUE
609,1660090543.195,3187,-2862,2526,5.228,-0.535,0.091,92.3,green,226,TRUE
610,1660090543.472,4314,4163,3350,2.609,-1.321,0.963,89.8,blue,226,TRUE
611,1660090543.562,3884,4491,750,2.522,-1.108,0.869,90.1,red,226,TRUE
612,1660090543.654,3858,-2444,882,4.699,-1.035,-0.451,87.6,yellow,226,TRUE
613,1660090543.742,3219,-2879,2526,5.229,-0.549,0.089,119.9,green,226,TRUE
614,1660090544.048,4248,4126,3350,2.213,-1.417,0.81,88.5,blue,226,TRUE
615,1660090544.136,3850,4159,750,2.174,-1.115,0.989,90.1,red,226,TRUE
616,1660090544.239,3858,-2430,882,4.697,-1.044,-0.457,92.8,yellow,226,TRUE
617,1660090545.606,4195,4040,3350,2.247,-1.466,0.091,83.3,blue,226,TRUE
618,1660090545.691,3797,3837,750,1.203,-1.109,1.101,90.1,red,226,TRUE
619,1660090545.782,3860,-2426,882,4.694,-1.017,-0.437,91.3,yellow,226,TRUE
620,1660090545.876,3283,-2912,2526,5.232,-0.526,0.094,85.8,green,226,TRUE
621,1660090546.158,4143,3891,3350,2.342,-1.371,0.509,92.7,blue,226,TRUE
622,1660090546.263,3748,3503,750,0.966,-1.169,1.056,91.6,red,226,TRUE
623,1660090546.356,3851,-2419,882,4.695,-1.026,-0.431,90.1,yellow,226,TRUE
624,1660090546.446,3313,-2931,2526,5.233,-0.54,0.091,120.9,green,226,TRUE
625,1660090546.747,4129,3702,3350,2.099,-1.364,0.947,93.7,blue,226,TRUE
626,1660090546.846,3732,3184,750,1.176,-1.083,0.935,98.0,red,226,TRUE
627,1660090546.945,3827,-2416,882,4.687,-1.008,-0.439,92.9,yellow,226,TRUE
628,1660090547.042,3351,-2946,2526,5.233,-0.549,0.091,130.6,green,226,TRUE
629,1660090547.352,4150,3544,3350,2.093,-1.379,0.976,89.8,blue,226,TRUE
630,1660090547.444,3735,2866,750,1.23,-1.095,1.16,87.2,red,226,TRUE
631,1660090547.533,3838,-2411,882,4.692,-0.998,-0.418,90.8,yellow,226,TRUE
632,1660090547.636,3380,-2964,2526,5.233,-0.536,0.094,106.8,green,226,TRUE
633,1660090547.928,4146,3373,3350,2.11,-1.38,0.93,87.5,blue,226,TRUE
634,1660090548.019,3735,2632,750,1.242,-1.116,1.2,86.0,red,226,TRUE
635,1660090548.106,3845,-2414,882,4.696,-0.99,-0.4,87.8,yellow,226,TRUE
636,1660090548.208,3402,-2972,2526,5.233,-0.52,0.093,92.0,green,226,TRUE
637,1660090549.464,4134,3242,3350,2.145,-1.373,0.861,88.8,blue,226,TRUE
638,1660090549.554,3738,2444,750,1.257,-1.127,1.1,89.0,red,226,TRUE
639,1660090549.749,3400,-2967,2526,5.237,-0.54,0.094,91.4,green,226,TRUE
640,1660090550.024,4137,3115,3350,2.162,-1.374,0.846,87.2,blue,226,TRUE
641,1660090550.111,3777,2261,750,1.29,-1.129,1.17,91.0,red,226,TRUE
642,1660090550.215,3799,-2400,882,4.689,-1.001,-0.415,95.9,yellow,226,TRUE
643,1660090550.313,3384,-2958,2526,5.239,-0.527,0.094,84.3,green,226,TRUE
644,1660090550.581,4125,2982,3350,2.165,-1.38,0.868,90.5,blue,226,TRUE
645,1660090550.671,3752,2121,750,0.603,-1.224,1.354,89.0,red,226,TRUE
646,1660090550.761,3801,-2400,882,4.691,-1.001,-0.411,91.7,yellow,226,TRUE
647,1660090550.855,3357,-2943,2526,5.238,-0.521,0.091,88.7,green,226,TRUE
648,1660090551.128,4126,2843,3350,2.135,-1.38,0.854,88.9,blue,226,TRUE
649,1660090551.229,3717,2052,750,0.232,-1.246,1.391,93.7,red,226,TRUE
650,1660090551.323,3799,-2405,882,4.691,-0.999,-0.411,91.3,yellow,226,TRUE
651,1660090551.415,3336,-2933,2526,5.235,-0.519,0.085,92.6,green,226,TRUE
652,1660090552.678,4152,2758,3350,2.14,-1.382,0.868,91.3,blue,226,TRUE
653,1660090552.769,3732,2151,750,0.791,-1.248,1.311,90.5,red,226,TRUE
654,1660090552.869,3814,-2416,882,4.662,-1.019,-0.519,97.4,yellow,226,TRUE
655,1660090552.969,3337,-2934,2526,5.236,-0.538,0.087,87.7,green,226,TRUE
656,1660090553.265,4151,2697,3350,1.985,-1.429,0.892,92.0,blue,226,TRUE
657,1660090553.358,3828,2252,750,1.059,-1.109,1.109,90.3,red,226,TRUE
658,1660090555.867,4153,2669,3350,1.274,-1.414,0.952,82.8,blue,226,TRUE
659,1660090555.955,4161,2333,750,1.714,-1.122,1.08,103.9,red,226,TRUE
660,1660090557.469,4140,2653,3350,1.307,-1.37,0.782,79.9,blue,226,TRUE
661,1660090557.55,4341,2430,750,3.628,-1.226,0.742,89.6,red,226,TRUE
662,1660090557.653,3784,-2401,882,4.677,-1.012,-0.465,91.8,yellow,226,TRUE
663,1660090557.746,3351,-2940,2526,5.237,-0.523,0.088,103.9,green,226,TRUE
664,1660090558.034,4127,2659,3350,1.27,-1.355,0.732,88.1,blue,226,TRUE
665,1660090558.123,4470,2551,750,4.187,-1.211,0.699,92.6,red,226,TRUE
666,1660090558.225,3768,-2393,882,4.677,-1.013,-0.465,92.5,yellow,226,TRUE
667,1660090558.319,3351,-2938,2526,5.237,-0.523,0.089,104.4,green,226,TRUE
668,1660090558.605,4125,2684,3350,1.29,-1.349,0.729,91.4,blue,226,TRUE
669,1660090558.707,4494,2670,750,4.307,-1.19,0.918,92.1,red,226,TRUE
670,1660090558.8,3770,-2392,882,4.674,-1.013,-0.471,89.4,yellow,226,TRUE
671,1660090560.191,4114,2718,3350,1.286,-1.348,0.716,84.5,blue,226,TRUE
672,1660090560.278,4336,2891,750,4.378,-1.215,0.65,91.3,red,226,TRUE
673,1660090560.37,3763,-2392,882,4.741,-1.005,-0.411,87.5,yellow,226,TRUE
674,1660090560.46,3361,-2944,2526,5.238,-0.53,0.092,87.8,green,226,TRUE
675,1660090560.755,4135,2725,3350,1.311,-1.344,0.709,93.0,blue,226,TRUE
676,1660090560.849,4146,3104,750,3.641,-1.086,0.731,90.8,red,226,TRUE
677,1660090560.942,3758,-2390,882,4.751,-1.004,-0.398,88.2,yellow,226,TRUE
678,1660090561.033,3358,-2947,2526,5.238,-0.516,0.094,88.4,green,226,TRUE
679,1660090561.318,4132,2725,3350,1.324,-1.35,0.726,93.5,blue,226,TRUE
680,1660090561.413,3941,3316,750,3.386,-1.17,0.828,87.2,red,226,TRUE
681,1660090561.503,3753,-2385,882,4.753,-1.002,-0.397,86.1,yellow,226,TRUE
682,1660090561.59,3362,-2952,2526,5.24,-0.515,0.096,90.1,green,226,TRUE
683,1660090561.878,4130,2756,3350,1.305,-1.353,0.722,89.7,blue,226,TRUE
684,1660090561.972,3702,3567,750,3.385,-1.185,0.866,87.3,red,226,TRUE
685,1660090562.061,3792,-2409,882,4.752,-0.999,-0.398,87.8,yellow,226,TRUE
686,1660090562.164,3364,-2954,2526,5.24,-0.539,0.096,107.2,green,226,TRUE
687,1660090562.456,4152,2754,3350,1.317,-1.352,0.719,102.4,blue,226,TRUE
688,1660090562.559,3521,3804,750,3.563,-1.193,0.903,88.3,red,226,TRUE
689,1660090562.66,3795,-2410,882,4.749,-1.009,-0.406,92.3,yellow,226,TRUE
690,1660090562.754,3354,-2954,2526,5.24,-0.543,0.098,104.3,green,226,TRUE
691,1660090563.043,4160,2755,3350,1.326,-1.359,0.74,87.5,blue,226,TRUE
692,1660090563.132,3352,4014,750,3.326,-1.217,0.897,88.2,red,226,TRUE
693,1660090563.234,3795,-2411,882,4.744,-1.019,-0.418,91.8,yellow,226,TRUE
694,1660090563.325,3362,-2957,2526,5.239,-0.532,0.097,89.5,green,226,TRUE
695,1660090563.599,4164,2753,3350,1.322,-1.362,0.745,89.5,blue,226,TRUE
696,1660090563.702,3164,4159,750,2.59,-1.262,0.989,91.3,red,226,TRUE
697,1660090563.795,3799,-2410,882,4.743,-1.023,-0.424,89.9,yellow,226,TRUE
698,1660090563.885,3366,-2957,2526,5.24,-0.521,0.097,106.4,green,226,TRUE
699,1660090564.185,4179,2744,3350,1.341,-1.362,0.754,91.8,blue,226,TRUE
700,1660090564.278,2962,4290,750,1.587,-1.188,1.309,94.3,red,226,TRUE
701,1660090564.373,3782,-2405,882,4.735,-1.018,-0.439,86.0,yellow,226,TRUE
702,1660090564.463,3348,-2952,2526,5.24,-0.514,0.099,85.7,green,226,TRUE
703,1660090564.771,4147,2733,3350,1.308,-1.369,0.754,93.8,blue,226,TRUE
704,1660090564.865,2600,4427,750,1.378,-1.169,1.186,92.6,red,226,TRUE
705,1660090565.07,3340,-2952,2526,5.241,-0.519,0.098,80.4,green,226,TRUE
706,1660090565.363,4197,2715,3350,1.309,-1.365,0.744,87.8,blue,226,TRUE
707,1660090565.452,2446,4477,750,1.612,-1.197,1.06,90.9,red,226,TRUE
708,1660090565.546,3827,-2439,882,4.735,-0.997,-0.439,86.2,yellow,226,TRUE
709,1660090565.633,3339,-2948,2526,5.244,-0.53,0.093,88.6,green,226,TRUE
710,1660090565.918,4201,2711,3350,1.334,-1.357,0.735,90.2,blue,226,TRUE
711,1660090566.013,2418,4499,750,1.49,-1.142,1.104,86.3,red,226,TRUE
712,1660090566.102,3830,-2442,882,4.735,-0.999,-0.437,89.7,yellow,226,TRUE
713,1660090566.205,3335,-2948,2526,5.244,-0.527,0.093,107.4,green,226,TRUE
714,1660090567.541,4192,2714,3350,1.319,-1.356,0.723,87.9,blue,226,TRUE
715,1660090567.63,2564,4448,750,1.834,-1.264,1.112,91.0,red,226,TRUE
716,1660090567.731,3830,-2448,882,4.732,-1.008,-0.446,96.4,yellow,226,TRUE
717,1660090567.831,3335,-2950,2526,5.245,-0.512,0.098,83.8,green,226,TRUE
718,1660090569.082,4191,2708,3350,1.326,-1.35,0.696,99.2,blue,226,TRUE
719,1660090569.182,2890,4251,750,2.381,-1.218,1.2,88.4,red,226,TRUE
720,1660090569.277,3836,-2451,882,4.734,-0.938,-0.388,83.8,yellow,226,TRUE
721,1660090569.362,3333,-2948,2526,5.246,-0.508,0.095,89.0,green,226,TRUE
722,1660090569.63,4193,2717,3350,1.323,-1.346,0.685,88.8,blue,226,TRUE
723,1660090569.733,3219,4052,750,2.328,-1.288,1.397,91.4,red,226,TRUE
724,1660090569.825,3784,-2460,882,4.722,-0.95,-0.372,89.8,yellow,226,TRUE
725,1660090569.916,3336,-2947,2526,5.247,-0.505,0.098,94.1,green,226,TRUE
726,1660090570.216,4191,2719,3350,1.317,-1.345,0.694,92.3,blue,226,TRUE
727,1660090570.308,3576,3864,750,2.27,-1.287,1.43,90.9,red,226,TRUE
728,1660090570.399,3771,-2465,882,4.731,-1.088,-0.46,90.1,yellow,226,TRUE
729,1660090570.492,3336,-2948,2526,5.249,-0.518,0.097,87.0,green,226,TRUE
730,1660090570.782,4185,2717,3350,1.317,-1.349,0.697,87.7,blue,226,TRUE
731,1660090570.869,3923,3667,750,2.238,-1.264,1.239,90.8,red,226,TRUE
732,1660090570.963,3768,-2459,882,4.735,-1.07,-0.456,86.6,yellow,226,TRUE
733,1660090571.053,3328,-2948,2526,5.249,-0.519,0.096,102.1,green,226,TRUE
734,1660090571.352,4165,2738,3350,1.318,-1.35,0.701,91.0,blue,226,TRUE
735,1660090571.443,4273,3481,750,2.224,-1.241,1.067,90.1,red,226,TRUE
736,1660090571.535,3767,-2453,882,4.737,-1.061,-0.441,88.6,yellow,226,TRUE
737,1660090571.625,3333,-2951,2526,5.248,-0.513,0.096,102.3,green,226,TRUE
738,1660090571.925,4151,2766,3350,1.392,-1.353,0.713,89.3,blue,226,TRUE
739,1660090572.019,4620,3294,750,2.27,-1.239,1.187,86.6,red,226,TRUE
740,1660090572.106,3765,-2451,882,4.733,-1.056,-0.439,88.7,yellow,226,TRUE
741,1660090572.209,3318,-2946,2526,5.249,-0.504,0.097,91.8,green,226,TRUE
742,1660090572.485,4141,2786,3350,1.408,-1.354,0.716,89.5,blue,226,TRUE
743,1660090572.575,4987,3119,750,1.761,-1.307,0.825,89.0,red,226,TRUE
744,1660090572.678,3761,-2450,882,4.73,-1.049,-0.432,91.5,yellow,226,TRUE
745,1660090572.782,3303,-2940,2526,5.25,-0.501,0.096,108.9,green,226,TRUE
746,1660090573.089,4165,2787,3350,1.409,-1.356,0.733,105.9,blue,226,TRUE
747,1660090573.196,5329,2968,750,1.536,-1.164,1.03,87.3,red,226,TRUE
748,1660090573.284,3765,-2448,882,4.73,-1.046,-0.427,90.1,yellow,226,TRUE
749,1660090574.729,4195,2798,3350,1.41,-1.353,0.72,84.3,blue,226,TRUE
750,1660090574.816,5637,2831,750,0.937,-1.284,1.069,89.5,red,226,TRUE
751,1660090574.905,3746,-2434,882,4.731,-1.046,-0.427,89.7,yellow,226,TRUE
752,1660090576.286,4217,2832,3350,1.404,-1.358,0.733,83.5,blue,226,TRUE
753,1660090576.371,5905,2765,750,0.911,-1.274,1.057,89.2,red,226,TRUE
754,1660090576.46,3714,-2429,882,4.745,-1.012,-0.368,89.4,yellow,226,TRUE
755,1660090577.849,4246,2839,3350,1.4,-1.357,0.718,88.1,blue,226,TRUE
756,1660090577.938,6085,2710,750,0.986,-1.248,1.077,90.6,red,226,TRUE
757,1660090578.034,3709,-2440,882,4.741,-1.011,-0.358,85.3,yellow,226,TRUE
758,1660090578.151,3318,-2954,2526,5.258,-0.506,0.094,73.5,green,226,TRUE
759,1660090578.42,4243,2848,3350,1.358,-1.355,0.708,88.9,blue,226,TRUE
760,1660090578.512,6213,2725,750,1.06,-1.229,1.166,89.0,red,226,TRUE
761,1660090578.602,3704,-2442,882,4.727,-1.029,-0.379,90.3,yellow,226,TRUE
762,1660090578.705,3317,-2948,2526,5.259,-0.504,0.095,108.2,green,226,TRUE
763,1660090578.999,4222,2845,3350,1.342,-1.355,0.709,85.3,blue,226,TRUE
764,1660090579.085,6295,2768,750,1.762,-1.148,1.127,90.5,red,226,TRUE
765,1660090579.189,3707,-2441,882,4.641,-1.059,-0.445,91.8,yellow,226,TRUE
766,1660090579.286,3315,-2950,2526,5.26,-0.509,0.095,85.8,green,226,TRUE
767,1660090579.553,4171,2851,3350,1.343,-1.357,0.713,94.0,blue,226,TRUE
768,1660090579.658,6388,2804,750,2.268,-1.114,1.085,91.2,red,226,TRUE
769,1660090579.763,3746,-2432,882,4.631,-1.069,-0.487,91.4,yellow,226,TRUE
770,1660090581.125,4184,2838,3350,1.334,-1.359,0.733,100.3,blue,226,TRUE
771,1660090581.227,6382,2801,750,2.87,-1.424,2.791,88.8,red,226,TRUE
772,1660090581.317,3746,-2429,882,4.769,-1.029,-0.254,91.3,yellow,226,TRUE
773,1660090581.408,3320,-2946,2526,5.26,-0.509,0.094,91.2,green,226,TRUE
774,1660090581.692,4238,2814,3350,1.332,-1.361,0.737,90.9,blue,226,TRUE
775,1660090581.788,6387,2799,750,3.054,-1.405,2.645,86.2,red,226,TRUE
776,1660090581.874,3746,-2434,882,4.769,-1.023,-0.28,89.0,yellow,226,TRUE
777,1660090581.966,3313,-2938,2526,5.261,-0.509,0.094,91.4,green,226,TRUE
778,1660090582.263,4255,2817,3350,1.332,-1.361,0.74,91.2,blue,226,TRUE
779,1660090582.355,6384,2790,750,2.818,-1.377,0.868,90.3,red,226,TRUE
780,1660090582.446,3761,-2449,882,4.782,-1.153,-0.123,92.1,yellow,226,TRUE
781,1660090582.541,3317,-2937,2526,5.261,-0.507,0.094,102.1,green,226,TRUE
782,1660090582.841,4246,2819,3350,1.285,-1.359,0.728,88.4,blue,226,TRUE
783,1660090582.93,6431,2792,750,2.067,-1.275,0.632,90.1,red,226,TRUE
784,1660090583.024,3748,-2453,882,4.817,-1.184,0.145,85.2,yellow,226,TRUE
785,1660090583.11,3338,-2945,2526,5.261,-0.509,0.094,89.5,green,226,TRUE
786,1660090583.396,4223,2814,3350,1.153,-1.374,0.672,90.2,blue,226,TRUE
787,1660090583.489,6517,2820,750,1.856,-1.217,0.807,87.1,red,226,TRUE
788,1660090583.577,3739,-2457,882,4.813,-1.175,0.105,91.4,yellow,226,TRUE
789,1660090583.681,3329,-2941,2526,5.26,-0.513,0.094,92.4,green,226,TRUE
790,1660090583.971,4222,2837,3350,1.094,-1.372,0.84,89.9,blue,226,TRUE
791,1660090584.066,6526,2837,750,1.564,-1.38,1.834,83.8,red,226,TRUE
792,1660090584.15,3742,-2468,882,4.795,-1.168,0.036,89.5,yellow,226,TRUE
793,1660090584.254,3326,-2939,2526,5.26,-0.517,0.095,91.3,green,226,TRUE
794,1660090584.531,4196,2842,3350,0.881,-1.379,0.738,88.2,blue,226,TRUE
795,1660090584.619,6521,2846,750,1.778,-1.233,0.873,91.1,red,226,TRUE
796,1660090584.724,3739,-2482,882,4.776,-1.154,-0.07,92.1,yellow,226,TRUE
797,1660090584.816,3332,-2935,2526,5.26,-0.516,0.095,89.4,green,226,TRUE
798,1660090585.085,4135,2845,3350,0.814,-1.33,0.762,90.7,blue,226,TRUE
799,1660090585.189,6532,2816,750,2.254,-1.169,0.745,93.4,red,226,TRUE
800,1660090585.29,3751,-2488,882,4.706,-1.091,-0.3,95.8,yellow,226,TRUE
801,1660090585.387,3317,-2929,2526,5.268,-0.52,0.1,89.0,green,226,TRUE
802,1660090585.671,4147,2847,3350,0.902,-1.338,0.732,78.0,blue,226,TRUE
803,1660090585.762,6565,2797,750,2.525,-1.194,0.932,92.0,red,226,TRUE
804,1660090585.855,3742,-2478,882,4.697,-1.068,-0.506,89.1,yellow,226,TRUE
805,1660090585.944,3318,-2929,2526,5.27,-0.531,0.091,75.9,green,226,TRUE
806,1660090586.212,4250,2839,3350,1.033,-1.352,0.538,91.5,blue,226,TRUE
807,1660090586.305,6539,2765,750,2.266,-1.249,1.041,90.9,red,226,TRUE
808,1660090586.396,3754,-2475,882,4.672,-1.102,-0.494,89.3,yellow,226,TRUE
809,1660090586.488,3310,-2927,2526,5.269,-0.531,0.096,88.6,green,226,TRUE
810,1660090586.786,4398,2837,3350,1.295,-1.379,0.992,91.6,blue,226,TRUE
811,1660090586.878,6526,2746,750,2.316,-1.259,1.053,91.3,red,226,TRUE
812,1660090586.97,3748,-2466,882,4.693,-1.084,-0.465,90.5,yellow,226,TRUE
813,1660090587.066,3317,-2928,2526,5.269,-0.52,0.094,86.8,green,226,TRUE
814,1660090588.363,4558,2822,3350,1.666,-1.438,0.853,91.7,blue,226,TRUE
815,1660090588.457,6520,2718,750,2.931,-1.146,1.059,84.7,red,226,TRUE
816,1660090588.551,3765,-2479,882,4.691,-1.137,-0.537,96.6,yellow,226,TRUE
817,1660090588.648,3318,-2928,2526,5.27,-0.525,0.084,89.0,green,226,TRUE
818,1660090588.934,4656,2816,3350,2.551,-1.431,1.5,93.2,blue,226,TRUE
819,1660090589.037,6569,2721,750,2.592,-1.197,1.077,94.5,red,226,TRUE
820,1660090589.132,3774,-2479,882,4.708,-1.085,-0.427,89.5,yellow,226,TRUE
821,1660090590.496,4615,2831,3350,4.056,-1.338,1.301,97.3,blue,226,TRUE
822,1660090590.596,6687,2702,750,2.052,-1.246,1.047,92.5,red,226,TRUE
823,1660090590.698,3755,-2475,882,4.711,-1.071,-0.383,92.6,yellow,226,TRUE
824,1660090590.796,3335,-2943,2526,5.264,-0.549,0.062,85.0,green,226,TRUE
825,1660090591.082,4570,2800,3350,2.905,-1.395,1.776,89.4,blue,226,TRUE
826,1660090591.174,6830,2722,750,1.784,-1.268,1.162,100.0,red,226,TRUE
827,1660090591.286,3724,-2465,882,4.725,-1.061,-0.399,91.9,yellow,226,TRUE
828,1660090591.379,3329,-2940,2526,5.265,-0.542,0.062,88.7,green,226,TRUE
829,1660090591.68,4547,2730,3350,2.251,-1.385,1.477,90.5,blue,226,TRUE
830,1660090591.784,6956,2697,750,1.661,-1.262,1.216,91.4,red,226,TRUE
831,1660090591.876,3712,-2460,882,4.725,-1.071,-0.393,91.0,yellow,226,TRUE
832,1660090591.967,3310,-2930,2526,5.267,-0.55,0.062,91.1,green,226,TRUE
