,timestamp,x,y,z,yaw,roll,pitch,latency,student,session,success
0,1660097283.437,1013,-977,750,4.288,-1.463,-0.079,89.4,red,227,TRUE
1,1660097283.532,3369,-1348,882,6.254,0.002,0.038,86.2,yellow,227,TRUE
2,1660097283.621,2461,-1985,2526,5.309,-0.475,0.016,85.7,green,227,TRUE
3,1660097283.892,1210,-670,750,4.595,-1.46,-0.062,85.9,red,227,TRUE
4,1660097283.979,3403,-1372,882,6.254,0.002,0.038,105.3,yellow,227,TRUE
5,1660097284.085,2185,-2266,2526,5.305,-0.49,0.016,90.5,green,227,TRUE
6,1660097284.358,1376,-381,750,4.502,-1.419,-0.767,87.5,red,227,TRUE
7,1660097284.446,3410,-1376,882,6.254,0.002,0.038,91.5,yellow,227,TRUE
8,1660097284.55,2242,-2287,2526,5.31,-0.49,0.019,92.5,green,227,TRUE
9,1660097285.879,1576,-68,750,4.225,-1.443,-0.695,88.8,red,227,TRUE
10,1660097285.975,3410,-1375,882,6.254,0.002,0.038,83.1,yellow,227,TRUE
11,1660097286.059,2288,-2347,2526,5.313,-0.48,0.022,89.6,green,227,TRUE
12,1660097287.369,1766,227,750,4.277,-1.418,-0.741,89.3,red,227,TRUE
13,1660097287.466,3457,-1402,882,6.254,0.002,0.038,83.3,yellow,227,TRUE
14,1660097287.551,2409,-2378,2526,5.315,-0.499,0.016,87.5,green,227,TRUE
15,1660097287.854,1947,539,750,4.193,-1.439,-0.995,85.7,red,227,TRUE
16,1660097287.939,3463,-1438,882,6.254,0.002,0.038,90.7,yellow,227,TRUE
17,1660097288.031,2432,-2457,2526,5.317,-0.495,0.021,89.7,green,227,TRUE
18,1660097289.355,2067,827,750,2.943,-1.463,-0.098,92.3,red,227,TRUE
19,1660097289.457,3437,-1417,882,6.254,0.002,0.038,95.4,yellow,227,TRUE
20,1660097289.553,2403,-2440,2526,5.298,-0.525,0.021,87.6,green,227,TRUE
21,1660097289.842,2164,1007,750,3.069,-1.484,-3.063,87.5,red,227,TRUE
22,1660097289.93,3425,-1415,882,6.254,0.002,0.038,89.4,yellow,227,TRUE
23,1660097290.021,2424,-2438,2526,5.293,-0.536,0.021,87.0,green,227,TRUE
24,1660097291.33,2250,1156,750,3.211,-1.511,-3.082,91.8,red,227,TRUE
25,1660097291.433,3462,-1437,882,6.254,0.002,0.038,94.9,yellow,227,TRUE
26,1660097291.529,2413,-2431,2526,5.294,-0.527,0.022,87.6,green,227,TRUE
27,1660097291.816,2248,1246,750,3.367,-1.511,-0.052,87.3,red,227,TRUE
28,1660097291.904,3551,-1490,882,6.254,0.002,0.038,90.5,yellow,227,TRUE
29,1660097291.996,2413,-2427,2526,5.295,-0.523,0.023,90.0,green,227,TRUE
30,1660097293.307,2288,1316,750,3.096,-1.455,-0.08,91.4,red,227,TRUE
31,1660097293.408,3579,-1511,882,6.254,0.002,0.038,82.2,yellow,227,TRUE
32,1660097293.491,2374,-2404,2526,5.292,-0.517,0.024,88.4,green,227,TRUE
33,1660097293.775,2276,1296,750,3.29,-1.446,-0.783,89.5,red,227,TRUE
34,1660097293.867,3572,-1508,882,6.254,0.002,0.038,86.6,yellow,227,TRUE
35,1660097293.955,2388,-2411,2526,5.292,-0.539,0.021,90.0,green,227,TRUE
36,1660097295.36,2278,1304,750,4.078,-1.42,-0.973,88.8,red,227,TRUE
37,1660097295.459,3560,-1504,882,6.254,0.002,0.038,95.4,yellow,227,TRUE
38,1660097295.555,2408,-2427,2526,5.291,-0.574,0.034,88.0,green,227,TRUE
39,1660097296.96,2318,1371,750,4.872,-1.437,-0.929,88.0,red,227,TRUE
40,1660097297.055,3557,-1504,882,6.254,0.002,0.038,83.8,yellow,227,TRUE
41,1660097297.14,2391,-2419,2526,5.293,-0.55,0.034,89.2,green,227,TRUE
42,1660097298.541,2394,1510,750,4.868,-1.477,-0.073,90.2,red,227,TRUE
43,1660097298.64,3544,-1499,882,6.254,0.002,0.038,94.5,yellow,227,TRUE
44,1660097298.738,2427,-2445,2526,5.294,-0.513,0.04,88.1,green,227,TRUE
45,1660097298.992,2440,1632,750,3.968,-1.397,-0.958,92.2,red,227,TRUE
46,1660097299.097,3546,-1499,882,6.254,0.002,0.038,92.5,yellow,227,TRUE
47,1660097299.19,2412,-2439,2526,5.294,-0.507,0.038,90.8,green,227,TRUE
48,1660097299.38,2485,1771,750,3.624,-1.402,-0.954,97.3,red,227,TRUE
49,1660097299.489,3501,-1473,882,6.254,0.002,0.038,93.0,yellow,227,TRUE
50,1660097299.596,2395,-2436,2526,5.292,-0.5,0.04,91.8,green,227,TRUE
51,1660097299.854,2574,1871,750,4.019,-1.47,-0.046,89.4,red,227,TRUE
52,1660097299.945,3456,-1443,882,6.254,0.002,0.038,91.2,yellow,227,TRUE
53,1660097300.049,2384,-2432,2526,5.291,-0.493,0.044,92.2,green,227,TRUE
54,1660097300.294,2666,2049,750,4.158,-1.462,-0.043,88.6,red,227,TRUE
55,1660097300.385,3448,-1440,882,6.254,0.002,0.038,101.6,yellow,227,TRUE
56,1660097300.488,2426,-2460,2526,5.291,-0.491,0.043,89.5,green,227,TRUE
57,1660097300.725,2782,2236,750,4.116,-1.433,-0.224,91.5,red,227,TRUE
58,1660097300.818,3419,-1417,882,6.254,0.002,0.038,90.3,yellow,227,TRUE
59,1660097300.908,2410,-2452,2526,5.292,-0.488,0.043,90.7,green,227,TRUE
60,1660097301.163,2854,2402,750,4.105,-1.488,0.014,91.0,red,227,TRUE
61,1660097301.255,3416,-1414,882,6.254,0.002,0.038,90.0,yellow,227,TRUE
62,1660097301.347,2378,-2433,2526,5.293,-0.509,0.038,89.6,green,227,TRUE
63,1660097301.555,2973,2537,750,4.059,-1.51,0.004,93.1,red,227,TRUE
64,1660097301.661,3323,-1356,882,6.254,0.002,0.038,90.0,yellow,227,TRUE
65,1660097301.752,2375,-2432,2526,5.294,-0.517,0.037,90.0,green,227,TRUE
66,1660097302.006,3036,2679,750,4.119,-1.527,0.0,92.8,red,227,TRUE
67,1660097302.112,3291,-1334,882,6.254,0.002,0.038,91.6,yellow,227,TRUE
68,1660097302.205,2380,-2439,2526,5.294,-0.513,0.036,90.9,green,227,TRUE
69,1660097302.519,3299,-1335,882,6.254,0.002,0.038,91.7,yellow,227,TRUE
70,1660097302.625,2349,-2419,2526,5.293,-0.509,0.037,91.2,green,227,TRUE
71,1660097302.885,3169,2927,750,4.192,-1.502,-0.007,88.4,red,227,TRUE
72,1660097302.974,3263,-1308,882,6.254,0.002,0.038,90.9,yellow,227,TRUE
73,1660097303.078,2346,-2415,2526,5.293,-0.511,0.037,93.7,green,227,TRUE
74,1660097303.324,3190,2989,750,4.327,-1.467,-0.003,87.3,red,227,TRUE
75,1660097303.412,3233,-1285,882,6.254,0.002,0.038,89.1,yellow,227,TRUE
76,1660097303.515,2338,-2407,2526,5.292,-0.519,0.036,91.7,green,227,TRUE
77,1660097303.739,3184,3001,750,4.359,-1.451,-0.017,93.7,red,227,TRUE
78,1660097303.836,3205,-1265,882,6.254,0.002,0.038,87.2,yellow,227,TRUE
79,1660097303.925,2317,-2400,2526,5.291,-0.516,0.036,90.2,green,227,TRUE
80,1660097304.211,3187,2987,750,4.183,-1.469,-0.004,91.7,red,227,TRUE
81,1660097304.303,3169,-1241,882,6.254,0.002,0.038,90.6,yellow,227,TRUE
82,1660097304.396,2328,-2407,2526,5.292,-0.517,0.035,87.2,green,227,TRUE
83,1660097304.662,3193,2974,750,3.783,-1.431,-0.833,92.5,red,227,TRUE
84,1660097304.756,3201,-1266,882,6.254,0.002,0.038,89.6,yellow,227,TRUE
85,1660097304.847,2330,-2408,2526,5.289,-0.529,0.031,87.9,green,227,TRUE
86,1660097305.053,3200,3008,750,3.664,-1.386,-0.941,93.0,red,227,TRUE
87,1660097305.158,3204,-1267,882,6.254,0.002,0.038,92.3,yellow,227,TRUE
88,1660097305.252,2316,-2401,2526,5.289,-0.521,0.033,89.5,green,227,TRUE
89,1660097305.445,3166,2999,750,3.878,-1.407,-0.744,92.7,red,227,TRUE
90,1660097305.551,3235,-1288,882,6.254,0.002,0.038,77.9,yellow,227,TRUE
91,1660097305.642,2313,-2398,2526,5.288,-0.509,0.033,92.0,green,227,TRUE
92,1660097305.899,3137,2995,750,4.061,-1.472,-0.074,90.5,red,227,TRUE
93,1660097306.003,3254,-1300,882,6.254,0.002,0.038,92.7,yellow,227,TRUE
94,1660097306.109,2275,-2372,2526,5.289,-0.505,0.034,91.1,green,227,TRUE
95,1660097306.354,3141,3005,750,3.997,-1.487,-0.08,87.0,red,227,TRUE
96,1660097306.442,3247,-1298,882,6.254,0.002,0.038,91.4,yellow,227,TRUE
97,1660097306.546,2277,-2369,2526,5.289,-0.505,0.034,78.2,green,227,TRUE
98,1660097306.745,3122,3008,750,3.936,-1.46,-0.094,90.7,red,227,TRUE
99,1660097306.837,3251,-1302,882,6.254,0.002,0.038,88.9,yellow,227,TRUE
100,1660097306.939,2276,-2370,2526,5.275,-0.519,0.027,93.0,green,227,TRUE
101,1660097307.211,3105,3014,750,3.931,-1.469,-0.073,90.2,red,227,TRUE
102,1660097307.302,3254,-1302,882,6.254,0.002,0.038,90.2,yellow,227,TRUE
103,1660097307.395,2292,-2376,2526,5.27,-0.533,0.022,89.4,green,227,TRUE
104,1660097307.603,3087,3064,750,3.925,-1.476,-0.072,92.7,red,227,TRUE
105,1660097307.709,3247,-1303,882,6.254,0.002,0.038,91.1,yellow,227,TRUE
106,1660097307.801,2327,-2400,2526,5.268,-0.539,0.016,89.7,green,227,TRUE
107,1660097308.056,3029,3025,750,3.922,-1.487,-0.074,93.3,red,227,TRUE
108,1660097308.162,3275,-1326,882,6.254,0.002,0.038,91.4,yellow,227,TRUE
109,1660097308.255,2331,-2405,2526,5.271,-0.53,0.017,91.5,green,227,TRUE
110,1660097308.45,2991,3001,750,3.927,-1.501,-0.065,92.2,red,227,TRUE
111,1660097308.556,3271,-1323,882,6.254,0.002,0.038,93.1,yellow,227,TRUE
112,1660097308.662,2349,-2412,2526,5.273,-0.52,0.016,92.3,green,227,TRUE
113,1660097308.903,2957,2988,750,3.918,-1.499,-0.068,92.5,red,227,TRUE
114,1660097309.009,3265,-1320,882,6.254,0.002,0.038,92.4,yellow,227,TRUE
115,1660097309.103,2365,-2418,2526,5.273,-0.516,0.02,89.4,green,227,TRUE
116,1660097309.388,3300,-1344,882,6.254,0.002,0.038,91.5,yellow,227,TRUE
117,1660097309.492,2359,-2414,2526,5.273,-0.513,0.021,92.2,green,227,TRUE
118,1660097309.75,2872,2937,750,3.93,-1.501,-0.064,90.6,red,227,TRUE
119,1660097309.843,3297,-1344,882,6.254,0.002,0.038,90.2,yellow,227,TRUE
120,1660097309.933,2357,-2413,2526,5.273,-0.518,0.019,90.6,green,227,TRUE
121,1660097310.219,2814,2916,750,3.923,-1.494,-0.062,90.8,red,227,TRUE
122,1660097310.311,3293,-1341,882,6.254,0.002,0.038,88.8,yellow,227,TRUE
123,1660097310.402,2367,-2418,2526,5.273,-0.524,0.017,87.5,green,227,TRUE
124,1660097310.609,2794,2920,750,3.935,-1.496,-0.063,93.1,red,227,TRUE
125,1660097310.716,3260,-1322,882,6.254,0.002,0.038,91.3,yellow,227,TRUE
126,1660097310.808,2369,-2421,2526,5.273,-0.524,0.017,90.3,green,227,TRUE
127,1660097311.002,2791,2910,750,3.935,-1.49,-0.075,93.2,red,227,TRUE
128,1660097311.107,3243,-1312,882,6.254,0.002,0.038,91.5,yellow,227,TRUE
129,1660097311.207,2408,-2447,2526,5.273,-0.519,0.021,97.1,green,227,TRUE
130,1660097312.558,2766,2904,750,3.908,-1.49,-0.079,92.2,red,227,TRUE
131,1660097312.658,3210,-1297,882,6.254,0.002,0.038,81.6,yellow,227,TRUE
132,1660097312.741,2448,-2476,2526,5.273,-0.525,0.022,89.1,green,227,TRUE
133,1660097314.127,2777,2915,750,3.985,-1.496,-0.067,91.5,red,227,TRUE
134,1660097314.226,3210,-1295,882,6.254,0.002,0.038,97.4,yellow,227,TRUE
135,1660097314.324,2454,-2478,2526,5.275,-0.499,0.026,90.5,green,227,TRUE
136,1660097314.639,2765,2913,750,3.95,-1.476,-0.075,94.0,red,227,TRUE
137,1660097314.743,3208,-1292,882,6.254,0.002,0.038,95.4,yellow,227,TRUE
138,1660097314.84,2452,-2477,2526,5.274,-0.496,0.026,89.5,green,227,TRUE
139,1660097316.239,2769,2908,750,4.06,-1.449,-0.664,91.9,red,227,TRUE
140,1660097316.34,3210,-1291,882,6.254,0.002,0.038,97.6,yellow,227,TRUE
141,1660097316.438,2452,-2475,2526,5.273,-0.521,0.022,90.5,green,227,TRUE
142,1660097316.723,2785,2935,750,4.164,-1.462,-0.056,92.6,red,227,TRUE
143,1660097316.817,3183,-1270,882,6.254,0.002,0.038,88.9,yellow,227,TRUE
144,1660097316.906,2450,-2473,2526,5.273,-0.507,0.028,91.3,green,227,TRUE
145,1660097318.309,2795,2941,750,4.108,-1.467,-0.039,90.2,red,227,TRUE
146,1660097318.507,2444,-2471,2526,5.273,-0.503,0.031,88.9,green,227,TRUE
147,1660097319.845,2793,2949,750,4.114,-1.48,-0.052,89.7,red,227,TRUE
148,1660097319.942,3251,-1318,882,6.254,0.002,0.038,83.9,yellow,227,TRUE
149,1660097320.027,2441,-2469,2526,5.273,-0.519,0.031,89.7,green,227,TRUE
150,1660097320.33,2816,2994,750,4.11,-1.47,-0.04,88.9,red,227,TRUE
151,1660097320.423,3249,-1316,882,6.254,0.002,0.038,88.2,yellow,227,TRUE
152,1660097320.512,2443,-2469,2526,5.273,-0.514,0.031,89.4,green,227,TRUE
153,1660097321.914,2812,2999,750,4.215,-1.535,-0.014,90.6,red,227,TRUE
154,1660097322.011,3252,-1315,882,6.254,0.002,0.038,84.9,yellow,227,TRUE
155,1660097322.098,2447,-2471,2526,5.268,-0.523,0.029,90.1,green,227,TRUE
156,1660097323.515,2842,3019,750,3.91,-1.43,-0.941,86.0,red,227,TRUE
157,1660097323.609,3292,-1341,882,6.254,0.002,0.038,83.0,yellow,227,TRUE
158,1660097323.693,2449,-2470,2526,5.27,-0.512,0.029,88.3,green,227,TRUE
159,1660097325.09,2862,3011,750,3.954,-1.488,-0.075,90.9,red,227,TRUE
160,1660097325.287,2453,-2472,2526,5.27,-0.518,0.031,90.6,green,227,TRUE
161,1660097325.54,2849,3001,750,3.923,-1.497,-0.067,92.0,red,227,TRUE
162,1660097325.647,3231,-1226,882,6.254,0.002,0.038,92.2,yellow,227,TRUE
163,1660097325.751,2456,-2473,2526,5.27,-0.514,0.032,94.8,green,227,TRUE
164,1660097325.949,2876,3003,750,3.928,-1.493,-0.073,93.3,red,227,TRUE
165,1660097326.056,3238,-1223,882,6.254,0.002,0.038,92.9,yellow,227,TRUE
166,1660097326.162,2456,-2475,2526,5.269,-0.509,0.033,92.2,green,227,TRUE
167,1660097326.361,2893,3006,750,3.964,-1.448,-0.942,89.0,red,227,TRUE
168,1660097326.45,3237,-1224,882,6.254,0.002,0.038,89.7,yellow,227,TRUE
169,1660097326.555,2459,-2475,2526,5.269,-0.507,0.033,91.7,green,227,TRUE
170,1660097326.755,2888,3009,750,4.06,-1.407,-0.465,87.3,red,227,TRUE
171,1660097326.843,3236,-1228,882,6.254,0.002,0.038,89.8,yellow,227,TRUE
172,1660097326.946,2459,-2476,2526,5.265,-0.512,0.032,93.7,green,227,TRUE
173,1660097327.249,2922,3008,750,4.111,-1.373,-0.461,92.4,red,227,TRUE
174,1660097327.343,3201,-1203,882,6.254,0.002,0.038,90.5,yellow,227,TRUE
175,1660097327.433,2460,-2478,2526,5.26,-0.52,0.029,88.4,green,227,TRUE
176,1660097327.643,2946,3009,750,4.034,-1.356,-0.475,92.4,red,227,TRUE
177,1660097327.749,3203,-1204,882,6.254,0.002,0.038,93.3,yellow,227,TRUE
178,1660097327.843,2486,-2481,2526,5.261,-0.521,0.033,89.2,green,227,TRUE
179,1660097328.095,2959,3020,750,3.975,-1.377,-0.59,92.4,red,227,TRUE
180,1660097328.2,3174,-1185,882,6.254,0.002,0.038,91.4,yellow,227,TRUE
181,1660097328.292,2479,-2485,2526,5.26,-0.515,0.057,91.4,green,227,TRUE
182,1660097328.548,2977,3033,750,3.932,-1.408,-0.848,93.1,red,227,TRUE
183,1660097328.655,3183,-1188,882,6.254,0.002,0.038,92.2,yellow,227,TRUE
184,1660097328.75,2480,-2490,2526,5.263,-0.517,0.047,87.3,green,227,TRUE
185,1660097328.942,3001,3047,750,3.906,-1.417,-0.891,91.6,red,227,TRUE
186,1660097329.047,3181,-1188,882,6.254,0.002,0.038,92.4,yellow,227,TRUE
187,1660097329.154,2474,-2493,2526,5.267,-0.515,0.049,93.8,green,227,TRUE
188,1660097329.398,3005,3018,750,3.903,-1.418,-0.936,89.7,red,227,TRUE
189,1660097329.489,3180,-1190,882,6.254,0.002,0.038,88.9,yellow,227,TRUE
190,1660097329.578,2467,-2500,2526,5.268,-0.505,0.065,90.9,green,227,TRUE
191,1660097329.776,3002,3013,750,3.876,-1.405,-0.874,88.0,red,227,TRUE
192,1660097329.865,3146,-1170,882,6.254,0.002,0.038,91.4,yellow,227,TRUE
193,1660097329.97,2469,-2508,2526,5.275,-0.5,0.068,92.5,green,227,TRUE
194,1660097330.25,2988,3003,750,3.89,-1.391,-0.735,85.2,red,227,TRUE
195,1660097330.337,3238,-1301,882,6.254,0.002,0.038,91.2,yellow,227,TRUE
196,1660097330.431,2472,-2514,2526,5.276,-0.493,0.069,86.3,green,227,TRUE
197,1660097330.638,3006,3017,750,4.01,-1.413,-0.412,91.0,red,227,TRUE
198,1660097330.743,3206,-1280,882,6.254,0.002,0.038,92.0,yellow,227,TRUE
199,1660097330.836,2474,-2518,2526,5.281,-0.484,0.07,88.9,green,227,TRUE
200,1660097331.089,2991,2979,750,4.019,-1.513,0.049,93.2,red,227,TRUE
201,1660097331.195,3209,-1280,882,6.254,0.002,0.038,90.8,yellow,227,TRUE
202,1660097331.287,2486,-2524,2526,5.281,-0.467,0.07,91.2,green,227,TRUE
203,1660097331.481,2973,2930,750,3.965,-1.431,1.679,91.7,red,227,TRUE
204,1660097331.574,3204,-1277,882,6.254,0.002,0.038,89.8,yellow,227,TRUE
205,1660097331.678,2495,-2532,2526,5.275,-0.475,0.062,92.6,green,227,TRUE
206,1660097331.922,2980,2892,750,4.157,-1.468,0.097,88.9,red,227,TRUE
207,1660097332.024,3186,-1279,882,6.254,0.002,0.038,93.5,yellow,227,TRUE
208,1660097332.13,2508,-2540,2526,5.274,-0.492,0.061,93.0,green,227,TRUE
209,1660097332.391,2968,2891,750,4.232,-1.462,-0.045,88.6,red,227,TRUE
210,1660097332.481,3191,-1284,882,6.254,0.002,0.038,90.0,yellow,227,TRUE
211,1660097332.584,2520,-2545,2526,5.273,-0.497,0.06,91.8,green,227,TRUE
212,1660097332.783,2951,2893,750,4.204,-1.468,-0.082,88.5,red,227,TRUE
213,1660097332.873,3192,-1287,882,6.254,0.002,0.038,89.9,yellow,227,TRUE
214,1660097332.974,2503,-2549,2526,5.272,-0.502,0.062,91.7,green,227,TRUE
215,1660097333.253,2935,2898,750,4.088,-1.466,-0.073,85.4,red,227,TRUE
216,1660097333.341,3187,-1286,882,6.254,0.002,0.038,88.3,yellow,227,TRUE
217,1660097333.43,2515,-2552,2526,5.269,-0.501,0.062,89.7,green,227,TRUE
218,1660097333.638,2935,2871,750,4.031,-1.458,-0.067,91.7,red,227,TRUE
219,1660097333.743,3144,-1257,882,6.254,0.002,0.038,94.1,yellow,227,TRUE
220,1660097333.837,2517,-2554,2526,5.269,-0.499,0.063,90.7,green,227,TRUE
221,1660097334.092,2934,2859,750,4.096,-1.474,-0.052,92.3,red,227,TRUE
222,1660097334.197,3114,-1234,882,6.254,0.002,0.038,91.9,yellow,227,TRUE
223,1660097334.29,2524,-2555,2526,5.269,-0.497,0.063,91.6,green,227,TRUE
224,1660097334.486,2948,2883,750,4.207,-1.487,-0.034,93.4,red,227,TRUE
225,1660097334.591,3081,-1213,882,6.254,0.002,0.038,92.4,yellow,227,TRUE
226,1660097334.696,2532,-2553,2526,5.269,-0.494,0.063,91.2,green,227,TRUE
227,1660097334.941,2960,2891,750,4.192,-1.502,-0.038,89.3,red,227,TRUE
228,1660097335.044,3074,-1207,882,6.254,0.002,0.038,92.0,yellow,227,TRUE
229,1660097335.149,2534,-2552,2526,5.27,-0.493,0.064,107.6,green,227,TRUE
230,1660097335.409,2995,2915,750,4.145,-1.516,-0.024,89.2,red,227,TRUE
231,1660097335.499,3076,-1213,882,6.254,0.002,0.038,88.7,yellow,227,TRUE
232,1660097335.602,2531,-2553,2526,5.268,-0.496,0.065,109.0,green,227,TRUE
233,1660097335.818,2975,2924,750,4.122,-1.516,-0.029,87.3,red,227,TRUE
234,1660097335.906,3074,-1210,882,6.254,0.002,0.038,89.4,yellow,227,TRUE
235,1660097336.009,2533,-2553,2526,5.269,-0.504,0.064,92.3,green,227,TRUE
236,1660097336.282,2986,2962,750,4.132,-1.505,-0.047,88.8,red,227,TRUE
237,1660097336.375,3101,-1230,882,6.254,0.002,0.038,86.8,yellow,227,TRUE
238,1660097336.463,2521,-2553,2526,5.269,-0.505,0.063,89.6,green,227,TRUE
239,1660097336.757,2973,3011,750,4.138,-1.502,-0.046,98.5,red,227,TRUE
240,1660097336.855,3146,-1255,882,6.254,0.002,0.038,90.1,yellow,227,TRUE
241,1660097336.948,2520,-2553,2526,5.27,-0.502,0.067,86.8,green,227,TRUE
242,1660097337.167,2992,3054,750,4.135,-1.499,-0.05,91.7,red,227,TRUE
243,1660097337.26,3165,-1252,882,6.254,0.002,0.038,89.3,yellow,227,TRUE
244,1660097337.349,2508,-2548,2526,5.27,-0.5,0.067,90.9,green,227,TRUE
245,1660097337.603,2980,3066,750,4.174,-1.515,-0.043,93.4,red,227,TRUE
246,1660097337.709,3198,-1273,882,6.254,0.002,0.038,91.0,yellow,227,TRUE
247,1660097337.801,2511,-2552,2526,5.269,-0.499,0.067,89.8,green,227,TRUE
248,1660097337.994,2979,3064,750,4.175,-1.513,-0.046,92.7,red,227,TRUE
249,1660097338.099,3191,-1269,882,6.254,0.002,0.038,94.7,yellow,227,TRUE
250,1660097338.206,2522,-2547,2526,5.258,-0.499,0.063,92.2,green,227,TRUE
251,1660097338.446,3001,3066,750,4.189,-1.514,-0.041,91.8,red,227,TRUE
252,1660097338.551,3227,-1292,882,6.254,0.002,0.038,92.6,yellow,227,TRUE
253,1660097338.657,2526,-2541,2526,5.259,-0.493,0.063,90.8,green,227,TRUE
254,1660097338.916,3009,3076,750,4.178,-1.512,-0.049,88.3,red,227,TRUE
255,1660097339.017,3266,-1315,882,6.254,0.002,0.038,92.4,yellow,227,TRUE
256,1660097339.122,2525,-2540,2526,5.259,-0.49,0.063,92.7,green,227,TRUE
257,1660097339.326,3002,3082,750,4.139,-1.503,-0.06,86.3,red,227,TRUE
258,1660097339.413,3266,-1314,882,6.254,0.002,0.038,88.9,yellow,227,TRUE
259,1660097339.516,2536,-2533,2526,5.26,-0.485,0.064,92.0,green,227,TRUE
260,1660097339.803,3001,3075,750,3.992,-1.489,-0.064,91.5,red,227,TRUE
261,1660097339.895,3267,-1314,882,6.254,0.002,0.038,89.5,yellow,227,TRUE
262,1660097339.989,2543,-2525,2526,5.26,-0.484,0.064,100.1,green,227,TRUE
263,1660097340.285,2992,3057,750,3.868,-1.457,-0.086,90.4,red,227,TRUE
264,1660097340.382,3290,-1329,882,6.254,0.002,0.038,98.0,yellow,227,TRUE
265,1660097340.481,2550,-2523,2526,5.26,-0.495,0.062,89.1,green,227,TRUE
266,1660097341.896,2997,3040,750,4.514,-1.48,-0.013,93.3,red,227,TRUE
267,1660097341.998,3289,-1325,882,6.254,0.002,0.038,96.2,yellow,227,TRUE
268,1660097342.096,2550,-2517,2526,5.262,-0.467,0.063,87.3,green,227,TRUE
269,1660097343.515,3026,3015,750,4.542,-1.468,-0.015,89.1,red,227,TRUE
270,1660097343.613,3285,-1323,882,6.254,0.002,0.038,95.9,yellow,227,TRUE
271,1660097343.71,2550,-2515,2526,5.249,-0.505,0.027,87.8,green,227,TRUE
272,1660097345.112,3028,2996,750,4.573,-1.446,-0.223,90.3,red,227,TRUE
273,1660097345.208,3255,-1299,882,6.254,0.002,0.038,85.2,yellow,227,TRUE
274,1660097345.295,2565,-2513,2526,5.279,-0.495,0.072,88.0,green,227,TRUE
275,1660097345.548,3047,2975,750,4.577,-1.454,-0.024,93.2,red,227,TRUE
276,1660097345.654,3218,-1275,882,6.254,0.002,0.038,91.8,yellow,227,TRUE
277,1660097345.759,2577,-2506,2526,5.316,-0.512,0.104,91.7,green,227,TRUE
278,1660097345.946,3044,2943,750,4.7,-1.431,-0.22,86.8,red,227,TRUE
279,1660097346.046,3243,-1297,882,6.254,0.002,0.038,91.5,yellow,227,TRUE
280,1660097346.151,2594,-2505,2526,5.316,-0.501,0.106,92.6,green,227,TRUE
281,1660097346.355,3073,2907,750,4.746,-1.438,-0.196,85.5,red,227,TRUE
282,1660097346.442,3236,-1296,882,6.254,0.002,0.038,89.0,yellow,227,TRUE
283,1660097346.544,2598,-2501,2526,5.316,-0.496,0.107,90.8,green,227,TRUE
284,1660097346.815,3085,2896,750,4.564,-1.417,-0.248,91.0,red,227,TRUE
285,1660097346.908,3236,-1298,882,6.254,0.002,0.038,88.5,yellow,227,TRUE
286,1660097346.998,2585,-2502,2526,5.276,-0.465,0.081,88.6,green,227,TRUE
287,1660097347.269,3078,2861,750,4.422,-1.398,-0.315,89.9,red,227,TRUE
288,1660097347.36,3226,-1289,882,6.254,0.002,0.038,88.2,yellow,227,TRUE
289,1660097347.451,2588,-2510,2526,5.262,-0.468,0.075,88.9,green,227,TRUE
290,1660097347.658,3060,2856,750,4.434,-1.424,-0.332,91.9,red,227,TRUE
291,1660097347.763,3221,-1293,882,6.254,0.002,0.038,91.9,yellow,227,TRUE
292,1660097347.856,2607,-2517,2526,5.274,-0.484,0.068,90.6,green,227,TRUE
293,1660097348.051,3077,2844,750,4.523,-1.476,-0.031,93.0,red,227,TRUE
294,1660097348.157,3247,-1314,882,6.254,0.002,0.038,92.2,yellow,227,TRUE
295,1660097348.263,2556,-2495,2526,5.272,-0.489,0.065,93.2,green,227,TRUE
296,1660097348.507,3075,2833,750,4.454,-1.407,-0.235,90.6,red,227,TRUE
297,1660097348.611,3280,-1334,882,6.254,0.002,0.038,92.3,yellow,227,TRUE
298,1660097348.716,2535,-2488,2526,5.272,-0.488,0.065,92.4,green,227,TRUE
299,1660097348.961,3075,2841,750,4.442,-1.466,-0.023,88.6,red,227,TRUE
300,1660097349.062,3301,-1315,882,6.254,0.002,0.038,77.9,yellow,227,TRUE
301,1660097349.152,2483,-2471,2526,5.273,-0.484,0.067,75.8,green,227,TRUE
302,1660097349.339,3065,2856,750,4.403,-1.48,-0.045,85.5,red,227,TRUE
303,1660097349.425,3281,-1318,882,6.254,0.002,0.038,89.1,yellow,227,TRUE
304,1660097349.527,2467,-2471,2526,5.272,-0.482,0.067,90.9,green,227,TRUE
305,1660097349.8,3061,2879,750,4.38,-1.464,-0.057,92.5,red,227,TRUE
306,1660097349.893,3283,-1322,882,6.254,0.002,0.038,90.1,yellow,227,TRUE
307,1660097349.985,2426,-2476,2526,5.271,-0.478,0.067,88.1,green,227,TRUE
308,1660097350.207,3064,2897,750,4.436,-1.427,-0.361,93.6,red,227,TRUE
309,1660097350.301,3290,-1327,882,6.254,0.002,0.038,89.2,yellow,227,TRUE
310,1660097350.391,2372,-2449,2526,5.271,-0.478,0.068,89.7,green,227,TRUE
311,1660097350.646,3068,2912,750,4.409,-1.419,-0.344,92.7,red,227,TRUE
312,1660097350.751,3284,-1327,882,6.254,0.002,0.038,92.8,yellow,227,TRUE
313,1660097350.845,2342,-2443,2526,5.27,-0.475,0.068,90.4,green,227,TRUE
314,1660097351.039,3072,2930,750,4.393,-1.381,-0.302,92.3,red,227,TRUE
315,1660097351.144,3290,-1329,882,6.254,0.002,0.038,92.5,yellow,227,TRUE
316,1660097351.25,2313,-2436,2526,5.27,-0.475,0.068,92.4,green,227,TRUE
317,1660097351.492,3058,2943,750,4.519,-1.4,-0.235,89.6,red,227,TRUE
318,1660097351.596,3290,-1327,882,6.254,0.002,0.038,91.7,yellow,227,TRUE
319,1660097351.7,2277,-2426,2526,5.269,-0.484,0.068,91.0,green,227,TRUE
320,1660097351.945,3069,2931,750,4.549,-1.418,-0.239,89.5,red,227,TRUE
321,1660097352.036,3292,-1325,882,6.254,0.002,0.038,89.2,yellow,227,TRUE
322,1660097352.138,2260,-2417,2526,5.27,-0.488,0.068,93.0,green,227,TRUE
323,1660097352.454,3300,-1333,882,6.254,0.002,0.038,90.0,yellow,227,TRUE
324,1660097352.558,2235,-2406,2526,5.27,-0.488,0.068,92.5,green,227,TRUE
325,1660097352.829,3080,2895,750,4.419,-1.397,-0.19,91.8,red,227,TRUE
326,1660097352.923,3273,-1310,882,6.254,0.002,0.038,89.6,yellow,227,TRUE
327,1660097353.014,2173,-2369,2526,5.269,-0.488,0.068,89.6,green,227,TRUE
328,1660097354.491,3113,2907,750,4.832,-1.356,-0.908,92.2,red,227,TRUE
329,1660097354.592,3246,-1288,882,6.254,0.002,0.038,95.5,yellow,227,TRUE
330,1660097354.69,2202,-2391,2526,5.27,-0.482,0.068,87.4,green,227,TRUE
331,1660097356.04,3156,3035,750,5.372,-1.417,-0.857,92.3,red,227,TRUE
332,1660097356.141,3246,-1290,882,6.254,0.002,0.038,81.3,yellow,227,TRUE
333,1660097356.224,2200,-2392,2526,5.269,-0.487,0.068,87.0,green,227,TRUE
334,1660097357.569,3197,3229,750,5.099,-1.372,-0.651,98.0,red,227,TRUE
335,1660097357.669,3243,-1321,882,6.254,0.002,0.038,90.0,yellow,227,TRUE
336,1660097357.772,2250,-2419,2526,5.269,-0.475,0.069,92.4,green,227,TRUE
337,1660097359.097,3216,3530,750,5.106,-1.354,-0.512,91.4,red,227,TRUE
338,1660097359.197,3291,-1338,882,6.254,0.002,0.038,82.6,yellow,227,TRUE
339,1660097359.282,2249,-2409,2526,5.27,-0.477,0.07,88.0,green,227,TRUE
340,1660097360.687,3222,3879,750,3.702,-1.504,-0.038,89.1,red,227,TRUE
341,1660097360.784,3329,-1360,882,6.254,0.002,0.038,79.6,yellow,227,TRUE
342,1660097360.866,2245,-2378,2526,5.269,-0.48,0.072,89.5,green,227,TRUE
343,1660097362.266,3233,4235,750,3.588,-1.467,-0.05,92.2,red,227,TRUE
344,1660097362.365,3357,-1380,882,6.254,0.002,0.038,84.1,yellow,227,TRUE
345,1660097362.451,2305,-2415,2526,5.269,-0.481,0.072,87.5,green,227,TRUE
346,1660097362.702,3242,4594,750,3.601,-1.458,-0.051,93.6,red,227,TRUE
347,1660097362.797,3397,-1404,882,6.254,0.002,0.038,89.1,yellow,227,TRUE
348,1660097362.886,2334,-2434,2526,5.269,-0.479,0.072,89.6,green,227,TRUE
349,1660097363.096,3251,4962,750,3.592,-1.462,-0.06,92.1,red,227,TRUE
350,1660097363.201,3365,-1381,882,6.254,0.002,0.038,91.9,yellow,227,TRUE
351,1660097363.294,2324,-2430,2526,5.269,-0.476,0.072,90.7,green,227,TRUE
352,1660097363.482,3266,5328,750,3.588,-1.469,-0.055,83.2,red,227,TRUE
353,1660097363.566,3369,-1383,882,6.254,0.002,0.038,90.4,yellow,227,TRUE
354,1660097363.669,2365,-2450,2526,5.269,-0.473,0.074,92.5,green,227,TRUE
355,1660097363.929,3275,5706,750,3.594,-1.472,-0.057,89.6,red,227,TRUE
356,1660097364.019,3371,-1385,882,6.254,0.002,0.038,90.6,yellow,227,TRUE
357,1660097364.123,2362,-2448,2526,5.269,-0.483,0.074,91.5,green,227,TRUE
358,1660097364.43,3296,6122,750,3.565,-1.488,-0.048,87.0,red,227,TRUE
359,1660097364.52,3375,-1384,882,6.254,0.002,0.038,89.5,yellow,227,TRUE
360,1660097364.61,2363,-2448,2526,5.263,-0.506,0.068,88.0,green,227,TRUE
361,1660097364.899,3304,6488,750,3.581,-1.475,-0.075,87.5,red,227,TRUE
362,1660097364.988,3407,-1406,882,6.254,0.002,0.038,89.1,yellow,227,TRUE
363,1660097365.09,2395,-2472,2526,5.114,-0.515,0.003,93.0,green,227,TRUE
364,1660097365.441,3287,6839,750,3.567,-1.463,-0.08,90.0,red,227,TRUE
365,1660097365.532,3441,-1429,882,6.254,0.002,0.038,88.7,yellow,227,TRUE
366,1660097365.623,2384,-2480,2526,5.171,-0.483,0.025,85.5,green,227,TRUE
367,1660097365.892,3258,7086,750,3.57,-1.444,-0.747,87.3,red,227,TRUE
368,1660097365.981,3412,-1406,882,6.254,0.002,0.038,90.2,yellow,227,TRUE
369,1660097366.084,2380,-2490,2526,5.187,-0.476,0.032,78.4,green,227,TRUE
370,1660097366.343,3245,7253,750,3.577,-1.446,-0.813,90.3,red,227,TRUE
371,1660097366.436,3376,-1382,882,6.254,0.002,0.038,88.1,yellow,227,TRUE
372,1660097366.525,2350,-2485,2526,5.205,-0.458,0.043,89.2,green,227,TRUE
373,1660097366.84,3243,7313,750,3.603,-1.433,-0.816,90.9,red,227,TRUE
374,1660097366.934,3371,-1381,882,6.254,0.002,0.038,88.1,yellow,227,TRUE
375,1660097367.023,2354,-2497,2526,5.203,-0.481,0.052,89.4,green,227,TRUE
376,1660097368.453,3249,7321,750,3.624,-1.442,-0.809,91.4,red,227,TRUE
377,1660097368.556,3364,-1381,882,6.254,0.002,0.038,93.6,yellow,227,TRUE
378,1660097368.651,2381,-2521,2526,5.232,-0.503,0.084,89.0,green,227,TRUE
379,1660097370.052,3237,7321,750,3.722,-1.479,-0.085,88.8,red,227,TRUE
380,1660097370.151,3361,-1381,882,6.254,0.002,0.038,95.6,yellow,227,TRUE
381,1660097370.248,2354,-2513,2526,5.234,-0.47,0.088,88.1,green,227,TRUE
382,1660097370.504,3229,7323,750,3.723,-1.456,-0.08,86.1,red,227,TRUE
383,1660097370.593,3353,-1379,882,6.254,0.002,0.038,88.0,yellow,227,TRUE
384,1660097370.682,2321,-2506,2526,5.237,-0.458,0.087,90.2,green,227,TRUE
385,1660097372.085,3219,7328,750,3.626,-1.386,-0.673,91.2,red,227,TRUE
386,1660097372.184,3384,-1402,882,6.254,0.002,0.038,82.7,yellow,227,TRUE
387,1660097372.267,2324,-2520,2526,5.231,-0.477,0.085,89.8,green,227,TRUE
388,1660097373.653,3178,7341,750,3.579,-1.404,-0.551,92.1,red,227,TRUE
389,1660097373.754,3382,-1400,882,6.254,0.002,0.038,95.7,yellow,227,TRUE
390,1660097373.852,2288,-2512,2526,5.233,-0.517,0.075,89.1,green,227,TRUE
391,1660097375.25,3170,7346,750,3.649,-1.434,-0.693,93.1,red,227,TRUE
392,1660097375.464,2288,-2532,2526,5.213,-0.533,0.071,89.7,green,227,TRUE
393,1660097375.706,3170,7350,750,3.659,-1.453,-0.083,87.7,red,227,TRUE
394,1660097375.795,3292,-1268,882,6.254,0.002,0.038,91.0,yellow,227,TRUE
395,1660097375.887,2295,-2537,2526,5.217,-0.533,0.068,88.7,green,227,TRUE
396,1660097376.094,3173,7353,750,3.668,-1.462,-0.082,94.2,red,227,TRUE
397,1660097376.2,3288,-1268,882,6.254,0.002,0.038,91.5,yellow,227,TRUE
398,1660097376.293,2301,-2536,2526,5.226,-0.535,0.072,90.2,green,227,TRUE
399,1660097376.487,3171,7360,750,3.676,-1.41,-0.595,92.7,red,227,TRUE
400,1660097376.58,3285,-1268,882,6.254,0.002,0.038,89.2,yellow,227,TRUE
401,1660097376.67,2313,-2529,2526,5.223,-0.535,0.072,91.4,green,227,TRUE
402,1660097376.911,3175,7366,750,3.68,-1.394,-0.611,90.0,red,227,TRUE
403,1660097377.002,3311,-1289,882,6.254,0.002,0.038,90.4,yellow,227,TRUE
404,1660097377.106,2326,-2525,2526,5.227,-0.523,0.074,93.0,green,227,TRUE
405,1660097377.35,3149,7377,750,3.695,-1.407,-0.656,89.4,red,227,TRUE
406,1660097377.44,3346,-1314,882,6.254,0.002,0.038,88.5,yellow,227,TRUE
407,1660097377.542,2322,-2527,2526,5.228,-0.523,0.074,76.9,green,227,TRUE
408,1660097377.714,3153,7379,750,3.737,-1.424,-0.616,85.2,red,227,TRUE
409,1660097377.8,3357,-1318,882,6.254,0.002,0.038,90.1,yellow,227,TRUE
410,1660097377.89,2316,-2530,2526,5.227,-0.519,0.074,90.5,green,227,TRUE
411,1660097378.1,3121,7389,750,3.746,-1.436,-0.67,95.3,red,227,TRUE
412,1660097378.205,3358,-1319,882,6.254,0.002,0.038,93.1,yellow,227,TRUE
413,1660097378.299,2308,-2537,2526,5.228,-0.507,0.074,89.8,green,227,TRUE
414,1660097378.549,3097,7401,750,3.724,-1.46,-0.073,96.6,red,227,TRUE
415,1660097378.645,3354,-1319,882,6.254,0.002,0.038,89.5,yellow,227,TRUE
416,1660097378.738,2298,-2537,2526,5.228,-0.5,0.075,87.0,green,227,TRUE
417,1660097378.978,3084,7405,750,3.74,-1.457,-0.07,87.5,red,227,TRUE
418,1660097379.078,3357,-1319,882,6.254,0.002,0.038,93.7,yellow,227,TRUE
419,1660097379.185,2290,-2541,2526,5.228,-0.499,0.075,90.9,green,227,TRUE
420,1660097379.371,3063,7407,750,3.732,-1.445,-0.58,87.1,red,227,TRUE
421,1660097379.459,3362,-1321,882,6.254,0.002,0.038,88.6,yellow,227,TRUE
422,1660097379.55,2285,-2543,2526,5.227,-0.497,0.075,89.9,green,227,TRUE
423,1660097379.744,3073,7406,750,3.706,-1.453,-0.059,92.1,red,227,TRUE
424,1660097379.837,3364,-1321,882,6.254,0.002,0.038,90.4,yellow,227,TRUE
425,1660097379.927,2280,-2542,2526,5.227,-0.493,0.076,89.4,green,227,TRUE
426,1660097380.196,3075,7402,750,3.678,-1.431,-0.448,93.1,red,227,TRUE
427,1660097380.289,3493,-1475,882,6.254,0.002,0.038,89.0,yellow,227,TRUE
428,1660097380.379,2276,-2540,2526,5.227,-0.49,0.076,90.1,green,227,TRUE
429,1660097380.62,3071,7406,750,3.656,-1.427,-0.487,88.9,red,227,TRUE
430,1660097380.71,3494,-1473,882,6.254,0.002,0.038,89.0,yellow,227,TRUE
431,1660097380.799,2259,-2545,2526,5.227,-0.485,0.076,90.4,green,227,TRUE
432,1660097380.994,3051,7409,750,3.672,-1.441,-0.564,91.7,red,227,TRUE
433,1660097381.098,3492,-1428,882,6.254,0.002,0.038,92.1,yellow,227,TRUE
434,1660097381.203,2248,-2552,2526,5.217,-0.47,0.069,91.7,green,227,TRUE
435,1660097381.39,3050,7408,750,3.679,-1.458,-0.08,86.6,red,227,TRUE
436,1660097381.489,3490,-1427,882,6.254,0.002,0.038,91.3,yellow,227,TRUE
437,1660097381.582,2233,-2559,2526,5.224,-0.46,0.07,91.0,green,227,TRUE
438,1660097381.823,3039,7410,750,3.664,-1.455,-0.079,91.3,red,227,TRUE
439,1660097381.915,3491,-1428,882,6.254,0.002,0.038,90.5,yellow,227,TRUE
440,1660097382.008,2231,-2563,2526,5.221,-0.444,0.079,85.7,green,227,TRUE
441,1660097382.292,3061,7402,750,3.651,-1.44,-0.65,90.5,red,227,TRUE
442,1660097382.385,3488,-1427,882,6.254,0.002,0.038,88.6,yellow,227,TRUE
443,1660097382.475,2259,-2561,2526,5.228,-0.433,0.08,90.1,green,227,TRUE
444,1660097382.734,3062,7401,750,3.611,-1.453,-0.07,86.5,red,227,TRUE
445,1660097382.82,3481,-1428,882,6.254,0.002,0.038,91.3,yellow,227,TRUE
446,1660097382.911,2281,-2553,2526,5.233,-0.439,0.074,90.8,green,227,TRUE
447,1660097384.296,3104,7394,750,3.526,-1.406,-0.468,92.1,red,227,TRUE
448,1660097384.395,3453,-1405,882,6.254,0.002,0.038,83.1,yellow,227,TRUE
449,1660097384.481,2311,-2555,2526,5.2,-0.454,0.034,88.0,green,227,TRUE
450,1660097385.837,3154,7393,750,3.529,-1.453,-0.024,90.2,red,227,TRUE
451,1660097385.936,3426,-1384,882,6.254,0.002,0.038,97.8,yellow,227,TRUE
452,1660097386.036,2344,-2562,2526,5.215,-0.456,0.045,85.7,green,227,TRUE
453,1660097386.306,3154,7400,750,3.6,-1.421,-0.133,91.2,red,227,TRUE
454,1660097386.401,3426,-1383,882,6.254,0.002,0.038,86.2,yellow,227,TRUE
455,1660097386.489,2381,-2565,2526,5.217,-0.453,0.052,89.4,green,227,TRUE
456,1660097386.809,3152,7401,750,3.64,-1.449,-0.184,98.6,red,227,TRUE
457,1660097386.912,3422,-1382,882,6.254,0.002,0.038,87.2,yellow,227,TRUE
458,1660097387.0,2363,-2529,2526,5.217,-0.467,0.047,89.3,green,227,TRUE
459,1660097387.342,3157,7401,750,3.654,-1.462,-0.014,93.4,red,227,TRUE
460,1660097387.44,3390,-1361,882,6.254,0.002,0.038,86.3,yellow,227,TRUE
461,1660097387.527,2384,-2526,2526,5.213,-0.478,0.044,90.6,green,227,TRUE
462,1660097388.932,3173,7399,750,3.668,-1.46,-0.017,92.0,red,227,TRUE
463,1660097389.034,3387,-1362,882,6.254,0.002,0.038,79.9,yellow,227,TRUE
464,1660097389.115,2419,-2529,2526,5.219,-0.469,0.05,89.7,green,227,TRUE
465,1660097390.536,3185,7385,750,3.53,-1.427,-0.076,89.6,red,227,TRUE
466,1660097390.635,3389,-1362,882,6.254,0.002,0.038,94.3,yellow,227,TRUE
467,1660097390.731,2437,-2521,2526,5.222,-0.452,0.049,88.3,green,227,TRUE
468,1660097392.129,3216,7392,750,3.216,-1.383,-0.535,91.8,red,227,TRUE
469,1660097392.228,3395,-1407,882,6.254,0.002,0.038,82.9,yellow,227,TRUE
470,1660097392.312,2451,-2515,2526,5.223,-0.453,0.052,90.3,green,227,TRUE
471,1660097392.567,3233,7411,750,3.282,-1.403,-0.685,92.8,red,227,TRUE
472,1660097392.672,3395,-1410,882,6.254,0.002,0.038,92.4,yellow,227,TRUE
473,1660097392.765,2464,-2507,2526,5.223,-0.449,0.052,91.2,green,227,TRUE
474,1660097392.954,3252,7430,750,3.296,-1.418,-0.762,83.3,red,227,TRUE
475,1660097393.051,3393,-1409,882,6.254,0.002,0.038,96.3,yellow,227,TRUE
476,1660097393.156,2485,-2515,2526,5.245,-0.453,0.062,94.2,green,227,TRUE
477,1660097393.358,3266,7438,750,3.35,-1.413,-0.567,87.4,red,227,TRUE
478,1660097393.446,3359,-1386,882,6.254,0.002,0.038,89.7,yellow,227,TRUE
479,1660097393.549,2501,-2531,2526,5.384,-0.455,0.113,92.5,green,227,TRUE
480,1660097393.808,3274,7444,750,3.35,-1.406,-0.611,91.0,red,227,TRUE
481,1660097393.9,3363,-1383,882,6.254,0.002,0.038,89.4,yellow,227,TRUE
482,1660097393.993,2497,-2533,2526,5.453,-0.464,0.128,87.2,green,227,TRUE
483,1660097394.258,3275,7446,750,3.318,-1.381,-0.563,91.9,red,227,TRUE
484,1660097394.35,3391,-1405,882,6.254,0.002,0.038,91.4,yellow,227,TRUE
485,1660097394.442,2486,-2526,2526,5.429,-0.46,0.109,90.7,green,227,TRUE
486,1660097394.65,3274,7443,750,3.31,-1.398,-0.577,91.4,red,227,TRUE
487,1660097394.742,3419,-1423,882,6.254,0.002,0.038,89.8,yellow,227,TRUE
488,1660097394.833,2480,-2516,2526,5.289,-0.444,0.082,90.7,green,227,TRUE
489,1660097395.027,3305,7445,750,3.36,-1.421,-0.564,92.7,red,227,TRUE
490,1660097395.133,3417,-1421,882,6.254,0.002,0.038,93.1,yellow,227,TRUE
491,1660097395.239,2468,-2504,2526,5.07,-0.416,0.047,106.4,green,227,TRUE
492,1660097395.496,3354,7453,750,3.279,-1.378,-0.509,92.3,red,227,TRUE
493,1660097395.6,3417,-1422,882,6.254,0.002,0.038,90.0,yellow,227,TRUE
494,1660097395.704,2495,-2546,2526,5.135,-0.451,0.049,91.8,green,227,TRUE
495,1660097395.949,3390,7455,750,3.192,-1.377,-0.457,86.4,red,227,TRUE
496,1660097396.037,3451,-1444,882,6.254,0.002,0.038,89.3,yellow,227,TRUE
497,1660097396.14,2486,-2553,2526,5.208,-0.504,0.043,91.8,green,227,TRUE
498,1660097396.342,3383,7478,750,3.208,-1.393,-0.427,87.2,red,227,TRUE
499,1660097396.429,3449,-1448,882,6.254,0.002,0.038,91.1,yellow,227,TRUE
500,1660097396.533,2468,-2542,2526,5.2,-0.553,0.037,93.1,green,227,TRUE
501,1660097396.736,3391,7495,750,3.262,-1.401,-0.466,86.7,red,227,TRUE
502,1660097396.824,3439,-1449,882,6.254,0.002,0.038,89.3,yellow,227,TRUE
503,1660097396.913,2458,-2551,2526,5.184,-0.548,0.033,91.3,green,227,TRUE
504,1660097397.183,3402,7491,750,3.343,-1.42,-0.663,92.5,red,227,TRUE
505,1660097397.287,3437,-1450,882,6.254,0.002,0.038,93.2,yellow,227,TRUE
506,1660097397.381,2482,-2553,2526,5.203,-0.523,0.036,90.1,green,227,TRUE
507,1660097397.635,3404,7470,750,3.33,-1.439,-0.936,91.8,red,227,TRUE
508,1660097397.727,3443,-1451,882,6.254,0.002,0.038,90.3,yellow,227,TRUE
509,1660097397.818,2501,-2556,2526,5.198,-0.517,0.035,90.4,green,227,TRUE
510,1660097398.012,3411,7444,750,3.418,-1.462,-0.058,93.3,red,227,TRUE
511,1660097398.118,3445,-1452,882,6.254,0.002,0.038,90.9,yellow,227,TRUE
512,1660097398.223,2473,-2550,2526,5.199,-0.517,0.035,92.9,green,227,TRUE
513,1660097398.465,3413,7440,750,3.52,-1.474,-0.044,91.6,red,227,TRUE
514,1660097398.57,3476,-1473,882,6.254,0.002,0.038,91.7,yellow,227,TRUE
515,1660097398.676,2469,-2527,2526,5.197,-0.514,0.035,91.8,green,227,TRUE
516,1660097398.865,3412,7434,750,3.451,-1.481,-0.057,86.5,red,227,TRUE
517,1660097398.951,3473,-1472,882,6.254,0.002,0.038,89.2,yellow,227,TRUE
518,1660097399.053,2454,-2534,2526,5.192,-0.52,0.041,107.9,green,227,TRUE
519,1660097400.472,3410,7434,750,3.463,-1.47,-0.034,91.8,red,227,TRUE
520,1660097400.576,3477,-1474,882,6.254,0.002,0.038,94.1,yellow,227,TRUE
521,1660097400.672,2438,-2543,2526,5.197,-0.533,0.051,73.7,green,227,TRUE
522,1660097401.982,3413,7434,750,3.391,-1.49,-0.061,88.8,red,227,TRUE
523,1660097402.078,3486,-1480,882,6.254,0.002,0.038,81.5,yellow,227,TRUE
524,1660097402.161,2420,-2546,2526,5.201,-0.506,0.05,88.5,green,227,TRUE
525,1660097403.487,3412,7425,750,3.387,-1.476,-0.06,87.9,red,227,TRUE
526,1660097403.697,2424,-2544,2526,5.202,-0.52,0.048,89.9,green,227,TRUE
527,1660097403.942,3410,7409,750,3.365,-1.47,-0.063,86.5,red,227,TRUE
528,1660097404.029,3365,-1332,882,6.254,0.002,0.038,87.5,yellow,227,TRUE
529,1660097404.13,2440,-2529,2526,5.201,-0.517,0.044,92.6,green,227,TRUE
530,1660097404.33,3415,7403,750,3.386,-1.484,-0.056,88.7,red,227,TRUE
531,1660097404.42,3364,-1330,882,6.254,0.002,0.038,89.4,yellow,227,TRUE
532,1660097404.522,2480,-2516,2526,5.199,-0.516,0.049,92.6,green,227,TRUE
533,1660097404.81,3425,7382,750,3.418,-1.49,-0.056,90.0,red,227,TRUE
534,1660097404.901,3361,-1326,882,6.254,0.002,0.038,90.9,yellow,227,TRUE
535,1660097404.996,2494,-2515,2526,5.2,-0.516,0.05,85.2,green,227,TRUE
536,1660097406.408,3416,7371,750,3.736,-1.516,0.001,92.2,red,227,TRUE
537,1660097406.508,3364,-1326,882,6.254,0.002,0.038,81.4,yellow,227,TRUE
538,1660097406.591,2492,-2515,2526,5.208,-0.5,0.06,90.5,green,227,TRUE
539,1660097408.007,3413,7372,750,3.339,-1.458,0.019,90.4,red,227,TRUE
540,1660097408.109,3358,-1323,882,6.254,0.002,0.038,95.0,yellow,227,TRUE
541,1660097408.205,2452,-2517,2526,5.183,-0.523,0.023,88.4,green,227,TRUE
542,1660097409.622,3411,7373,750,3.31,-1.485,-0.048,91.3,red,227,TRUE
543,1660097409.722,3330,-1300,882,6.254,0.002,0.038,97.0,yellow,227,TRUE
544,1660097409.82,2422,-2522,2526,5.177,-0.484,0.043,88.2,green,227,TRUE
545,1660097410.073,3408,7375,750,3.31,-1.518,-0.039,93.0,red,227,TRUE
546,1660097410.179,3326,-1300,882,6.254,0.002,0.038,79.2,yellow,227,TRUE
547,1660097410.271,2416,-2529,2526,5.184,-0.47,0.05,91.1,green,227,TRUE
548,1660097410.457,3411,7367,750,3.294,-1.491,-0.043,84.3,red,227,TRUE
549,1660097410.556,3324,-1300,882,6.254,0.002,0.038,93.3,yellow,227,TRUE
550,1660097410.661,2392,-2534,2526,5.19,-0.476,0.053,93.3,green,227,TRUE
551,1660097410.863,3422,7376,750,3.262,-1.481,-0.048,85.5,red,227,TRUE
552,1660097410.95,3334,-1303,882,6.254,0.002,0.038,90.6,yellow,227,TRUE
553,1660097411.053,2412,-2527,2526,5.223,-0.463,0.055,90.9,green,227,TRUE
554,1660097411.339,3429,7372,750,3.204,-1.466,-0.056,93.0,red,227,TRUE
555,1660097411.432,3331,-1302,882,6.254,0.002,0.038,89.9,yellow,227,TRUE
556,1660097411.525,2424,-2518,2526,5.201,-0.481,0.019,86.4,green,227,TRUE
557,1660097411.805,3428,7374,750,3.178,-1.466,-0.048,91.2,red,227,TRUE
558,1660097411.897,3326,-1299,882,6.254,0.002,0.038,90.9,yellow,227,TRUE
559,1660097411.988,2427,-2511,2526,5.2,-0.492,0.044,89.2,green,227,TRUE
560,1660097412.196,3429,7378,750,3.17,-1.465,-0.058,93.6,red,227,TRUE
561,1660097412.304,3449,-1451,882,6.254,0.002,0.038,91.9,yellow,227,TRUE
562,1660097412.397,2419,-2513,2526,5.196,-0.503,0.04,90.2,green,227,TRUE
563,1660097412.65,3427,7376,750,3.22,-1.494,-0.055,92.9,red,227,TRUE
564,1660097412.756,3451,-1449,882,6.254,0.002,0.038,91.3,yellow,227,TRUE
565,1660097412.848,2410,-2513,2526,5.199,-0.506,0.038,90.1,green,227,TRUE
566,1660097413.102,3422,7372,750,3.215,-1.492,-0.069,92.8,red,227,TRUE
567,1660097413.208,3448,-1450,882,6.254,0.002,0.038,92.5,yellow,227,TRUE
568,1660097413.311,2379,-2517,2526,5.2,-0.496,0.038,94.2,green,227,TRUE
569,1660097413.509,3422,7372,750,3.254,-1.5,-0.057,92.4,red,227,TRUE
570,1660097413.614,3451,-1450,882,6.254,0.002,0.038,91.5,yellow,227,TRUE
571,1660097413.72,2366,-2520,2526,5.188,-0.509,0.031,93.2,green,227,TRUE
572,1660097413.963,3427,7373,750,3.392,-1.493,-0.055,89.0,red,227,TRUE
573,1660097414.053,3449,-1448,882,6.254,0.002,0.038,89.9,yellow,227,TRUE
574,1660097414.156,2382,-2518,2526,5.187,-0.513,0.026,92.1,green,227,TRUE
575,1660097414.416,3400,7372,750,3.401,-1.485,-0.074,88.4,red,227,TRUE
576,1660097414.507,3422,-1429,882,6.254,0.002,0.038,88.4,yellow,227,TRUE
577,1660097414.608,2402,-2518,2526,5.185,-0.53,0.024,91.4,green,227,TRUE
578,1660097414.815,3396,7368,750,3.244,-1.46,-0.098,94.1,red,227,TRUE
579,1660097414.91,3419,-1428,882,6.254,0.002,0.038,91.0,yellow,227,TRUE
580,1660097415.002,2424,-2514,2526,5.183,-0.543,0.02,90.0,green,227,TRUE
581,1660097415.211,3393,7370,750,3.292,-1.472,-0.067,93.5,red,227,TRUE
582,1660097415.312,3395,-1408,882,6.254,0.002,0.038,83.9,yellow,227,TRUE
583,1660097415.395,2446,-2505,2526,5.183,-0.541,0.02,90.1,green,227,TRUE
584,1660097415.665,3380,7376,750,3.466,-1.445,-0.405,91.0,red,227,TRUE
585,1660097415.769,3397,-1411,882,6.254,0.002,0.038,90.8,yellow,227,TRUE
586,1660097415.861,2453,-2505,2526,5.186,-0.541,0.024,93.9,green,227,TRUE
587,1660097416.13,3366,7368,750,3.411,-1.485,-0.052,92.9,red,227,TRUE
588,1660097416.235,3390,-1410,882,6.254,0.002,0.038,92.8,yellow,227,TRUE
589,1660097416.328,2451,-2507,2526,5.186,-0.54,0.032,90.2,green,227,TRUE
590,1660097416.522,3358,7364,750,3.138,-1.474,-0.077,92.5,red,227,TRUE
591,1660097416.627,3389,-1412,882,6.254,0.002,0.038,93.3,yellow,227,TRUE
592,1660097416.733,2453,-2506,2526,5.189,-0.524,0.04,90.6,green,227,TRUE
593,1660097416.976,3369,7376,750,2.813,-1.466,-0.091,89.3,red,227,TRUE
594,1660097417.065,3395,-1411,882,6.254,0.002,0.038,91.9,yellow,227,TRUE
595,1660097417.17,2459,-2508,2526,5.191,-0.508,0.043,91.3,green,227,TRUE
596,1660097417.429,3375,7394,750,2.808,-1.488,-0.072,89.9,red,227,TRUE
597,1660097417.518,3387,-1410,882,6.254,0.002,0.038,89.4,yellow,227,TRUE
598,1660097417.621,2458,-2506,2526,5.19,-0.5,0.044,91.6,green,227,TRUE
599,1660097417.822,3391,7401,750,2.865,-1.473,-0.076,86.4,red,227,TRUE
600,1660097417.909,3354,-1389,882,6.254,0.002,0.038,90.7,yellow,227,TRUE
601,1660097418.0,2456,-2505,2526,5.188,-0.512,0.039,91.3,green,227,TRUE
602,1660097418.21,3402,7405,750,2.918,-1.468,-0.079,92.4,red,227,TRUE
603,1660097418.312,3414,-1425,882,6.254,0.002,0.038,95.7,yellow,227,TRUE
604,1660097418.408,2449,-2507,2526,5.187,-0.532,0.034,90.7,green,227,TRUE
605,1660097418.677,3412,7411,750,2.966,-1.468,-0.071,92.6,red,227,TRUE
606,1660097418.783,3412,-1423,882,6.254,0.002,0.038,93.1,yellow,227,TRUE
607,1660097418.876,2452,-2509,2526,5.186,-0.544,0.029,90.1,green,227,TRUE
608,1660097419.129,3417,7412,750,3.01,-1.457,-0.073,91.7,red,227,TRUE
609,1660097419.234,3415,-1424,882,6.254,0.002,0.038,92.8,yellow,227,TRUE
610,1660097419.326,2447,-2507,2526,5.184,-0.547,0.028,89.5,green,227,TRUE
611,1660097419.519,3441,7410,750,3.139,-1.434,-0.467,91.6,red,227,TRUE
612,1660097419.624,3415,-1426,882,6.254,0.002,0.038,91.6,yellow,227,TRUE
613,1660097419.729,2442,-2506,2526,5.184,-0.544,0.028,92.9,green,227,TRUE
614,1660097419.972,3445,7411,750,3.021,-1.42,-0.688,91.1,red,227,TRUE
615,1660097420.063,3447,-1450,882,6.254,0.002,0.038,90.5,yellow,227,TRUE
616,1660097420.166,2438,-2505,2526,5.183,-0.541,0.028,91.3,green,227,TRUE
617,1660097420.426,3443,7435,750,2.989,-1.464,-0.056,90.7,red,227,TRUE
618,1660097420.517,3478,-1471,882,6.254,0.002,0.038,90.7,yellow,227,TRUE
619,1660097420.609,2434,-2505,2526,5.183,-0.54,0.028,88.6,green,227,TRUE
620,1660097420.818,3466,7458,750,2.909,-1.482,-0.037,90.3,red,227,TRUE
621,1660097420.91,3478,-1471,882,6.254,0.002,0.038,91.6,yellow,227,TRUE
622,1660097421.002,2432,-2503,2526,5.183,-0.535,0.028,88.5,green,227,TRUE
623,1660097421.209,3491,7471,750,2.882,-1.445,-0.11,93.5,red,227,TRUE
624,1660097421.314,3477,-1469,882,6.254,0.002,0.038,79.1,yellow,227,TRUE
625,1660097421.394,2428,-2501,2526,5.183,-0.535,0.029,90.7,green,227,TRUE
626,1660097421.664,3519,7509,750,2.887,-1.448,-0.139,91.9,red,227,TRUE
627,1660097421.768,3478,-1470,882,6.254,0.002,0.038,92.2,yellow,227,TRUE
628,1660097421.861,2428,-2501,2526,5.187,-0.526,0.034,89.5,green,227,TRUE
629,1660097422.103,3533,7537,750,2.88,-1.486,-0.014,89.1,red,227,TRUE
630,1660097422.205,3442,-1448,882,6.254,0.002,0.038,91.5,yellow,227,TRUE
631,1660097422.311,2424,-2501,2526,5.185,-0.533,0.034,92.4,green,227,TRUE
632,1660097422.496,3540,7523,750,2.834,-1.505,0.033,86.5,red,227,TRUE
633,1660097422.596,3420,-1429,882,6.254,0.002,0.038,92.4,yellow,227,TRUE
634,1660097422.701,2423,-2503,2526,5.185,-0.542,0.034,91.8,green,227,TRUE
635,1660097422.964,3546,7559,750,2.095,-1.514,-0.036,88.5,red,227,TRUE
636,1660097423.054,3457,-1451,882,6.254,0.002,0.038,91.0,yellow,227,TRUE
637,1660097423.157,2427,-2506,2526,5.185,-0.55,0.034,92.0,green,227,TRUE
638,1660097423.416,3567,7593,750,1.425,-1.419,-0.802,89.6,red,227,TRUE
639,1660097423.507,3398,-1418,882,6.254,0.002,0.038,87.8,yellow,227,TRUE
640,1660097423.608,2431,-2505,2526,5.185,-0.552,0.034,94.6,green,227,TRUE
641,1660097423.82,3589,7608,750,1.542,-1.485,-0.033,92.0,red,227,TRUE
642,1660097423.913,3369,-1396,882,6.254,0.002,0.038,88.5,yellow,227,TRUE
643,1660097424.003,2431,-2506,2526,5.183,-0.549,0.035,89.7,green,227,TRUE
644,1660097424.211,3629,7657,750,1.649,-1.469,0.052,92.9,red,227,TRUE
645,1660097424.316,3368,-1395,882,6.254,0.002,0.038,79.1,yellow,227,TRUE
646,1660097424.395,2430,-2504,2526,5.185,-0.547,0.037,90.1,green,227,TRUE
647,1660097424.65,3678,7703,750,1.385,-1.443,0.217,92.7,red,227,TRUE
648,1660097424.743,3395,-1414,882,6.254,0.002,0.038,87.8,yellow,227,TRUE
649,1660097424.832,2425,-2503,2526,5.185,-0.541,0.037,90.3,green,227,TRUE
650,1660097425.077,3727,7759,750,1.146,-1.475,-0.037,87.2,red,227,TRUE
651,1660097425.176,3393,-1411,882,6.254,0.002,0.038,91.5,yellow,227,TRUE
652,1660097425.281,2429,-2502,2526,5.211,-0.609,0.037,91.2,green,227,TRUE
653,1660097425.47,3767,7753,750,1.172,-1.468,-0.069,85.2,red,227,TRUE
654,1660097425.568,3361,-1390,882,6.254,0.002,0.038,92.8,yellow,227,TRUE
655,1660097425.673,2425,-2502,2526,5.208,-0.793,0.0,91.9,green,227,TRUE
656,1660097425.874,3793,7734,750,1.344,-1.391,-0.722,87.7,red,227,TRUE
657,1660097425.962,3329,-1366,882,6.254,0.002,0.038,90.0,yellow,227,TRUE
658,1660097426.053,2434,-2499,2526,5.22,-0.86,0.003,90.3,green,227,TRUE
659,1660097426.306,3805,7713,750,1.8,-1.521,-0.027,92.5,red,227,TRUE
660,1660097426.4,3303,-1346,882,6.254,0.002,0.038,88.1,yellow,227,TRUE
661,1660097426.489,2444,-2498,2526,5.224,-0.854,0.014,90.8,green,227,TRUE
662,1660097426.759,3824,7679,750,1.85,-1.51,0.02,91.1,red,227,TRUE
663,1660097426.851,3268,-1320,882,6.254,0.002,0.038,90.5,yellow,227,TRUE
664,1660097426.943,2463,-2497,2526,5.228,-0.843,0.024,89.0,green,227,TRUE
665,1660097427.134,3855,7628,750,1.497,-1.493,-0.007,92.1,red,227,TRUE
666,1660097427.24,3303,-1345,882,6.254,0.002,0.038,91.3,yellow,227,TRUE
667,1660097427.333,2488,-2495,2526,5.228,-0.836,0.017,89.8,green,227,TRUE
668,1660097427.526,3897,7603,750,1.205,-1.456,-0.069,93.0,red,227,TRUE
669,1660097427.632,3299,-1342,882,6.254,0.002,0.038,91.5,yellow,227,TRUE
670,1660097427.737,2515,-2493,2526,5.229,-0.83,0.023,92.2,green,227,TRUE
671,1660097427.979,3930,7551,750,1.249,-1.455,-0.077,90.3,red,227,TRUE
672,1660097428.07,3259,-1318,882,6.254,0.002,0.038,90.7,yellow,227,TRUE
673,1660097428.163,2540,-2489,2526,5.228,-0.84,0.019,88.6,green,227,TRUE
674,1660097428.401,3947,7505,750,1.321,-1.479,-0.063,89.2,red,227,TRUE
675,1660097428.492,3223,-1295,882,6.254,0.002,0.038,89.9,yellow,227,TRUE
676,1660097428.594,2561,-2490,2526,5.232,-0.849,0.014,91.2,green,227,TRUE
677,1660097428.817,3964,7451,750,1.364,-1.466,-0.069,95.9,red,227,TRUE
678,1660097428.913,3251,-1321,882,6.254,0.002,0.038,90.5,yellow,227,TRUE
679,1660097429.007,2579,-2488,2526,5.238,-0.854,0.019,86.7,green,227,TRUE
680,1660097429.197,3974,7408,750,1.381,-1.468,-0.059,92.9,red,227,TRUE
681,1660097429.303,3250,-1321,882,6.254,0.002,0.038,91.4,yellow,227,TRUE
682,1660097429.395,2603,-2489,2526,5.238,-0.849,0.019,90.2,green,227,TRUE
683,1660097429.649,3986,7354,750,1.394,-1.454,-0.051,92.1,red,227,TRUE
684,1660097429.755,3227,-1302,882,6.254,0.002,0.038,92.3,yellow,227,TRUE
685,1660097429.848,2625,-2491,2526,5.232,-0.769,0.047,89.9,green,227,TRUE
686,1660097430.093,3989,7289,750,1.364,-1.464,-0.049,88.6,red,227,TRUE
687,1660097430.182,3229,-1307,882,6.254,0.002,0.038,88.5,yellow,227,TRUE
688,1660097430.284,2630,-2494,2526,5.237,-0.555,0.082,92.2,green,227,TRUE
689,1660097430.472,4004,7254,750,1.33,-1.462,-0.059,83.2,red,227,TRUE
690,1660097430.569,3246,-1316,882,6.254,0.002,0.038,92.9,yellow,227,TRUE
691,1660097430.674,2655,-2497,2526,5.235,-0.48,0.073,92.6,green,227,TRUE
692,1660097430.877,4016,7234,750,1.328,-1.488,-0.062,86.4,red,227,TRUE
693,1660097430.964,3277,-1338,882,6.254,0.002,0.038,90.0,yellow,227,TRUE
694,1660097431.054,2665,-2502,2526,5.223,-0.487,0.055,89.5,green,227,TRUE
695,1660097431.308,4035,7230,750,1.331,-1.487,-0.061,93.1,red,227,TRUE
696,1660097431.402,3270,-1333,882,6.254,0.002,0.038,90.0,yellow,227,TRUE
697,1660097431.492,2679,-2504,2526,5.226,-0.504,0.057,89.2,green,227,TRUE
698,1660097431.761,4042,7224,750,1.293,-1.479,-0.06,93.8,red,227,TRUE
699,1660097431.855,3307,-1358,882,6.254,0.002,0.038,95.3,yellow,227,TRUE
700,1660097432.131,4034,7223,750,1.259,-1.488,-0.067,86.4,red,227,TRUE
701,1660097432.232,3308,-1358,882,6.254,0.002,0.038,91.9,yellow,227,TRUE
702,1660097432.325,2705,-2494,2526,5.225,-0.491,0.059,90.1,green,227,TRUE
703,1660097432.519,4028,7230,750,1.239,-1.482,-0.074,91.5,red,227,TRUE
704,1660097432.624,3341,-1378,882,6.254,0.002,0.038,93.9,yellow,227,TRUE
705,1660097432.73,2734,-2484,2526,5.225,-0.484,0.059,93.5,green,227,TRUE
706,1660097432.971,4029,7233,750,1.233,-1.473,-0.075,91.2,red,227,TRUE
707,1660097433.062,3354,-1384,882,6.254,0.002,0.038,90.8,yellow,227,TRUE
708,1660097433.153,2760,-2474,2526,5.225,-0.479,0.058,75.5,green,227,TRUE
709,1660097433.38,4036,7235,750,1.238,-1.463,-0.076,89.7,red,227,TRUE
710,1660097433.473,3387,-1403,882,6.254,0.002,0.038,86.8,yellow,227,TRUE
711,1660097433.56,2787,-2466,2526,5.226,-0.471,0.059,75.1,green,227,TRUE
712,1660097433.785,4040,7254,750,1.257,-1.469,-0.072,93.0,red,227,TRUE
713,1660097433.879,3386,-1401,882,6.254,0.002,0.038,89.4,yellow,227,TRUE
714,1660097433.97,2792,-2466,2526,5.225,-0.49,0.058,89.2,green,227,TRUE
715,1660097434.153,4040,7238,750,1.256,-1.465,-0.081,87.2,red,227,TRUE
716,1660097434.253,3388,-1403,882,6.254,0.002,0.038,79.2,yellow,227,TRUE
717,1660097434.333,2792,-2465,2526,5.225,-0.5,0.053,89.7,green,227,TRUE
718,1660097434.586,4029,7227,750,1.275,-1.473,-0.069,92.5,red,227,TRUE
719,1660097434.692,3416,-1425,882,6.254,0.002,0.038,92.2,yellow,227,TRUE
720,1660097434.795,2788,-2465,2526,5.226,-0.512,0.05,91.5,green,227,TRUE
721,1660097435.042,4024,7217,750,1.297,-1.474,-0.075,87.1,red,227,TRUE
722,1660097435.131,3415,-1421,882,6.254,0.002,0.038,87.3,yellow,227,TRUE
723,1660097435.219,2788,-2467,2526,5.227,-0.515,0.051,90.2,green,227,TRUE
724,1660097435.416,4023,7210,750,1.283,-1.48,-0.08,89.0,red,227,TRUE
725,1660097435.507,3431,-1432,882,6.254,0.002,0.038,88.8,yellow,227,TRUE
726,1660097435.608,2773,-2473,2526,5.227,-0.511,0.055,92.8,green,227,TRUE
727,1660097435.879,4026,7204,750,1.316,-1.479,-0.073,91.8,red,227,TRUE
728,1660097435.974,3429,-1433,882,6.254,0.002,0.038,102.1,yellow,227,TRUE
729,1660097436.077,2773,-2471,2526,5.228,-0.506,0.055,90.2,green,227,TRUE
730,1660097436.271,4024,7209,750,1.324,-1.464,-0.081,91.3,red,227,TRUE
731,1660097436.363,3460,-1458,882,6.254,0.002,0.038,91.5,yellow,227,TRUE
732,1660097436.455,2769,-2470,2526,5.228,-0.503,0.056,89.4,green,227,TRUE
733,1660097437.883,4031,7199,750,1.378,-1.461,-0.082,92.3,red,227,TRUE
734,1660097437.983,3454,-1456,882,6.254,0.002,0.038,83.3,yellow,227,TRUE
735,1660097438.071,2752,-2469,2526,5.22,-0.535,0.052,84.9,green,227,TRUE
736,1660097439.408,4027,7185,750,1.498,-1.47,-0.088,91.8,red,227,TRUE
737,1660097439.508,3451,-1455,882,6.254,0.002,0.038,96.3,yellow,227,TRUE
738,1660097439.606,2716,-2482,2526,5.224,-0.499,0.067,89.7,green,227,TRUE
739,1660097439.894,4030,7192,750,1.468,-1.451,-0.858,89.7,red,227,TRUE
740,1660097439.987,3416,-1434,882,6.254,0.002,0.038,86.4,yellow,227,TRUE
741,1660097440.074,2674,-2498,2526,5.224,-0.497,0.068,88.1,green,227,TRUE
742,1660097441.435,4011,7197,750,1.564,-1.45,-0.633,93.1,red,227,TRUE
743,1660097441.538,3410,-1430,882,6.254,0.002,0.038,95.8,yellow,227,TRUE
744,1660097441.634,2630,-2510,2526,5.224,-0.49,0.071,89.4,green,227,TRUE
745,1660097443.037,3988,7176,750,1.482,-1.384,-0.528,91.8,red,227,TRUE
746,1660097443.136,3401,-1424,882,6.254,0.002,0.038,96.5,yellow,227,TRUE
747,1660097443.235,2580,-2521,2526,5.224,-0.512,0.068,88.7,green,227,TRUE
748,1660097444.617,3981,7172,750,1.455,-1.421,-0.514,88.2,red,227,TRUE
749,1660097444.711,3400,-1426,882,6.254,0.002,0.038,83.9,yellow,227,TRUE
750,1660097444.796,2562,-2523,2526,5.223,-0.499,0.067,90.3,green,227,TRUE
751,1660097445.04,3965,7163,750,1.467,-1.433,-0.572,88.7,red,227,TRUE
752,1660097445.129,3402,-1423,882,6.254,0.002,0.038,90.6,yellow,227,TRUE
753,1660097445.221,2545,-2526,2526,5.224,-0.496,0.067,89.2,green,227,TRUE
754,1660097445.404,3950,7146,750,1.466,-1.43,-0.525,85.8,red,227,TRUE
755,1660097445.49,3368,-1398,882,6.254,0.002,0.038,88.8,yellow,227,TRUE
756,1660097445.593,2534,-2530,2526,5.225,-0.505,0.065,90.9,green,227,TRUE
757,1660097445.827,3943,7166,750,1.474,-1.431,-0.449,83.2,red,227,TRUE
758,1660097445.91,3370,-1398,882,6.254,0.002,0.038,90.4,yellow,227,TRUE
759,1660097446.003,2526,-2530,2526,5.224,-0.509,0.065,87.1,green,227,TRUE
760,1660097446.241,3926,7182,750,1.485,-1.402,-0.371,90.6,red,227,TRUE
761,1660097446.332,3373,-1399,882,6.254,0.002,0.038,88.9,yellow,227,TRUE
762,1660097446.421,2543,-2522,2526,5.224,-0.513,0.065,89.4,green,227,TRUE
763,1660097446.69,3917,7218,750,1.449,-1.398,-0.435,94.4,red,227,TRUE
764,1660097446.795,3379,-1399,882,6.254,0.002,0.038,91.6,yellow,227,TRUE
765,1660097446.888,2529,-2524,2526,5.223,-0.515,0.067,88.5,green,227,TRUE
766,1660097447.08,3898,7202,750,1.462,-1.398,-0.408,91.3,red,227,TRUE
767,1660097447.173,3369,-1389,882,6.254,0.002,0.038,89.2,yellow,227,TRUE
768,1660097447.263,2521,-2524,2526,5.223,-0.513,0.067,89.4,green,227,TRUE
769,1660097447.445,3871,7208,750,1.454,-1.403,-0.54,87.7,red,227,TRUE
770,1660097447.546,3371,-1391,882,6.254,0.002,0.038,90.8,yellow,227,TRUE
771,1660097447.65,2520,-2526,2526,5.223,-0.512,0.067,90.7,green,227,TRUE
772,1660097447.907,3858,7229,750,1.437,-1.38,-0.53,87.8,red,227,TRUE
773,1660097447.996,3379,-1392,882,6.254,0.002,0.038,89.2,yellow,227,TRUE
774,1660097448.099,2519,-2526,2526,5.222,-0.507,0.067,90.8,green,227,TRUE
775,1660097448.341,3846,7233,750,1.415,-1.395,-0.539,87.8,red,227,TRUE
776,1660097448.432,3402,-1412,882,6.254,0.002,0.038,87.8,yellow,227,TRUE
777,1660097448.52,2521,-2526,2526,5.224,-0.483,0.068,88.8,green,227,TRUE
778,1660097448.757,3853,7230,750,1.46,-1.395,-0.456,90.7,red,227,TRUE
779,1660097448.849,3402,-1416,882,6.254,0.002,0.038,88.9,yellow,227,TRUE
780,1660097448.939,2522,-2529,2526,5.223,-0.487,0.068,89.5,green,227,TRUE
781,1660097449.133,3857,7245,750,1.462,-1.403,-0.7,90.5,red,227,TRUE
782,1660097449.225,3418,-1426,882,6.254,0.002,0.038,87.7,yellow,227,TRUE
783,1660097449.314,2528,-2531,2526,5.222,-0.504,0.065,88.8,green,227,TRUE
784,1660097449.552,3836,7242,750,1.457,-1.41,-0.77,89.8,red,227,TRUE
785,1660097449.656,3389,-1404,882,6.254,0.002,0.038,91.8,yellow,227,TRUE
786,1660097449.761,2527,-2530,2526,5.22,-0.516,0.063,90.8,green,227,TRUE
787,1660097450.004,3889,7258,750,1.468,-1.431,-0.487,87.8,red,227,TRUE
788,1660097450.106,3388,-1405,882,6.254,0.002,0.038,91.8,yellow,227,TRUE
789,1660097450.197,2525,-2531,2526,5.221,-0.517,0.064,88.8,green,227,TRUE
790,1660097450.382,3892,7282,750,1.546,-1.403,-0.249,83.8,red,227,TRUE
791,1660097450.467,3388,-1407,882,6.254,0.002,0.038,90.0,yellow,227,TRUE
792,1660097450.57,2524,-2529,2526,5.221,-0.516,0.067,91.9,green,227,TRUE
793,1660097450.81,3876,7249,750,1.58,-1.419,-0.207,90.8,red,227,TRUE
794,1660097450.902,3391,-1406,882,6.254,0.002,0.038,88.8,yellow,227,TRUE
795,1660097450.992,2523,-2530,2526,5.222,-0.512,0.068,89.8,green,227,TRUE
796,1660097451.233,3874,7224,750,1.533,-1.405,-0.241,87.8,red,227,TRUE
797,1660097451.322,3382,-1404,882,6.254,0.002,0.038,88.8,yellow,227,TRUE
798,1660097451.412,2521,-2534,2526,5.222,-0.505,0.069,88.7,green,227,TRUE
799,1660097451.664,3857,7191,750,1.482,-1.386,-0.34,90.8,red,227,TRUE
800,1660097451.769,3357,-1382,882,6.254,0.002,0.038,90.7,yellow,227,TRUE
801,1660097451.861,2517,-2538,2526,5.222,-0.502,0.07,88.8,green,227,TRUE
802,1660097452.053,3863,7204,750,1.451,-1.396,-0.416,91.8,red,227,TRUE
803,1660097452.145,3338,-1369,882,6.254,0.002,0.038,88.7,yellow,227,TRUE
804,1660097452.235,2517,-2541,2526,5.222,-0.505,0.07,88.8,green,227,TRUE
805,1660097452.417,3869,7203,750,1.444,-1.413,-0.449,85.8,red,227,TRUE
806,1660097452.504,3337,-1367,882,6.254,0.002,0.038,88.9,yellow,227,TRUE
807,1660097452.607,2513,-2541,2526,5.222,-0.512,0.067,91.0,green,227,TRUE
808,1660097452.891,3872,7198,750,1.449,-1.407,-0.415,91.0,red,227,TRUE
809,1660097452.983,3330,-1366,882,6.254,0.002,0.038,88.9,yellow,227,TRUE
810,1660097453.074,2511,-2542,2526,5.221,-0.515,0.064,87.8,green,227,TRUE
811,1660097453.312,3862,7192,750,1.484,-1.405,-0.44,88.8,red,227,TRUE
812,1660097453.402,3340,-1369,882,6.254,0.002,0.038,88.8,yellow,227,TRUE
813,1660097453.492,2506,-2542,2526,5.221,-0.515,0.064,89.8,green,227,TRUE
814,1660097453.7,3859,7186,750,1.484,-1.425,-0.557,90.8,red,227,TRUE
815,1660097453.805,3365,-1387,882,6.254,0.002,0.038,90.7,yellow,227,TRUE
816,1660097453.897,2498,-2541,2526,5.221,-0.512,0.064,88.8,green,227,TRUE
817,1660097454.089,3862,7209,750,1.484,-1.444,-0.656,91.8,red,227,TRUE
818,1660097454.182,3346,-1375,882,6.254,0.002,0.038,87.8,yellow,227,TRUE
819,1660097454.271,2500,-2543,2526,5.224,-0.505,0.065,89.1,green,227,TRUE
820,1660097454.509,3878,7232,750,1.461,-1.476,-0.083,91.1,red,227,TRUE
821,1660097454.614,3384,-1397,882,6.254,0.002,0.038,90.6,yellow,227,TRUE
822,1660097454.718,2507,-2548,2526,5.223,-0.521,0.058,90.8,green,227,TRUE
823,1660097454.976,3827,7238,750,1.448,-1.461,-0.094,87.7,red,227,TRUE
824,1660097455.065,3377,-1395,882,6.254,0.002,0.038,89.8,yellow,227,TRUE
825,1660097455.154,2508,-2549,2526,5.217,-0.552,0.049,88.9,green,227,TRUE
826,1660097455.339,3864,7242,750,1.463,-1.453,-0.087,84.8,red,227,TRUE
827,1660097455.424,3379,-1393,882,6.254,0.002,0.038,89.7,yellow,227,TRUE
828,1660097455.527,2508,-2553,2526,5.215,-0.564,0.053,92.3,green,227,TRUE
829,1660097455.767,3875,7263,750,1.476,-1.45,-0.687,90.8,red,227,TRUE
