,timestamp,x,y,z,yaw,roll,pitch,latency,student,session,success
0,1660108689.984,3257,-2840,2526,5.764,-0.226,0.221,114.9,green,229,TRUE
1,1660108690.255,4007,6482,3350,1.357,-1.546,0.024,97.9,blue,229,TRUE
2,1660108690.364,3786,6311,750,3.598,1.275,0.629,83.5,red,229,TRUE
3,1660108690.447,3917,-2646,882,5.184,-0.423,0.204,93.9,yellow,229,TRUE
4,1660108690.541,3271,-2855,2526,5.765,-0.226,0.22,93.5,green,229,TRUE
5,1660108690.735,4011,6487,3350,1.527,-1.508,0.059,93.7,blue,229,TRUE
6,1660108690.939,3920,-2645,882,5.185,-0.431,0.205,94.3,yellow,229,TRUE
7,1660108691.033,3262,-2852,2526,5.765,-0.223,0.216,93.7,green,229,TRUE
8,1660108691.22,3991,6509,3350,1.943,-1.416,2.014,108.2,blue,229,TRUE
9,1660108691.344,3765,6305,750,4.406,1.295,0.891,93.8,red,229,TRUE
10,1660108691.438,3835,-2620,882,5.185,-0.434,0.202,93.7,yellow,229,TRUE
11,1660108691.531,3247,-2856,2526,5.764,-0.223,0.217,103.5,green,229,TRUE
12,1660108691.799,3982,6511,3350,2.109,-1.455,3.029,93.4,blue,229,TRUE
13,1660108691.892,3738,6274,750,4.833,1.346,0.963,90.1,red,229,TRUE
14,1660108691.982,3835,-2624,882,5.198,-0.427,0.205,93.7,yellow,229,TRUE
15,1660108693.401,3970,6459,3350,2.303,-1.498,0.072,94.4,blue,229,TRUE
16,1660108693.495,3702,6153,750,5.156,1.355,0.765,93.7,red,229,TRUE
17,1660108693.589,3845,-2625,882,5.223,-0.428,0.192,93.8,yellow,229,TRUE
18,1660108695.096,3668,5966,750,5.567,1.296,0.614,93.5,red,229,TRUE
19,1660108695.19,3843,-2624,882,5.222,-0.44,0.192,94.8,yellow,229,TRUE
20,1660108695.284,3192,-2851,2526,5.754,-0.223,0.221,105.7,green,229,TRUE
21,1660108695.762,3845,-2623,882,5.222,-0.437,0.192,95.4,yellow,229,TRUE
22,1660108695.857,3174,-2854,2526,5.748,-0.239,0.229,116.4,green,229,TRUE
23,1660108696.084,3842,5422,3350,2.334,-1.498,0.071,93.7,blue,229,TRUE
24,1660108696.178,3535,5529,750,5.557,1.282,0.915,100.0,red,229,TRUE
25,1660108696.278,3859,-2627,882,5.223,-0.437,0.191,93.9,yellow,229,TRUE
26,1660108696.387,3173,-2855,2526,5.744,-0.248,0.235,94.0,green,229,TRUE
27,1660108696.644,3803,5131,3350,2.445,-1.532,0.028,93.7,blue,229,TRUE
28,1660108696.737,3459,5267,750,5.346,1.288,0.91,110.9,red,229,TRUE
29,1660108696.848,3861,-2627,882,5.223,-0.437,0.191,94.5,yellow,229,TRUE
30,1660108698.292,3391,4879,750,4.5,1.234,0.75,98.2,red,229,TRUE
31,1660108698.401,3841,-2624,882,5.223,-0.445,0.191,96.6,yellow,229,TRUE
32,1660108698.513,3165,-2858,2526,5.763,-0.248,0.235,93.5,green,229,TRUE
33,1660108698.711,3752,4500,3350,1.569,-1.528,0.002,93.8,blue,229,TRUE
34,1660108698.805,3349,4540,750,4.275,1.266,0.843,93.8,red,229,TRUE
35,1660108698.898,3843,-2625,882,5.223,-0.442,0.191,97.2,yellow,229,TRUE
36,1660108698.999,3138,-2849,2526,5.767,-0.238,0.22,89.3,green,229,TRUE
37,1660108699.292,3322,4236,750,4.352,1.292,0.793,100.5,red,229,TRUE
38,1660108699.408,3849,-2625,882,5.223,-0.443,0.191,93.5,yellow,229,TRUE
39,1660108699.517,3103,-2835,2526,5.766,-0.239,0.221,98.3,green,229,TRUE
40,1660108699.831,3738,3936,3350,1.666,-1.521,0.035,96.6,blue,229,TRUE
41,1660108699.927,3266,3892,750,4.403,1.305,0.8,87.0,red,229,TRUE
42,1660108700.014,3877,-2630,882,5.224,-0.437,0.192,93.8,yellow,229,TRUE
43,1660108700.108,3106,-2839,2526,5.767,-0.236,0.219,93.7,green,229,TRUE
44,1660108700.404,3730,3621,3350,1.725,-1.488,0.039,93.6,blue,229,TRUE
45,1660108700.513,3274,3527,750,4.325,1.306,0.873,92.2,red,229,TRUE
46,1660108700.605,3885,-2632,882,5.225,-0.437,0.193,93.5,yellow,229,TRUE
47,1660108700.699,3100,-2852,2526,5.766,-0.23,0.218,125.0,green,229,TRUE
48,1660108701.01,3742,3288,3350,1.707,-1.502,0.038,94.1,blue,229,TRUE
49,1660108701.104,3227,3148,750,4.265,1.301,0.857,104.1,red,229,TRUE
50,1660108701.208,3915,-2640,882,5.225,-0.436,0.192,93.5,yellow,229,TRUE
51,1660108702.75,3211,2789,750,4.227,1.31,0.813,93.5,red,229,TRUE
52,1660108702.844,3914,-2638,882,5.226,-0.443,0.193,93.7,yellow,229,TRUE
53,1660108704.478,3915,-2638,882,5.227,-0.437,0.194,96.6,yellow,229,TRUE
54,1660108706.054,3200,2432,750,3.52,1.406,0.821,84.5,red,229,TRUE
55,1660108706.139,3952,-2647,882,5.231,-0.443,0.196,93.7,yellow,229,TRUE
56,1660108706.688,3260,2366,750,4.083,1.341,1.012,87.3,red,229,TRUE
57,1660108706.776,3958,-2646,882,5.231,-0.434,0.197,93.5,yellow,229,TRUE
58,1660108707.079,3879,2857,3350,1.073,-1.512,0.048,93.7,blue,229,TRUE
59,1660108707.188,3353,2356,750,4.497,1.36,0.754,93.7,red,229,TRUE
60,1660108707.282,3959,-2645,882,5.232,-0.427,0.191,86.0,yellow,229,TRUE
61,1660108707.571,3910,2839,3350,1.029,-1.534,0.011,95.8,blue,229,TRUE
62,1660108707.683,3464,2381,750,4.562,1.322,0.661,93.6,red,229,TRUE
63,1660108707.776,3983,-2654,882,5.2,-0.441,0.192,93.9,yellow,229,TRUE
64,1660108708.165,3944,2831,3350,1.012,-1.556,3.126,92.4,blue,229,TRUE
65,1660108708.258,3615,2506,750,4.728,1.278,0.88,93.9,red,229,TRUE
66,1660108708.352,3994,-2653,882,5.224,-0.432,0.207,93.6,yellow,229,TRUE
67,1660108708.666,3964,2839,3350,0.96,-1.55,3.121,93.4,blue,229,TRUE
68,1660108708.759,3759,2552,750,5.197,1.335,0.868,98.2,red,229,TRUE
69,1660108708.858,3988,-2650,882,5.238,-0.437,0.196,84.3,yellow,229,TRUE
70,1660108709.146,4019,2832,3350,1.022,-1.529,0.029,93.1,blue,229,TRUE
71,1660108709.239,3884,2596,750,5.416,1.314,1.162,93.8,red,229,TRUE
72,1660108709.333,3992,-2653,882,5.235,-0.444,0.206,93.6,yellow,229,TRUE
73,1660108709.842,4063,2634,750,5.873,1.365,0.946,93.5,red,229,TRUE
74,1660108710.278,4082,2887,3350,1.045,-1.497,0.027,93.7,blue,229,TRUE
75,1660108710.372,4196,2670,750,5.979,1.371,0.798,92.8,red,229,TRUE
76,1660108710.465,3974,-2638,882,5.235,-0.443,0.204,93.6,yellow,229,TRUE
77,1660108710.772,4109,2902,3350,1.071,-1.515,0.039,93.6,blue,229,TRUE
78,1660108710.866,4359,2750,750,6.005,1.364,0.731,93.8,red,229,TRUE
79,1660108710.959,3947,-2635,882,5.225,-0.436,0.214,97.4,yellow,229,TRUE
80,1660108711.323,4158,2894,3350,1.052,-1.514,0.041,88.5,blue,229,TRUE
81,1660108711.411,4504,2820,750,6.024,1.361,0.73,94.0,red,229,TRUE
82,1660108711.505,3958,-2640,882,5.233,-0.427,0.211,93.5,yellow,229,TRUE
83,1660108712.846,4169,2860,3350,1.048,-1.501,0.037,87.8,blue,229,TRUE
84,1660108712.934,4668,2893,750,5.977,1.345,0.796,94.0,red,229,TRUE
85,1660108714.467,4170,2873,3350,1.07,-1.499,0.041,93.7,blue,229,TRUE
86,1660108714.561,4749,2858,750,5.139,1.384,0.411,95.0,red,229,TRUE
87,1660108714.672,3934,-2638,882,5.234,-0.433,0.212,93.1,yellow,229,TRUE
88,1660108716.278,3930,-2643,882,5.235,-0.441,0.212,90.7,yellow,229,TRUE
89,1660108716.589,4187,2918,3350,1.072,-1.503,0.045,83.9,blue,229,TRUE
90,1660108716.688,4749,2838,750,4.847,1.312,0.889,95.0,red,229,TRUE
91,1660108716.799,3927,-2642,882,5.236,-0.448,0.213,95.8,yellow,229,TRUE
92,1660108716.988,4198,2916,3350,1.06,-1.511,0.039,93.9,blue,229,TRUE
93,1660108717.097,4730,2822,750,4.873,1.326,0.892,99.7,red,229,TRUE
94,1660108717.206,3899,-2634,882,5.236,-0.446,0.213,86.1,yellow,229,TRUE
95,1660108717.417,4203,2912,3350,1.067,-1.514,0.041,94.3,blue,229,TRUE
96,1660108717.514,4671,2804,750,4.851,1.312,0.904,95.8,red,229,TRUE
97,1660108717.61,3888,-2633,882,5.236,-0.444,0.213,95.2,yellow,229,TRUE
98,1660108717.941,4213,2913,3350,1.08,-1.509,0.043,96.7,blue,229,TRUE
99,1660108718.038,4590,2813,750,4.849,1.307,0.908,99.1,red,229,TRUE
100,1660108718.138,3885,-2636,882,5.236,-0.441,0.213,96.1,yellow,229,TRUE
101,1660108718.359,4194,2910,3350,1.076,-1.488,0.053,95.2,blue,229,TRUE
102,1660108718.454,4524,2836,750,4.843,1.308,0.884,93.8,red,229,TRUE
103,1660108718.548,3885,-2638,882,5.237,-0.443,0.213,93.9,yellow,229,TRUE
104,1660108718.805,4224,2879,3350,1.086,-1.502,0.048,95.9,blue,229,TRUE
105,1660108718.901,4435,2874,750,4.835,1.3,0.886,88.3,red,229,TRUE
106,1660108719.403,4179,2866,3350,1.097,-1.503,0.055,93.7,blue,229,TRUE
107,1660108719.497,4395,2942,750,4.826,1.307,0.852,93.6,red,229,TRUE
108,1660108719.59,3869,-2634,882,5.238,-0.447,0.213,95.7,yellow,229,TRUE
109,1660108721.031,4360,2986,750,4.968,1.319,0.461,93.6,red,229,TRUE
110,1660108721.124,3868,-2633,882,5.241,-0.447,0.214,116.4,yellow,229,TRUE
111,1660108722.62,4087,2772,3350,1.068,-1.514,0.036,93.6,blue,229,TRUE
112,1660108722.714,4303,3007,750,5.009,1.295,0.757,89.8,red,229,TRUE
113,1660108722.819,3855,-2627,882,5.24,-0.452,0.213,94.0,yellow,229,TRUE
114,1660108724.186,4015,2738,3350,1.049,-1.522,0.033,99.2,blue,229,TRUE
115,1660108724.416,3840,-2622,882,5.248,-0.437,0.213,93.6,yellow,229,TRUE
116,1660108724.51,3053,-2805,2526,5.727,-0.265,0.248,98.4,green,229,TRUE
117,1660108724.89,3949,2714,3350,1.056,-1.506,0.034,91.2,blue,229,TRUE
118,1660108724.981,4252,3087,750,5.013,1.286,0.744,87.5,red,229,TRUE
119,1660108725.068,3839,-2623,882,5.246,-0.443,0.214,93.8,yellow,229,TRUE
120,1660108725.481,3955,2654,3350,1.061,-1.504,0.035,85.2,blue,229,TRUE
121,1660108725.566,4292,3047,750,5.013,1.283,0.753,93.7,red,229,TRUE
122,1660108725.66,3838,-2620,882,5.255,-0.434,0.212,93.9,yellow,229,TRUE
123,1660108725.754,3004,-2753,2526,5.733,-0.268,0.238,93.7,green,229,TRUE
124,1660108726.035,3930,2608,3350,1.064,-1.508,0.035,96.2,blue,229,TRUE
125,1660108726.135,4308,3030,750,5.017,1.286,0.726,97.1,red,229,TRUE
126,1660108726.232,3820,-2619,882,5.247,-0.437,0.218,109.1,yellow,229,TRUE
127,1660108726.342,3005,-2750,2526,5.733,-0.228,0.233,115.6,green,229,TRUE
128,1660108726.669,3913,2560,3350,1.06,-1.506,0.035,98.8,blue,229,TRUE
129,1660108726.774,4320,3021,750,4.998,1.274,0.745,97.0,red,229,TRUE
130,1660108726.871,3816,-2619,882,5.247,-0.443,0.214,93.7,yellow,229,TRUE
131,1660108726.965,2999,-2745,2526,5.734,-0.223,0.23,95.4,green,229,TRUE
132,1660108727.244,3831,2514,3350,1.062,-1.505,0.035,93.9,blue,229,TRUE
133,1660108727.338,4337,3014,750,4.999,1.278,0.741,94.4,red,229,TRUE
134,1660108727.448,3814,-2621,882,5.252,-0.434,0.214,93.9,yellow,229,TRUE
135,1660108728.932,4332,3002,750,5.031,1.292,0.682,98.0,red,229,TRUE
136,1660108729.032,3811,-2616,882,5.256,-0.444,0.212,98.3,yellow,229,TRUE
137,1660108729.13,2975,-2740,2526,5.738,-0.245,0.238,99.6,green,229,TRUE
138,1660108729.44,3792,2524,3350,1.068,-1.506,0.035,97.2,blue,229,TRUE
139,1660108729.549,4327,2997,750,5.118,1.306,0.651,93.4,red,229,TRUE
140,1660108729.642,3803,-2614,882,5.259,-0.427,0.214,93.7,yellow,229,TRUE
141,1660108732.272,4347,3008,750,4.951,1.307,0.729,100.1,red,229,TRUE
142,1660108735.118,3820,-2616,882,5.262,-0.437,0.216,93.4,yellow,229,TRUE
143,1660108736.546,3678,2512,3350,1.076,-1.526,0.037,97.7,blue,229,TRUE
144,1660108736.646,4247,3006,750,5.498,1.294,0.662,94.0,red,229,TRUE
145,1660108736.74,3835,-2620,882,5.211,-0.43,0.216,93.7,yellow,229,TRUE
146,1660108736.998,3694,2538,3350,1.12,-1.517,0.044,91.6,blue,229,TRUE
147,1660108737.092,4259,3007,750,5.477,1.293,0.722,88.1,red,229,TRUE
148,1660108737.182,3837,-2620,882,5.203,-0.43,0.216,90.6,yellow,229,TRUE
149,1660108737.388,3759,2568,3350,1.101,-1.525,0.04,94.0,blue,229,TRUE
150,1660108737.498,4248,2979,750,5.401,1.29,0.756,90.3,red,229,TRUE
151,1660108737.604,3863,-2626,882,5.203,-0.435,0.216,78.4,yellow,229,TRUE
152,1660108737.84,3810,2591,3350,1.093,-1.523,0.043,89.5,blue,229,TRUE
153,1660108737.945,4255,2988,750,5.253,1.285,0.743,93.9,red,229,TRUE
154,1660108738.039,3860,-2625,882,5.205,-0.445,0.215,93.8,yellow,229,TRUE
155,1660108738.242,3837,2611,3350,1.093,-1.518,0.043,93.5,blue,229,TRUE
156,1660108738.335,4271,3002,750,5.225,1.292,0.578,93.8,red,229,TRUE
157,1660108738.429,3863,-2626,882,5.205,-0.443,0.214,89.3,yellow,229,TRUE
158,1660108738.691,3836,2628,3350,1.096,-1.505,0.047,94.4,blue,229,TRUE
159,1660108738.787,4291,3014,750,5.283,1.278,0.662,93.2,red,229,TRUE
160,1660108738.881,3871,-2625,882,5.204,-0.442,0.214,93.9,yellow,229,TRUE
161,1660108739.219,3850,2662,3350,1.137,-1.49,0.055,89.7,blue,229,TRUE
162,1660108739.31,4300,3023,750,5.205,1.259,0.805,90.2,red,229,TRUE
163,1660108739.403,3875,-2624,882,5.207,-0.436,0.214,86.1,yellow,229,TRUE
164,1660108739.69,3914,2699,3350,1.133,-1.488,0.049,97.5,blue,229,TRUE
165,1660108739.788,4316,3047,750,5.238,1.247,0.852,93.7,red,229,TRUE
166,1660108741.277,3907,2646,3350,1.122,-1.501,0.044,93.7,blue,229,TRUE
167,1660108741.371,4334,3062,750,5.49,1.284,0.729,94.1,red,229,TRUE
168,1660108741.465,3896,-2623,882,5.226,-0.409,0.217,96.4,yellow,229,TRUE
169,1660108742.89,3901,2662,3350,1.482,-1.312,2.542,93.7,blue,229,TRUE
170,1660108742.984,4399,3079,750,5.093,1.362,0.682,108.6,red,229,TRUE
171,1660108743.108,3925,-2633,882,5.233,-0.381,0.217,93.9,yellow,229,TRUE
172,1660108743.218,2969,-2736,2526,5.709,-0.315,0.256,93.4,green,229,TRUE
173,1660108744.508,3920,2690,3350,2.052,-1.549,0.019,99.8,blue,229,TRUE
174,1660108744.608,4439,3057,750,5.288,1.322,1.052,89.5,red,229,TRUE
175,1660108745.208,4563,2989,750,5.219,1.316,0.697,97.3,red,229,TRUE
176,1660108745.305,4054,-2676,882,5.251,-0.388,0.217,95.9,yellow,229,TRUE
177,1660108745.402,2955,-2711,2526,5.509,-0.961,0.345,86.4,green,229,TRUE
178,1660108745.684,4068,2378,3350,1.164,-1.496,3.067,90.5,blue,229,TRUE
179,1660108745.774,4640,2975,750,5.15,1.322,0.634,102.1,red,229,TRUE
180,1660108745.876,4057,-2674,882,5.258,-0.4,0.223,93.9,yellow,229,TRUE
181,1660108746.299,4126,2280,3350,0.404,-1.482,3.079,93.8,blue,229,TRUE
182,1660108746.393,4728,2944,750,5.01,1.372,1.103,94.1,red,229,TRUE
183,1660108746.487,4061,-2676,882,5.26,-0.419,0.208,93.7,yellow,229,TRUE
184,1660108746.581,3020,-2716,2526,5.553,-0.804,0.355,93.9,green,229,TRUE
185,1660108747.931,4253,2159,3350,5.629,-1.565,0.0,98.7,blue,229,TRUE
186,1660108748.038,4832,2880,750,4.928,1.337,1.176,82.1,red,229,TRUE
187,1660108748.12,4035,-2671,882,5.26,-0.417,0.221,93.4,yellow,229,TRUE
188,1660108748.213,3049,-2743,2526,5.549,-0.657,0.332,98.7,green,229,TRUE
189,1660108748.619,4949,2851,750,4.94,1.385,1.178,92.9,red,229,TRUE
190,1660108748.727,4036,-2671,882,5.26,-0.417,0.221,93.8,yellow,229,TRUE
191,1660108748.821,2995,-2715,2526,5.548,-0.64,0.331,98.2,green,229,TRUE
192,1660108749.15,4383,2035,3350,5.541,-1.54,-0.025,93.1,blue,229,TRUE
193,1660108749.243,5036,2791,750,4.964,1.426,1.404,93.7,red,229,TRUE
194,1660108749.337,4034,-2671,882,5.26,-0.415,0.221,95.2,yellow,229,TRUE
195,1660108749.432,3040,-2743,2526,5.551,-0.628,0.325,99.0,green,229,TRUE
196,1660108749.752,4480,1958,3350,5.805,-1.538,-3.138,111.0,blue,229,TRUE
197,1660108749.863,5106,2718,750,5.028,1.433,1.465,83.8,red,229,TRUE
198,1660108749.947,4032,-2672,882,5.26,-0.412,0.221,99.0,yellow,229,TRUE
199,1660108750.049,3049,-2751,2526,5.559,-0.628,0.325,89.8,green,229,TRUE
200,1660108750.433,5196,2653,750,4.992,1.462,3.033,91.0,red,229,TRUE
201,1660108750.524,4029,-2671,882,5.261,-0.419,0.221,93.5,yellow,229,TRUE
202,1660108751.89,4692,1863,3350,5.693,-1.455,3.136,98.4,blue,229,TRUE
203,1660108751.989,5300,2584,750,4.878,1.446,1.801,84.4,red,229,TRUE
204,1660108752.2,3000,-2704,2526,5.548,-0.628,0.332,95.2,green,229,TRUE
205,1660108752.48,4822,1755,3350,5.621,-1.442,3.098,93.6,blue,229,TRUE
206,1660108752.696,4049,-2682,882,5.262,-0.422,0.223,93.6,yellow,229,TRUE
207,1660108752.805,2983,-2692,2526,5.547,-0.624,0.329,93.7,green,229,TRUE
208,1660108753.09,4953,1668,3350,5.646,-1.503,-3.133,99.2,blue,229,TRUE
209,1660108753.191,5487,2483,750,4.971,1.424,1.528,90.6,red,229,TRUE
210,1660108753.282,4023,-2671,882,5.263,-0.432,0.224,95.3,yellow,229,TRUE
211,1660108753.377,2975,-2693,2526,5.547,-0.634,0.332,93.8,green,229,TRUE
212,1660108754.728,5102,1603,3350,5.776,-1.47,3.108,95.0,blue,229,TRUE
213,1660108754.823,5551,2449,750,4.939,1.381,1.167,95.5,red,229,TRUE
214,1660108754.918,3894,-2639,882,5.264,-0.429,0.224,93.3,yellow,229,TRUE
215,1660108756.397,5267,1599,3350,5.969,-1.493,0.076,93.8,blue,229,TRUE
216,1660108756.49,5608,2417,750,5.016,1.367,1.092,99.9,red,229,TRUE
217,1660108756.717,2981,-2719,2526,5.527,-0.707,0.361,109.2,green,229,TRUE
218,1660108758.106,5405,1684,3350,5.94,-1.492,0.075,91.7,blue,229,TRUE
219,1660108758.201,5649,2331,750,5.053,1.357,1.034,91.2,red,229,TRUE
220,1660108758.308,3852,-2620,882,5.268,-0.433,0.224,93.9,yellow,229,TRUE
221,1660108759.767,5447,1770,3350,5.836,-1.503,0.065,94.1,blue,229,TRUE
222,1660108759.861,5663,2271,750,5.044,1.355,1.031,93.7,red,229,TRUE
223,1660108759.97,3871,-2627,882,5.27,-0.433,0.223,83.6,yellow,229,TRUE
224,1660108762.426,5519,1784,3350,5.767,-1.509,3.089,89.4,blue,229,TRUE
225,1660108764.081,5524,1820,3350,5.692,-1.516,3.112,84.3,blue,229,TRUE
226,1660108764.166,5598,2203,750,4.901,1.404,1.259,90.7,red,229,TRUE
227,1660108764.26,3928,-2649,882,5.275,-0.449,0.192,87.7,yellow,229,TRUE
228,1660108764.642,5538,1869,3350,5.7,-1.514,3.113,93.7,blue,229,TRUE
229,1660108764.736,5616,2188,750,4.859,1.408,1.346,93.8,red,229,TRUE
230,1660108764.829,3935,-2652,882,5.292,-0.452,0.184,108.4,yellow,229,TRUE
231,1660108766.181,5548,1865,3350,5.714,-1.524,3.107,93.7,blue,229,TRUE
232,1660108766.274,5668,2220,750,4.866,1.404,1.417,95.0,red,229,TRUE
233,1660108766.385,3964,-2658,882,5.284,-0.441,0.167,100.3,yellow,229,TRUE
234,1660108767.795,5574,1819,3350,5.738,-1.509,3.091,93.6,blue,229,TRUE
235,1660108767.889,5684,2222,750,4.866,1.389,1.124,95.2,red,229,TRUE
236,1660108767.99,3957,-2660,882,5.285,-0.451,0.19,93.4,yellow,229,TRUE
237,1660108772.212,5551,1830,3350,5.442,-1.3,-2.581,107.8,blue,229,TRUE
238,1660108772.32,5657,2214,750,4.854,1.406,1.283,94.0,red,229,TRUE
239,1660108774.009,5676,2192,750,4.886,1.431,1.564,89.8,red,229,TRUE
240,1660108774.114,3947,-2639,882,5.294,-0.455,0.184,77.4,yellow,229,TRUE
241,1660108774.192,2925,-2731,2526,5.459,-0.604,0.254,93.8,green,229,TRUE
242,1660108775.466,5563,1810,3350,5.457,-1.537,-0.02,93.9,blue,229,TRUE
243,1660108775.56,5698,2185,750,4.876,1.42,1.429,93.7,red,229,TRUE
244,1660108775.751,2917,-2728,2526,5.438,-0.615,0.274,94.0,green,229,TRUE
245,1660108776.037,5576,1789,3350,5.507,-1.553,-0.011,93.1,blue,229,TRUE
246,1660108776.146,5696,2196,750,4.895,1.445,1.624,94.1,red,229,TRUE
247,1660108776.24,3931,-2658,882,5.24,-0.454,0.184,97.2,yellow,229,TRUE
248,1660108776.337,2908,-2726,2526,5.438,-0.614,0.273,94.0,green,229,TRUE
249,1660108776.639,5584,1783,3350,5.502,-1.534,-0.01,95.5,blue,229,TRUE
250,1660108776.734,5686,2217,750,4.885,1.446,1.918,93.7,red,229,TRUE
251,1660108776.828,3908,-2654,882,5.243,-0.453,0.183,99.4,yellow,229,TRUE
252,1660108777.241,5587,1778,3350,5.514,-1.54,-0.004,83.7,blue,229,TRUE
253,1660108777.324,5684,2242,750,4.986,1.457,3.029,93.5,red,229,TRUE
254,1660108777.418,3858,-2645,882,5.247,-0.453,0.18,94.0,yellow,229,TRUE
255,1660108777.512,2913,-2743,2526,5.438,-0.61,0.271,88.9,green,229,TRUE
256,1660108777.788,5591,1781,3350,5.516,-1.548,-0.002,90.5,blue,229,TRUE
257,1660108777.879,5720,2262,750,4.947,1.451,3.022,93.8,red,229,TRUE
258,1660108777.973,3802,-2628,882,5.249,-0.463,0.173,94.8,yellow,229,TRUE
259,1660108778.068,2923,-2747,2526,5.442,-0.6,0.295,99.1,green,229,TRUE
260,1660108779.413,5600,1796,3350,5.522,-1.541,0.0,90.0,blue,229,TRUE
261,1660108779.503,5721,2255,750,4.892,1.441,1.637,93.5,red,229,TRUE
262,1660108781.068,5591,1778,3350,5.519,-1.538,0.0,93.6,blue,229,TRUE
263,1660108781.161,5708,2237,750,4.904,1.413,1.215,107.4,red,229,TRUE
264,1660108781.269,3766,-2599,882,5.259,-0.446,0.188,93.6,yellow,229,TRUE
265,1660108781.362,2936,-2770,2526,5.501,-0.617,0.299,93.8,green,229,TRUE
266,1660108781.66,5595,1779,3350,5.531,-1.54,0.001,93.5,blue,229,TRUE
267,1660108781.769,5669,2233,750,5.005,1.421,1.079,95.1,red,229,TRUE
268,1660108781.966,2928,-2763,2526,5.503,-0.62,0.298,93.7,green,229,TRUE
269,1660108782.254,5623,1812,3350,5.514,-1.539,0.0,93.7,blue,229,TRUE
270,1660108782.348,5664,2242,750,5.049,1.409,1.08,98.9,red,229,TRUE
271,1660108782.449,3737,-2592,882,5.251,-0.465,0.183,92.3,yellow,229,TRUE
272,1660108783.908,5645,1829,3350,5.527,-1.537,0.001,99.3,blue,229,TRUE
273,1660108784.131,3709,-2582,882,5.252,-0.468,0.183,93.6,yellow,229,TRUE
274,1660108784.225,2940,-2771,2526,5.514,-0.591,0.285,99.0,green,229,TRUE
275,1660108785.507,5669,1862,3350,5.601,-1.532,3.103,91.5,blue,229,TRUE
276,1660108785.598,5764,2343,750,4.804,1.365,1.166,93.4,red,229,TRUE
277,1660108785.707,3699,-2597,882,5.252,-0.467,0.183,94.0,yellow,229,TRUE
278,1660108787.134,5659,1880,3350,5.413,-1.522,-0.039,96.8,blue,229,TRUE
279,1660108787.356,3674,-2602,882,5.253,-0.467,0.18,95.3,yellow,229,TRUE
280,1660108787.451,2972,-2773,2526,5.524,-0.579,0.272,93.7,green,229,TRUE
281,1660108787.741,5655,1886,3350,5.452,-1.537,-0.028,93.6,blue,229,TRUE
282,1660108787.851,5731,2370,750,5.171,1.352,0.557,93.5,red,229,TRUE
283,1660108787.944,3658,-2593,882,5.253,-0.467,0.179,98.0,yellow,229,TRUE
284,1660108788.042,2977,-2772,2526,5.523,-0.586,0.268,93.8,green,229,TRUE
285,1660108788.348,5635,1871,3350,5.531,-1.535,-3.111,93.8,blue,229,TRUE
286,1660108788.442,5721,2398,750,5.768,1.346,0.659,93.6,red,229,TRUE
287,1660108788.535,3655,-2594,882,5.255,-0.464,0.178,99.4,yellow,229,TRUE
288,1660108788.642,3007,-2787,2526,5.525,-0.585,0.269,95.3,green,229,TRUE
289,1660108789.974,5651,1854,3350,5.765,-1.329,-2.577,93.7,blue,229,TRUE
290,1660108790.067,5685,2462,750,6.211,1.337,0.756,98.2,red,229,TRUE
291,1660108790.181,3653,-2594,882,5.258,-0.459,0.184,92.5,yellow,229,TRUE
292,1660108790.694,5681,2505,750,5.219,1.282,0.966,98.9,red,229,TRUE
293,1660108790.795,3663,-2594,882,5.258,-0.448,0.187,82.7,yellow,229,TRUE
294,1660108790.893,3094,-2832,2526,5.52,-0.597,0.274,93.7,green,229,TRUE
295,1660108791.176,5606,1861,3350,5.556,-1.448,3.002,93.7,blue,229,TRUE
296,1660108791.269,5693,2509,750,5.088,1.349,0.765,93.5,red,229,TRUE
297,1660108791.378,3661,-2598,882,5.239,-0.437,0.197,95.1,yellow,229,TRUE
298,1660108791.474,3092,-2831,2526,5.519,-0.605,0.281,93.4,green,229,TRUE
299,1660108791.769,5625,1898,3350,5.787,-1.218,-2.772,93.8,blue,229,TRUE
300,1660108791.878,5702,2499,750,4.976,1.427,1.431,93.4,red,229,TRUE
301,1660108791.972,3663,-2615,882,5.241,-0.436,0.196,92.7,yellow,229,TRUE
302,1660108792.064,3092,-2826,2526,5.515,-0.61,0.29,94.0,green,229,TRUE
303,1660108793.372,5651,1943,3350,5.675,-1.228,-2.64,93.7,blue,229,TRUE
304,1660108793.465,5703,2541,750,4.881,1.458,3.054,99.1,red,229,TRUE
305,1660108793.58,3655,-2616,882,5.239,-0.47,0.158,95.6,yellow,229,TRUE
306,1660108794.998,5655,1963,3350,5.413,-1.213,-2.402,86.5,blue,229,TRUE
307,1660108795.086,5708,2512,750,4.886,1.458,3.063,88.4,red,229,TRUE
308,1660108795.189,3634,-2631,882,5.211,-0.792,0.014,92.8,yellow,229,TRUE
309,1660108795.282,3107,-2824,2526,5.486,-0.576,0.273,110.9,green,229,TRUE
310,1660108796.604,5651,1955,3350,5.627,-1.154,-2.934,97.4,blue,229,TRUE
311,1660108796.702,5711,2500,750,4.895,1.465,3.057,109.4,red,229,TRUE
312,1660108796.936,3065,-2816,2526,5.513,-0.604,0.266,90.2,green,229,TRUE
313,1660108797.183,5650,1937,3350,5.522,-1.23,-2.786,99.1,blue,229,TRUE
314,1660108797.437,3641,-2627,882,4.519,-0.881,-0.312,93.6,yellow,229,TRUE
315,1660108797.53,3080,-2825,2526,5.513,-0.612,0.269,101.7,green,229,TRUE
316,1660108797.725,5649,1906,3350,5.462,-1.328,-2.573,94.0,blue,229,TRUE
317,1660108797.835,5697,2451,750,4.919,1.478,3.05,96.1,red,229,TRUE
318,1660108797.946,3614,-2642,882,4.71,-0.855,-0.152,93.6,yellow,229,TRUE
319,1660108798.04,3022,-2802,2526,5.512,-0.613,0.272,93.9,green,229,TRUE
320,1660108798.364,5677,2417,750,4.961,1.485,3.06,93.8,red,229,TRUE
321,1660108798.458,3616,-2646,882,4.667,-0.892,-0.144,92.1,yellow,229,TRUE
322,1660108798.55,3019,-2804,2526,5.512,-0.611,0.269,93.8,green,229,TRUE
323,1660108798.801,5635,1929,3350,5.384,-1.337,-2.674,84.4,blue,229,TRUE
324,1660108798.901,5668,2389,750,5.004,1.475,3.049,93.5,red,229,TRUE
325,1660108799.01,3558,-2651,882,4.716,-0.921,-0.145,94.9,yellow,229,TRUE
326,1660108800.342,5665,1978,3350,5.597,-1.213,-3.051,85.7,blue,229,TRUE
327,1660108800.537,3548,-2662,882,4.645,-0.858,-0.169,93.8,yellow,229,TRUE
328,1660108800.631,3010,-2806,2526,5.514,-0.615,0.267,98.2,green,229,TRUE
329,1660108800.963,5656,2252,750,4.977,1.384,0.957,88.7,red,229,TRUE
330,1660108801.067,3540,-2672,882,4.694,-0.845,-0.132,94.0,yellow,229,TRUE
331,1660108801.161,2963,-2784,2526,5.51,-0.607,0.266,95.3,green,229,TRUE
332,1660108801.353,5679,1940,3350,5.66,-1.245,3.138,109.2,blue,229,TRUE
333,1660108801.478,5655,2221,750,5.562,1.41,0.529,93.7,red,229,TRUE
334,1660108801.572,3527,-2687,882,4.689,-0.845,-0.093,97.7,yellow,229,TRUE
335,1660108802.99,5705,1923,3350,5.495,-1.18,-2.802,90.0,blue,229,TRUE
336,1660108803.08,5511,2323,750,0.652,1.421,0.676,108.2,red,229,TRUE
337,1660108803.189,3524,-2694,882,4.685,-0.849,-0.118,95.4,yellow,229,TRUE
338,1660108804.656,5697,1880,3350,5.449,-1.169,-2.791,92.2,blue,229,TRUE
339,1660108804.748,5376,2340,750,4.385,1.337,1.034,109.5,red,229,TRUE
340,1660108806.364,5688,1845,3350,5.394,-1.16,-2.757,93.8,blue,229,TRUE
341,1660108806.458,5227,2366,750,4.049,1.342,1.29,113.2,red,229,TRUE
342,1660108808.116,5177,2424,750,4.108,1.298,0.969,90.7,red,229,TRUE
343,1660108808.207,3419,-2657,882,4.711,-0.887,-0.053,93.8,yellow,229,TRUE
344,1660108808.549,5683,1820,3350,5.414,-1.068,-2.75,94.0,blue,229,TRUE
345,1660108808.643,5141,2498,750,4.336,1.325,0.573,95.7,red,229,TRUE
346,1660108808.741,3391,-2681,882,4.718,-0.867,-0.032,86.8,yellow,229,TRUE
347,1660108809.031,5685,1818,3350,5.418,-1.073,-2.771,92.7,blue,229,TRUE
348,1660108809.139,5025,2498,750,3.956,1.326,0.677,93.8,red,229,TRUE
349,1660108809.233,3383,-2675,882,4.711,-0.903,-0.064,114.1,yellow,229,TRUE
350,1660108809.548,5698,1824,3350,5.46,-1.152,-2.761,93.7,blue,229,TRUE
351,1660108809.641,5009,2554,750,4.021,1.345,0.458,89.9,red,229,TRUE
352,1660108809.731,3403,-2673,882,4.706,-0.935,-0.107,93.7,yellow,229,TRUE
353,1660108811.134,5733,1746,3350,5.407,-1.161,-2.731,98.6,blue,229,TRUE
354,1660108811.235,5006,2587,750,4.602,1.385,1.009,96.6,red,229,TRUE
355,1660108812.67,5773,1740,3350,5.43,-1.188,-2.722,94.8,blue,229,TRUE
356,1660108812.767,5007,2598,750,4.992,1.438,0.808,94.0,red,229,TRUE
357,1660108812.861,3416,-2662,882,4.748,-0.748,0.001,93.4,yellow,229,TRUE
358,1660108815.252,5758,1750,3350,5.869,-0.986,2.889,93.7,blue,229,TRUE
359,1660108815.361,5048,2644,750,5.192,1.488,3.065,93.7,red,229,TRUE
360,1660108815.933,5062,2665,750,5.217,1.498,3.069,93.7,red,229,TRUE
361,1660108816.027,3463,-2674,882,4.749,-0.753,0.019,96.9,yellow,229,TRUE
362,1660108816.245,5724,1731,3350,5.834,-0.849,2.934,93.8,blue,229,TRUE
363,1660108816.355,5060,2678,750,5.253,1.503,3.077,99.2,red,229,TRUE
364,1660108816.456,3432,-2653,882,4.753,-0.748,0.023,89.1,yellow,229,TRUE
365,1660108816.654,5704,1744,3350,5.85,-0.782,2.946,99.9,blue,229,TRUE
366,1660108816.884,3436,-2650,882,4.748,-0.76,0.017,78.0,yellow,229,TRUE
367,1660108817.215,5700,1727,3350,5.895,-0.761,2.916,93.7,blue,229,TRUE
368,1660108817.324,5309,2629,750,5.286,1.505,3.081,83.5,red,229,TRUE
369,1660108819.804,5681,1745,3350,5.497,-0.717,3.129,84.3,blue,229,TRUE
370,1660108819.888,5453,2601,750,5.14,1.486,0.074,93.5,red,229,TRUE
371,1660108821.403,5685,1742,3350,5.629,-1.148,2.911,94.0,blue,229,TRUE
372,1660108821.497,5506,2560,750,5.133,1.476,0.092,93.7,red,229,TRUE
373,1660108821.591,3424,-2659,882,4.76,-0.718,-0.033,102.2,yellow,229,TRUE
374,1660108821.909,5652,1743,3350,6.208,-1.187,2.425,91.0,blue,229,TRUE
375,1660108822.001,5575,2507,750,5.163,1.446,1.319,90.4,red,229,TRUE
376,1660108822.091,3487,-2696,882,4.759,-0.719,-0.031,84.7,yellow,229,TRUE
377,1660108822.389,5640,1748,3350,6.178,-1.284,2.367,93.7,blue,229,TRUE
378,1660108822.483,5604,2444,750,5.249,1.446,1.421,98.4,red,229,TRUE
379,1660108822.583,3481,-2701,882,4.754,-0.721,-0.031,88.1,yellow,229,TRUE
380,1660108822.98,5616,1769,3350,5.768,-1.386,2.805,94.8,blue,229,TRUE
381,1660108823.075,5614,2401,750,5.177,1.425,1.618,93.7,red,229,TRUE
382,1660108823.543,5627,1858,3350,5.99,-1.332,2.825,93.5,blue,229,TRUE
383,1660108823.636,5612,2347,750,5.152,1.418,1.52,93.7,red,229,TRUE
384,1660108823.99,5601,1871,3350,5.666,-1.434,-2.846,93.5,blue,229,TRUE
385,1660108824.083,5623,2346,750,5.351,1.419,1.349,93.6,red,229,TRUE
386,1660108824.581,5601,1866,3350,5.814,-1.491,3.062,93.7,blue,229,TRUE
387,1660108824.815,3700,-2781,882,4.709,-0.716,-0.009,90.0,yellow,229,TRUE
388,1660108827.107,5639,1943,3350,5.689,-1.503,3.09,91.6,blue,229,TRUE
389,1660108827.208,5585,2366,750,5.26,1.352,1.06,97.2,red,229,TRUE
390,1660108827.315,3700,-2775,882,4.696,-0.776,-0.028,91.6,yellow,229,TRUE
391,1660108828.687,5636,1929,3350,5.691,-1.516,3.09,94.8,blue,229,TRUE
392,1660108828.781,5580,2392,750,5.871,1.341,0.993,94.0,red,229,TRUE
393,1660108830.293,5639,1933,3350,6.003,-1.32,2.501,90.2,blue,229,TRUE
394,1660108830.385,5600,2410,750,5.881,1.346,1.028,90.6,red,229,TRUE
395,1660108830.475,3668,-2772,882,4.686,-0.762,-0.029,95.3,yellow,229,TRUE
396,1660108831.876,5650,1982,3350,5.691,-1.506,3.11,93.7,blue,229,TRUE
397,1660108831.97,5593,2439,750,6.21,1.41,0.736,94.5,red,229,TRUE
398,1660108832.071,3707,-2790,882,4.685,-0.768,-0.005,84.3,yellow,229,TRUE
399,1660108832.405,5642,1955,3350,5.713,-1.508,3.111,92.1,blue,229,TRUE
400,1660108832.512,5552,2489,750,0.543,1.379,0.47,95.2,red,229,TRUE
401,1660108832.607,3701,-2804,882,4.689,-0.762,0.001,99.3,yellow,229,TRUE
402,1660108832.9,5644,1968,3350,5.714,-1.454,3.084,99.5,blue,229,TRUE
403,1660108833.009,5474,2568,750,1.002,1.429,0.85,87.1,red,229,TRUE
404,1660108835.481,5664,1951,3350,5.801,-1.276,2.779,83.4,blue,229,TRUE
405,1660108835.564,5174,2573,750,1.008,1.345,0.903,94.0,red,229,TRUE
406,1660108835.957,5707,1955,3350,5.752,-1.204,2.956,95.1,blue,229,TRUE
407,1660108836.068,4897,2600,750,1.656,1.376,0.573,86.7,red,229,TRUE
408,1660108836.155,3753,-2825,882,4.686,-0.75,0.001,93.7,yellow,229,TRUE
409,1660108836.455,5750,1967,3350,5.786,-1.19,2.962,93.9,blue,229,TRUE
410,1660108836.565,4622,2658,750,1.625,1.308,0.78,93.8,red,229,TRUE
411,1660108836.658,3768,-2831,882,4.692,-0.75,0.002,104.2,yellow,229,TRUE
412,1660108836.997,5742,1905,3350,5.722,-1.154,3.014,97.0,blue,229,TRUE
413,1660108837.109,4331,2728,750,1.642,1.35,0.854,93.9,red,229,TRUE
414,1660108837.203,3626,-2774,882,4.689,-0.774,-0.025,93.6,yellow,229,TRUE
415,1660108838.582,5761,1878,3350,5.73,-1.18,3.026,91.5,blue,229,TRUE
416,1660108838.675,3943,2719,750,0.544,1.361,0.523,89.3,red,229,TRUE
417,1660108840.171,5788,1829,3350,5.718,-1.262,3.045,93.7,blue,229,TRUE
418,1660108840.264,3589,2713,750,0.501,1.386,0.73,95.0,red,229,TRUE
419,1660108842.718,5811,1831,3350,5.958,-1.273,2.173,95.7,blue,229,TRUE
420,1660108844.439,5835,1827,3350,5.691,-1.175,2.965,90.3,blue,229,TRUE
421,1660108844.529,2889,2709,750,0.706,1.33,0.75,93.7,red,229,TRUE
422,1660108844.771,2873,-2727,2526,5.582,-0.571,0.245,95.4,green,229,TRUE
423,1660108845.179,2502,2679,750,0.854,1.311,0.549,93.5,red,229,TRUE
424,1660108845.272,3601,-2779,882,4.737,-0.783,-0.045,102.5,yellow,229,TRUE
425,1660108846.706,5804,1733,3350,5.675,-1.446,1.973,93.9,blue,229,TRUE
426,1660108846.8,2034,2585,750,0.75,1.311,0.53,98.6,red,229,TRUE
427,1660108850.364,5848,1737,3350,5.848,-1.456,3.051,93.8,blue,229,TRUE
428,1660108850.457,1690,2599,750,1.316,1.33,0.858,94.3,red,229,TRUE
429,1660108850.56,3594,-2784,882,4.757,-0.733,0.041,86.7,yellow,229,TRUE
430,1660108853.02,5872,1716,3350,5.898,-1.344,2.515,86.9,blue,229,TRUE
431,1660108853.122,1440,2529,750,2.187,1.334,0.88,94.0,red,229,TRUE
432,1660108854.413,2869,-2741,2526,5.615,-0.519,0.232,93.6,green,229,TRUE
433,1660108855.76,5889,1723,3350,5.717,-1.177,2.892,91.4,blue,229,TRUE
434,1660108855.852,1469,2656,750,2.068,1.438,0.288,93.7,red,229,TRUE
435,1660108857.107,2879,-2766,2526,5.565,-0.52,0.276,95.2,green,229,TRUE
436,1660108857.361,5875,1683,3350,5.627,-1.379,2.647,93.4,blue,229,TRUE
437,1660108857.455,1404,2840,750,1.881,1.354,0.515,93.7,red,229,TRUE
438,1660108858.696,2880,-2760,2526,5.56,-0.542,0.269,93.8,green,229,TRUE
439,1660108858.969,5739,1643,3350,4.537,-1.427,2.748,93.6,blue,229,TRUE
440,1660108859.253,2896,-2775,2526,5.575,-0.535,0.298,94.0,green,229,TRUE
441,1660108859.456,5625,1651,3350,6.004,-1.319,2.513,89.0,blue,229,TRUE
442,1660108859.545,1338,3063,750,5.478,1.379,1.712,96.4,red,229,TRUE
443,1660108859.657,2890,-2800,2526,5.579,-0.517,0.293,77.9,green,229,TRUE
444,1660108859.875,5516,1679,3350,5.606,-1.293,3.086,93.5,blue,229,TRUE
445,1660108859.968,1486,3231,750,5.085,1.448,0.885,94.0,red,229,TRUE
446,1660108861.49,1608,3292,750,0.296,1.331,0.892,93.9,red,229,TRUE
447,1660108862.954,5022,1984,3350,4.487,-1.45,1.21,94.8,blue,229,TRUE
448,1660108863.05,1588,3265,750,1.254,1.302,0.648,97.1,red,229,TRUE
449,1660108864.502,4662,2217,3350,5.95,-1.329,2.225,93.4,blue,229,TRUE
450,1660108864.595,1568,3362,750,1.072,1.366,1.454,94.0,red,229,TRUE
451,1660108864.943,4395,2497,3350,0.514,-1.443,2.196,94.7,blue,229,TRUE
452,1660108865.038,1554,3464,750,1.103,1.347,1.518,84.9,red,229,TRUE
453,1660108865.248,4100,2682,3350,0.853,-1.496,3.137,100.9,blue,229,TRUE
454,1660108865.359,1614,3606,750,1.114,1.358,1.492,98.1,red,229,TRUE
455,1660108865.597,3818,2901,3350,1.197,-1.505,-3.091,86.8,blue,229,TRUE
456,1660108866.002,3586,3079,3350,1.562,-1.436,-3.042,93.8,blue,229,TRUE
457,1660108866.096,1483,3733,750,0.922,1.349,1.552,93.4,red,229,TRUE
458,1660108866.433,3362,3198,3350,1.997,-1.462,-3.093,93.4,blue,229,TRUE
459,1660108866.542,1308,3655,750,0.913,1.338,1.58,96.8,red,229,TRUE
460,1660108866.748,3152,3321,3350,2.258,-1.53,-0.036,95.2,blue,229,TRUE
461,1660108866.859,1237,3514,750,0.92,1.348,1.491,88.7,red,229,TRUE
462,1660108867.067,3074,3416,3350,2.013,-1.554,0.005,98.5,blue,229,TRUE
463,1660108867.168,1132,3326,750,0.885,1.35,1.467,88.6,red,229,TRUE
464,1660108867.46,3005,3452,3350,2.198,-1.558,3.135,87.9,blue,229,TRUE
465,1660108867.563,1003,3238,750,0.863,1.346,1.414,82.7,red,229,TRUE
466,1660108867.88,2944,3435,3350,1.568,-1.522,3.094,93.7,blue,229,TRUE
467,1660108867.973,777,3045,750,0.773,1.345,1.276,94.9,red,229,TRUE
468,1660108868.185,3011,3378,3350,1.288,-1.522,3.093,93.9,blue,229,TRUE
469,1660108868.279,549,3092,750,0.746,1.346,1.098,95.2,red,229,TRUE
470,1660108868.529,3245,3026,3350,1.13,-1.489,0.015,93.5,blue,229,TRUE
471,1660108868.623,534,3158,750,0.79,1.341,0.898,95.5,red,229,TRUE
472,1660108868.887,3523,2771,3350,0.573,-1.512,0.052,93.6,blue,229,TRUE
473,1660108868.98,492,3125,750,0.798,1.322,0.74,91.4,red,229,TRUE
474,1660108869.29,3805,2498,3350,0.049,-1.524,0.032,93.5,blue,229,TRUE
475,1660108869.4,470,3106,750,0.845,1.318,0.702,93.7,red,229,TRUE
476,1660108869.634,4061,2273,3350,0.099,-1.487,0.065,91.0,blue,229,TRUE
477,1660108869.725,492,3112,750,0.916,1.32,0.671,93.5,red,229,TRUE
478,1660108870.083,483,3092,750,1.07,1.312,0.602,95.0,red,229,TRUE
479,1660108870.351,4473,1934,3350,5.377,-1.514,-3.117,93.7,blue,229,TRUE
480,1660108870.46,446,2980,750,1.253,1.306,0.573,93.9,red,229,TRUE
481,1660108870.755,4688,1795,3350,5.481,-1.547,-0.009,95.2,blue,229,TRUE
482,1660108870.851,465,2993,750,1.211,1.306,0.591,104.2,red,229,TRUE
483,1660108871.207,488,2987,750,1.16,1.322,0.628,94.3,red,229,TRUE
484,1660108871.427,5037,1544,3350,5.703,-1.541,3.115,97.9,blue,229,TRUE
485,1660108871.542,564,3065,750,1.144,1.332,0.629,93.7,red,229,TRUE
486,1660108871.8,5200,1495,3350,5.668,-1.542,3.113,92.2,blue,229,TRUE
487,1660108871.908,578,3016,750,1.085,1.334,0.637,93.4,red,229,TRUE
488,1660108872.222,5370,1507,3350,5.629,-1.524,0.031,93.7,blue,229,TRUE
489,1660108872.579,5519,1487,3350,5.583,-1.494,0.028,94.9,blue,229,TRUE
490,1660108874.044,5546,1609,3350,5.833,-1.506,0.063,93.5,blue,229,TRUE
491,1660108874.137,728,3197,750,1.025,1.298,0.548,94.1,red,229,TRUE
492,1660108874.341,5604,1615,3350,5.898,-1.51,0.059,93.7,blue,229,TRUE
493,1660108874.451,723,3195,750,1.145,1.288,0.489,93.5,red,229,TRUE
494,1660108874.692,5629,1654,3350,5.967,-1.493,0.076,93.9,blue,229,TRUE
495,1660108875.566,5671,1567,3350,5.954,-1.491,3.071,93.8,blue,229,TRUE
496,1660108875.676,823,3022,750,1.409,1.304,0.596,93.7,red,229,TRUE
497,1660108875.89,5665,1563,3350,5.872,-1.511,3.086,95.2,blue,229,TRUE
498,1660108876.001,896,2996,750,1.203,1.273,0.68,78.1,red,229,TRUE
499,1660108876.202,5647,1562,3350,5.897,-1.51,3.094,93.7,blue,229,TRUE
500,1660108876.295,946,3079,750,1.21,1.288,0.7,93.8,red,229,TRUE
501,1660108876.51,5677,1637,3350,5.856,-1.515,3.096,93.4,blue,229,TRUE
502,1660108876.603,937,3049,750,1.313,1.306,0.717,95.2,red,229,TRUE
503,1660108876.967,5667,1649,3350,5.895,-1.366,2.73,97.5,blue,229,TRUE
504,1660108877.064,922,3067,750,1.358,1.287,0.723,93.5,red,229,TRUE
505,1660108877.267,5664,1671,3350,5.461,-1.204,-2.905,102.8,blue,229,TRUE
506,1660108877.622,5645,1650,3350,5.264,-1.082,-2.718,80.7,blue,229,TRUE
507,1660108877.718,920,3203,750,1.313,1.297,0.786,93.7,red,229,TRUE
508,1660108877.921,5639,1628,3350,5.144,-1.043,-2.631,88.1,blue,229,TRUE
509,1660108878.025,944,3185,750,1.253,1.292,0.797,97.5,red,229,TRUE
510,1660108878.403,5626,1581,3350,5.204,-1.062,-2.653,95.0,blue,229,TRUE
511,1660108878.765,5633,1548,3350,5.22,-1.073,-2.675,93.7,blue,229,TRUE
512,1660108878.859,963,3206,750,1.134,1.311,0.855,90.4,red,229,TRUE
513,1660108879.398,5686,1531,3350,5.363,-1.218,-2.714,93.8,blue,229,TRUE
514,1660108879.508,931,3429,750,1.122,1.321,0.849,95.7,red,229,TRUE
515,1660108879.928,5670,1512,3350,5.677,-1.347,-2.783,94.0,blue,229,TRUE
516,1660108880.285,5684,1503,3350,5.688,-1.343,-2.724,93.8,blue,229,TRUE
517,1660108880.379,881,3393,750,1.244,1.322,0.723,93.4,red,229,TRUE
518,1660108880.613,5693,1507,3350,5.586,-1.283,-2.789,93.9,blue,229,TRUE
519,1660108880.722,875,3411,750,1.358,1.312,0.692,92.9,red,229,TRUE
520,1660108880.924,5713,1435,3350,5.426,-1.148,-2.842,93.4,blue,229,TRUE
521,1660108881.034,890,3434,750,1.369,1.317,0.705,82.9,red,229,TRUE
522,1660108881.431,5743,1358,3350,5.429,-1.136,-2.847,93.7,blue,229,TRUE
523,1660108881.525,913,3423,750,1.379,1.313,0.687,93.7,red,229,TRUE
524,1660108881.852,5770,1294,3350,5.429,-1.148,-2.845,93.7,blue,229,TRUE
525,1660108881.945,903,3343,750,1.345,1.299,0.687,90.5,red,229,TRUE
526,1660108882.239,5768,1328,3350,5.433,-1.212,-2.83,98.3,blue,229,TRUE
527,1660108882.337,928,3331,750,1.332,1.302,0.653,93.8,red,229,TRUE
528,1660108882.745,5788,1368,3350,5.466,-1.238,-2.839,94.0,blue,229,TRUE
529,1660108882.839,919,3303,750,1.301,1.302,0.689,88.8,red,229,TRUE
530,1660108884.236,5797,1407,3350,5.535,-1.385,-2.702,93.8,blue,229,TRUE
531,1660108884.33,951,3262,750,1.11,1.314,0.701,95.0,red,229,TRUE
532,1660108885.792,5811,1469,3350,5.63,-1.524,-0.022,93.7,blue,229,TRUE
533,1660108885.886,935,3273,750,1.06,1.341,0.716,99.4,red,229,TRUE
534,1660108887.351,5811,1520,3350,5.593,-1.392,-2.985,94.0,blue,229,TRUE
535,1660108887.445,931,3203,750,1.046,1.331,0.621,107.7,red,229,TRUE
536,1660108887.865,5812,1517,3350,5.585,-1.409,-2.988,93.5,blue,229,TRUE
537,1660108887.959,921,3209,750,1.042,1.344,0.649,94.0,red,229,TRUE
538,1660108888.15,5822,1530,3350,5.572,-1.401,-3.024,94.0,blue,229,TRUE
539,1660108888.485,5821,1520,3350,5.549,-1.449,-3.031,94.8,blue,229,TRUE
540,1660108888.58,955,3225,750,1.097,1.332,0.586,94.1,red,229,TRUE
541,1660108888.831,5821,1510,3350,5.486,-1.502,-3.119,93.5,blue,229,TRUE
542,1660108888.924,941,3222,750,1.114,1.329,0.572,93.8,red,229,TRUE
543,1660108889.31,5812,1588,3350,5.728,-1.552,3.138,92.8,blue,229,TRUE
544,1660108889.403,922,3215,750,1.119,1.326,0.581,93.8,red,229,TRUE
545,1660108889.606,5791,1647,3350,5.737,-1.532,0.01,103.6,blue,229,TRUE
546,1660108889.726,911,3211,750,1.116,1.33,0.608,98.3,red,229,TRUE
547,1660108889.949,5769,1692,3350,5.708,-1.522,0.033,90.6,blue,229,TRUE
548,1660108890.039,896,3215,750,1.11,1.33,0.609,93.7,red,229,TRUE
549,1660108890.41,869,3235,750,1.088,1.332,0.635,93.7,red,229,TRUE
550,1660108890.875,5731,1622,3350,5.666,-1.552,0.017,90.6,blue,229,TRUE
551,1660108890.965,860,3251,750,1.088,1.326,0.622,101.3,red,229,TRUE
552,1660108892.253,5723,1621,3350,5.77,-1.449,0.537,93.6,blue,229,TRUE
553,1660108892.347,839,3253,750,1.081,1.323,0.645,96.9,red,229,TRUE
554,1660108892.52,2894,-2802,2526,5.574,-0.479,0.281,95.1,green,229,TRUE
555,1660108892.811,5716,1629,3350,5.726,-1.467,0.08,84.2,blue,229,TRUE
556,1660108892.911,846,3218,750,1.086,1.322,0.628,93.6,red,229,TRUE
557,1660108893.004,2908,-2803,2526,5.57,-0.488,0.285,88.3,green,229,TRUE
558,1660108893.296,5724,1642,3350,5.769,-1.469,0.082,97.7,blue,229,TRUE
559,1660108893.518,2933,-2811,2526,5.571,-0.485,0.281,93.7,green,229,TRUE
560,1660108893.821,5740,1680,3350,5.808,-1.46,0.08,93.7,blue,229,TRUE
561,1660108893.931,881,3145,750,1.078,1.323,0.638,96.7,red,229,TRUE
562,1660108895.396,5742,1708,3350,5.852,-1.424,0.688,93.8,blue,229,TRUE
563,1660108895.489,887,3109,750,1.064,1.307,0.711,99.1,red,229,TRUE
564,1660108898.082,5736,1769,3350,5.777,-1.463,0.089,94.0,blue,229,TRUE
565,1660108898.176,893,3139,750,1.061,1.29,0.716,93.7,red,229,TRUE
566,1660108902.389,5673,1827,3350,6.0,-1.396,0.418,93.8,blue,229,TRUE
567,1660108902.483,908,3113,750,1.104,1.301,0.616,93.8,red,229,TRUE
568,1660108902.86,5668,1825,3350,5.992,-1.406,0.409,99.9,blue,229,TRUE
569,1660108902.96,917,3097,750,1.085,1.304,0.609,93.6,red,229,TRUE
570,1660108903.195,5669,1848,3350,5.996,-1.417,0.431,88.2,blue,229,TRUE
571,1660108903.655,942,3026,750,1.09,1.299,0.575,93.8,red,229,TRUE
572,1660108903.858,5696,1910,3350,5.979,-1.422,0.479,91.9,blue,229,TRUE
573,1660108903.966,951,3008,750,1.108,1.307,0.566,93.8,red,229,TRUE
574,1660108905.478,5707,1919,3350,5.988,-1.428,0.484,93.7,blue,229,TRUE
575,1660108905.587,956,2997,750,1.085,1.298,0.603,98.1,red,229,TRUE
576,1660108907.036,5702,1906,3350,5.994,-1.417,0.47,93.7,blue,229,TRUE
577,1660108907.13,954,3002,750,1.09,1.298,0.619,94.8,red,229,TRUE
578,1660108907.242,3590,-2800,882,4.631,-0.71,0.076,94.2,yellow,229,TRUE
579,1660108907.572,5698,1895,3350,6.0,-1.43,0.506,95.1,blue,229,TRUE
580,1660108907.683,958,2989,750,1.097,1.302,0.611,93.7,red,229,TRUE
581,1660108907.776,3580,-2800,882,4.65,-0.708,0.096,99.8,yellow,229,TRUE
582,1660108909.129,5687,1881,3350,6.016,-1.446,0.593,93.7,blue,229,TRUE
583,1660108909.223,941,3044,750,1.113,1.306,0.598,93.9,red,229,TRUE
584,1660108910.699,5686,1869,3350,6.032,-1.416,0.401,93.5,blue,229,TRUE
585,1660108910.792,922,3052,750,1.114,1.306,0.591,94.0,red,229,TRUE
586,1660108910.909,3616,-2814,882,4.7,-0.595,0.184,83.0,yellow,229,TRUE
587,1660108911.271,5688,1850,3350,5.926,-1.393,0.381,93.9,blue,229,TRUE
588,1660108911.365,919,3077,750,1.11,1.306,0.619,93.6,red,229,TRUE
589,1660108911.459,3636,-2806,882,4.703,-0.59,0.187,94.0,yellow,229,TRUE
590,1660108912.75,5740,1772,3350,6.019,-1.484,0.053,90.3,blue,229,TRUE
591,1660108912.84,904,3061,750,1.124,1.31,0.603,93.9,red,229,TRUE
592,1660108914.348,5747,1799,3350,5.925,-1.455,0.045,93.6,blue,229,TRUE
593,1660108914.442,889,3094,750,1.148,1.308,0.58,93.9,red,229,TRUE
594,1660108915.985,5757,1824,3350,5.924,-1.457,0.047,93.5,blue,229,TRUE
595,1660108916.078,877,3128,750,1.16,1.304,0.543,96.5,red,229,TRUE
596,1660108916.193,3555,-2787,882,4.623,-0.947,-0.147,93.8,yellow,229,TRUE
597,1660108916.498,5760,1826,3350,5.934,-1.457,0.046,93.5,blue,229,TRUE
598,1660108916.591,858,3194,750,1.149,1.3,0.549,93.7,red,229,TRUE
599,1660108916.685,3527,-2787,882,4.631,-0.951,-0.131,98.3,yellow,229,TRUE
600,1660108916.904,5761,1831,3350,5.932,-1.46,0.046,94.0,blue,229,TRUE
601,1660108916.997,847,3215,750,1.153,1.307,0.527,93.1,red,229,TRUE
602,1660108917.464,837,3232,750,1.16,1.312,0.54,93.4,red,229,TRUE
603,1660108917.558,3503,-2791,882,4.637,-0.94,-0.115,94.0,yellow,229,TRUE
604,1660108917.896,5732,1769,3350,5.932,-1.458,0.046,98.3,blue,229,TRUE
605,1660108917.995,833,3240,750,1.152,1.306,0.585,90.4,red,229,TRUE
606,1660108918.086,3497,-2786,882,4.638,-0.932,-0.107,95.1,yellow,229,TRUE
607,1660108918.306,5737,1770,3350,5.932,-1.453,0.045,90.1,blue,229,TRUE
608,1660108918.396,823,3250,750,1.142,1.301,0.605,94.9,red,229,TRUE
609,1660108918.491,3485,-2779,882,4.639,-0.93,-0.1,93.8,yellow,229,TRUE
610,1660108918.694,5736,1778,3350,5.934,-1.455,0.045,93.5,blue,229,TRUE
611,1660108918.803,813,3273,750,1.138,1.305,0.593,93.8,red,229,TRUE
612,1660108918.897,3485,-2772,882,4.64,-0.941,-0.101,101.9,yellow,229,TRUE
613,1660108919.269,5735,1781,3350,5.934,-1.46,0.045,93.7,blue,229,TRUE
614,1660108919.472,3460,-2766,882,4.64,-0.932,-0.086,102.8,yellow,229,TRUE
615,1660108919.762,5734,1781,3350,5.932,-1.46,0.046,95.7,blue,229,TRUE
616,1660108919.886,798,3325,750,1.142,1.301,0.584,94.0,red,229,TRUE
617,1660108919.98,3436,-2764,882,4.636,-0.869,-0.075,103.5,yellow,229,TRUE
618,1660108920.276,5732,1780,3350,5.934,-1.457,0.045,93.7,blue,229,TRUE
619,1660108920.37,795,3328,750,1.151,1.296,0.567,96.5,red,229,TRUE
620,1660108920.468,3403,-2764,882,4.632,-0.856,-0.076,93.4,yellow,229,TRUE
621,1660108920.835,5734,1799,3350,5.934,-1.456,0.046,93.8,blue,229,TRUE
622,1660108921.041,3422,-2750,882,4.62,-0.844,-0.087,92.7,yellow,229,TRUE
623,1660108921.339,5730,1786,3350,5.935,-1.45,0.384,88.5,blue,229,TRUE
624,1660108921.427,773,3292,750,1.16,1.3,0.555,93.7,red,229,TRUE
625,1660108921.521,3428,-2755,882,4.64,-0.855,-0.072,93.8,yellow,229,TRUE
626,1660108921.833,5726,1785,3350,5.957,-1.451,0.42,94.0,blue,229,TRUE
627,1660108921.942,774,3284,750,1.155,1.302,0.567,93.2,red,229,TRUE
628,1660108922.035,3420,-2769,882,4.646,-0.89,-0.04,93.7,yellow,229,TRUE
629,1660108923.354,5722,1783,3350,5.952,-1.449,0.435,93.4,blue,229,TRUE
630,1660108923.447,772,3282,750,1.149,1.307,0.613,98.2,red,229,TRUE
631,1660108923.552,3429,-2780,882,4.636,-0.806,0.002,86.4,yellow,229,TRUE
632,1660108923.911,5724,1794,3350,5.95,-1.444,0.408,95.2,blue,229,TRUE
633,1660108924.006,776,3278,750,1.151,1.305,0.613,84.1,red,229,TRUE
634,1660108924.09,3432,-2786,882,4.634,-0.808,0.002,98.3,yellow,229,TRUE
635,1660108925.393,5747,1858,3350,5.888,-1.442,0.401,88.1,blue,229,TRUE
636,1660108925.481,802,3278,750,1.168,1.246,0.672,93.9,red,229,TRUE
637,1660108926.962,5748,1892,3350,5.917,-1.433,0.556,83.7,blue,229,TRUE
638,1660108927.046,794,3282,750,0.988,1.264,0.839,94.0,red,229,TRUE
639,1660108927.155,3543,-2837,882,4.645,-0.824,-0.021,95.2,yellow,229,TRUE
640,1660108928.557,5669,1864,3350,3.942,-1.482,-3.115,93.7,blue,229,TRUE
641,1660108928.651,856,3224,750,2.435,1.337,0.551,93.9,red,229,TRUE
642,1660108930.029,5429,1754,3350,3.447,-1.544,3.121,86.5,blue,229,TRUE
643,1660108930.116,923,3152,750,2.019,1.313,0.88,85.1,red,229,TRUE
644,1660108930.201,3562,-2834,882,4.667,-0.788,0.02,93.6,yellow,229,TRUE
645,1660108930.412,5161,1617,3350,3.4,-1.494,0.003,93.7,blue,229,TRUE
646,1660108930.506,971,3029,750,1.349,1.313,0.894,93.8,red,229,TRUE
647,1660108930.6,3576,-2825,882,4.67,-0.785,0.009,93.7,yellow,229,TRUE
648,1660108930.785,4866,1431,3350,2.597,-1.54,-3.111,94.2,blue,229,TRUE
649,1660108932.176,2941,-2833,2526,5.637,-0.44,0.298,91.0,green,229,TRUE
650,1660108932.424,4610,1218,3350,2.33,-1.429,0.004,99.4,blue,229,TRUE
651,1660108932.524,848,2888,750,0.755,1.383,0.828,83.9,red,229,TRUE
652,1660108932.608,3618,-2830,882,4.676,-0.8,-0.015,93.8,yellow,229,TRUE
653,1660108932.702,2922,-2823,2526,5.636,-0.441,0.303,93.5,green,229,TRUE
654,1660108932.89,4360,984,3350,2.299,-1.383,-0.012,93.7,blue,229,TRUE
655,1660108932.999,852,2932,750,0.603,1.374,1.105,83.0,red,229,TRUE
656,1660108934.236,2917,-2809,2526,5.637,-0.417,0.298,93.7,green,229,TRUE
657,1660108934.498,4112,758,3350,2.394,-1.367,0.086,93.5,blue,229,TRUE
658,1660108934.592,813,2809,750,0.206,1.276,1.554,99.6,red,229,TRUE
659,1660108935.843,2961,-2823,2526,5.634,-0.415,0.299,107.7,green,229,TRUE
660,1660108936.133,3849,510,3350,2.39,-1.376,0.064,95.4,blue,229,TRUE
661,1660108936.228,731,2682,750,0.207,1.275,1.547,95.1,red,229,TRUE
662,1660108937.84,691,2574,750,0.14,1.264,1.673,94.0,red,229,TRUE
663,1660108939.308,3379,58,3350,2.395,-1.364,0.128,93.8,blue,229,TRUE
664,1660108939.402,650,2474,750,0.147,1.245,1.672,93.7,red,229,TRUE
665,1660108940.96,3139,-183,3350,2.428,-1.38,0.089,98.0,blue,229,TRUE
666,1660108941.058,580,2371,750,0.156,1.242,1.679,98.3,red,229,TRUE
667,1660108942.511,2880,-436,3350,2.448,-1.43,0.136,94.9,blue,229,TRUE
668,1660108942.606,578,2356,750,0.173,1.234,1.689,99.0,red,229,TRUE
669,1660108942.711,3613,-2835,882,4.649,-1.031,-0.286,99.8,yellow,229,TRUE
670,1660108942.905,2711,-646,3350,2.447,-1.419,0.124,115.1,blue,229,TRUE
671,1660108943.042,465,2305,750,0.155,1.232,1.656,95.6,red,229,TRUE
672,1660108943.154,3603,-2839,882,4.651,-1.009,-0.232,93.4,yellow,229,TRUE
673,1660108943.358,2705,-770,3350,2.448,-1.427,0.134,93.5,blue,229,TRUE
674,1660108943.561,3631,-2833,882,4.658,-1.001,-0.214,97.7,yellow,229,TRUE
675,1660108943.867,2729,-868,3350,2.451,-1.428,0.131,97.0,blue,229,TRUE
676,1660108943.964,321,2375,750,0.166,1.24,1.684,97.8,red,229,TRUE
677,1660108944.065,3642,-2816,882,4.653,-0.949,-0.144,82.0,yellow,229,TRUE
678,1660108944.288,2777,-914,3350,2.455,-1.424,0.121,94.9,blue,229,TRUE
679,1660108944.383,429,2497,750,0.148,1.229,1.664,94.0,red,229,TRUE
680,1660108944.477,3658,-2798,882,4.649,-0.939,-0.136,95.5,yellow,229,TRUE
681,1660108944.665,2784,-936,3350,2.455,-1.421,0.118,109.3,blue,229,TRUE
682,1660108944.79,372,2394,750,0.157,1.235,1.653,95.0,red,229,TRUE
683,1660108944.885,3570,-2754,882,4.653,-0.937,-0.123,84.9,yellow,229,TRUE
684,1660108945.22,2783,-938,3350,2.454,-1.414,0.113,93.6,blue,229,TRUE
685,1660108945.313,338,2286,750,0.152,1.239,1.647,94.1,red,229,TRUE
686,1660108945.407,3615,-2753,882,4.657,-0.947,-0.136,100.0,yellow,229,TRUE
687,1660108945.612,2781,-942,3350,2.459,-1.42,0.113,93.8,blue,229,TRUE
688,1660108945.706,378,2403,750,0.172,1.242,1.643,94.8,red,229,TRUE
689,1660108945.802,3605,-2751,882,4.662,-0.975,-0.135,89.0,yellow,229,TRUE
690,1660108945.985,2791,-931,3350,2.461,-1.421,0.112,93.1,blue,229,TRUE
691,1660108946.092,462,2533,750,0.154,1.242,1.648,90.2,red,229,TRUE
692,1660108946.197,3601,-2755,882,4.669,-1.013,-0.128,78.4,yellow,229,TRUE
693,1660108946.53,2758,-946,3350,2.465,-1.42,0.106,93.7,blue,229,TRUE
694,1660108946.971,2749,-943,3350,2.467,-1.414,0.099,107.2,blue,229,TRUE
695,1660108947.078,470,2587,750,0.128,1.24,1.658,93.9,red,229,TRUE
696,1660108947.188,3585,-2724,882,4.711,-1.044,-0.071,93.7,yellow,229,TRUE
697,1660108947.403,2740,-939,3350,2.467,-1.412,0.097,93.7,blue,229,TRUE
698,1660108947.496,505,2693,750,0.137,1.236,1.645,93.7,red,229,TRUE
699,1660108947.59,3588,-2707,882,4.715,-1.031,-0.067,94.3,yellow,229,TRUE
700,1660108947.887,2742,-946,3350,2.473,-1.42,0.099,95.7,blue,229,TRUE
701,1660108947.984,506,2702,750,0.131,1.248,1.619,94.7,red,229,TRUE
702,1660108948.352,2731,-936,3350,2.473,-1.422,0.099,93.8,blue,229,TRUE
703,1660108948.446,559,2806,750,0.135,1.245,1.633,95.2,red,229,TRUE
704,1660108948.541,3624,-2678,882,4.718,-1.029,-0.063,86.6,yellow,229,TRUE
705,1660108948.752,2723,-927,3350,2.471,-1.42,0.101,93.8,blue,229,TRUE
706,1660108948.862,594,2864,750,0.123,1.236,1.642,95.6,red,229,TRUE
707,1660108948.957,3616,-2661,882,4.719,-1.024,-0.059,95.3,yellow,229,TRUE
708,1660108949.277,2714,-920,3350,2.466,-1.418,0.107,94.9,blue,229,TRUE
709,1660108949.388,602,2870,750,0.112,1.226,1.621,93.8,red,229,TRUE
710,1660108949.482,3617,-2665,882,4.719,-1.029,-0.059,95.6,yellow,229,TRUE
711,1660108949.671,2712,-918,3350,2.469,-1.421,0.106,109.1,blue,229,TRUE
712,1660108949.796,612,2878,750,0.115,1.235,1.596,84.3,red,229,TRUE
713,1660108949.896,3619,-2668,882,4.72,-1.031,-0.057,95.2,yellow,229,TRUE
714,1660108950.081,2711,-915,3350,2.47,-1.456,0.023,116.8,blue,229,TRUE
715,1660108950.213,678,2980,750,0.108,1.235,1.586,93.7,red,229,TRUE
716,1660108950.322,3617,-2665,882,4.72,-1.029,-0.055,93.7,yellow,229,TRUE
717,1660108950.634,2712,-909,3350,2.446,-1.473,0.017,93.5,blue,229,TRUE
718,1660108950.727,726,3068,750,0.108,1.235,1.533,102.7,red,229,TRUE
719,1660108950.83,3588,-2651,882,4.72,-1.031,-0.055,93.6,yellow,229,TRUE
720,1660108951.017,2714,-903,3350,2.45,-1.465,0.016,93.1,blue,229,TRUE
721,1660108951.126,731,3058,750,0.244,1.324,1.274,94.7,red,229,TRUE
722,1660108951.237,3588,-2646,882,4.72,-1.031,-0.055,93.4,yellow,229,TRUE
723,1660108951.443,2714,-896,3350,2.445,-1.464,0.014,93.7,blue,229,TRUE
724,1660108951.537,736,3047,750,0.719,1.414,0.808,94.1,red,229,TRUE
725,1660108951.631,3584,-2642,882,4.72,-1.031,-0.053,85.1,yellow,229,TRUE
726,1660108951.872,2718,-894,3350,2.445,-1.464,0.013,95.1,blue,229,TRUE
727,1660108951.967,791,3218,750,0.923,1.343,0.77,93.3,red,229,TRUE
728,1660108952.061,3574,-2656,882,4.724,-1.026,-0.043,89.7,yellow,229,TRUE
729,1660108952.411,2719,-890,3350,2.448,-1.46,0.012,93.9,blue,229,TRUE
730,1660108952.505,821,3200,750,1.011,1.302,0.865,95.4,red,229,TRUE
731,1660108953.943,2722,-885,3350,2.487,-1.454,0.014,93.7,blue,229,TRUE
732,1660108954.036,865,3194,750,0.988,1.338,0.571,92.6,red,229,TRUE
733,1660108954.449,2717,-881,3350,2.5,-1.454,0.016,96.2,blue,229,TRUE
734,1660108954.545,801,3092,750,0.365,1.295,1.139,93.7,red,229,TRUE
735,1660108954.639,3572,-2652,882,4.724,-1.017,-0.041,95.4,yellow,229,TRUE
736,1660108954.941,2706,-868,3350,2.51,-1.469,0.025,100.2,blue,229,TRUE
737,1660108955.042,739,3115,750,0.01,1.177,1.576,90.4,red,229,TRUE
738,1660108955.132,3561,-2657,882,4.719,-1.012,-0.085,93.8,yellow,229,TRUE
739,1660108955.488,2709,-868,3350,2.496,-1.47,0.031,93.9,blue,229,TRUE
740,1660108955.581,712,3128,750,0.016,1.173,1.664,99.7,red,229,TRUE
741,1660108955.689,3564,-2667,882,4.586,-0.98,-0.284,98.7,yellow,229,TRUE
742,1660108957.051,718,3081,750,6.272,1.218,1.665,93.7,red,229,TRUE
743,1660108958.324,2957,-2803,2526,5.521,-0.533,0.312,95.4,green,229,TRUE
744,1660108958.751,798,3028,750,2.865,1.388,0.782,96.4,red,229,TRUE
745,1660108959.984,2928,-2783,2526,5.52,-0.53,0.322,88.8,green,229,TRUE
746,1660108960.276,2601,-639,3350,2.373,-1.539,0.031,105.7,blue,229,TRUE
747,1660108963.055,1141,3147,750,2.697,1.36,1.252,93.4,red,229,TRUE
748,1660108963.164,3619,-2680,882,4.6,-0.971,-0.339,94.0,yellow,229,TRUE
749,1660108964.585,2668,-273,3350,5.762,-1.462,-3.131,99.7,blue,229,TRUE
750,1660108964.685,1317,3311,750,2.821,1.322,1.064,93.8,red,229,TRUE
751,1660108967.363,1526,3538,750,2.632,1.33,0.903,99.3,red,229,TRUE
752,1660108968.846,3144,151,3350,6.117,-1.216,2.861,95.0,blue,229,TRUE
753,1660108968.958,1767,3743,750,2.56,1.341,0.846,98.5,red,229,TRUE
754,1660108971.56,1948,3968,750,2.747,1.343,0.684,94.0,red,229,TRUE
755,1660108973.108,2131,4180,750,2.832,1.353,0.61,78.1,red,229,TRUE
756,1660108973.412,3913,810,3350,5.708,-1.138,3.087,93.6,blue,229,TRUE
757,1660108973.506,2423,4496,750,2.793,1.35,0.619,95.3,red,229,TRUE
758,1660108973.818,2705,4684,750,2.734,1.357,0.64,96.3,red,229,TRUE
759,1660108974.061,4441,1138,3350,5.701,-1.124,3.081,93.7,blue,229,TRUE
760,1660108974.17,2951,4890,750,2.644,1.346,0.699,94.2,red,229,TRUE
761,1660108974.373,4781,1199,3350,5.675,-1.129,3.097,93.9,blue,229,TRUE
762,1660108974.483,3169,5146,750,2.627,1.34,0.683,97.8,red,229,TRUE
763,1660108974.612,3634,-2675,882,4.607,-0.902,-0.182,93.6,yellow,229,TRUE
764,1660108974.913,5108,1359,3350,5.582,-1.115,-3.091,93.6,blue,229,TRUE
765,1660108975.006,3310,5416,750,2.63,1.335,0.738,93.7,red,229,TRUE
766,1660108975.1,3651,-2669,882,4.608,-0.882,-0.17,97.1,yellow,229,TRUE
767,1660108975.322,5384,1578,3350,5.562,-1.139,-3.084,93.6,blue,229,TRUE
768,1660108975.416,3375,5676,750,2.628,1.333,0.732,85.4,red,229,TRUE
769,1660108976.854,5645,1660,3350,5.631,-1.272,3.089,93.7,blue,229,TRUE
770,1660108976.948,3401,5746,750,2.765,1.321,0.574,99.5,red,229,TRUE
771,1660108977.047,3655,-2669,882,4.605,-0.884,-0.217,109.7,yellow,229,TRUE
772,1660108977.293,5815,1670,3350,5.721,-1.264,3.0,86.8,blue,229,TRUE
773,1660108977.38,3417,5825,750,2.883,1.314,0.476,93.6,red,229,TRUE
774,1660108978.851,5851,1688,3350,5.45,-1.349,-3.028,94.0,blue,229,TRUE
775,1660108978.945,3419,5834,750,2.844,1.374,0.77,97.8,red,229,TRUE
776,1660108980.506,3423,5861,750,3.476,1.297,0.759,93.7,red,229,TRUE
777,1660108981.895,5901,1774,3350,5.88,-1.402,-2.989,89.2,blue,229,TRUE
778,1660108981.987,3450,5905,750,3.127,1.292,0.726,82.4,red,229,TRUE
779,1660108983.38,5894,1686,3350,5.894,-1.308,-3.074,94.0,blue,229,TRUE
780,1660108983.475,3442,5959,750,5.129,1.4,1.092,93.8,red,229,TRUE
781,1660108983.569,3677,-2672,882,4.605,-0.831,-0.123,93.7,yellow,229,TRUE
782,1660108983.872,3439,6002,750,4.936,1.33,1.359,78.1,red,229,TRUE
783,1660108983.95,3698,-2674,882,4.602,-0.824,-0.12,98.9,yellow,229,TRUE
784,1660108984.172,5882,1758,3350,5.931,-1.43,3.041,93.6,blue,229,TRUE
785,1660108984.281,3462,6029,750,4.778,1.344,0.705,98.2,red,229,TRUE
786,1660108985.472,2928,-2769,2526,5.555,-0.289,0.233,93.7,green,229,TRUE
787,1660108985.721,5885,1815,3350,5.754,-1.21,-3.1,93.5,blue,229,TRUE
788,1660108985.83,3478,5937,750,5.495,1.347,0.542,98.2,red,229,TRUE
789,1660108985.93,3765,-2690,882,4.596,-0.824,-0.127,90.0,yellow,229,TRUE
790,1660108987.505,5866,1886,3350,5.668,-1.2,-2.999,93.6,blue,229,TRUE
791,1660108991.308,3337,5495,750,2.865,1.388,0.461,93.5,red,229,TRUE
792,1660108993.815,5744,1737,3350,3.869,-1.422,-3.087,93.7,blue,229,TRUE
793,1660108993.909,3193,5382,750,1.119,1.298,0.514,99.8,red,229,TRUE
794,1660108994.008,3869,-2714,882,4.55,-0.842,-0.224,101.9,yellow,229,TRUE
795,1660108994.157,2910,-2766,2526,5.521,-0.265,0.307,99.5,green,229,TRUE
796,1660108994.59,3012,5264,750,1.589,1.311,0.374,95.1,red,229,TRUE
797,1660108995.825,2905,-2773,2526,5.564,-0.217,0.217,79.1,green,229,TRUE
798,1660108997.147,5324,1859,3350,5.186,-1.529,-0.032,77.8,blue,229,TRUE
799,1660108997.224,2866,5138,750,2.118,1.331,0.808,94.0,red,229,TRUE
800,1660108997.318,3813,-2707,882,4.685,-0.825,-0.148,97.2,yellow,229,TRUE
801,1660108997.749,5040,2136,3350,4.986,-1.537,3.12,93.8,blue,229,TRUE
802,1660108997.958,3808,-2708,882,4.787,-0.524,0.151,92.4,yellow,229,TRUE
803,1660108998.05,2871,-2783,2526,5.56,-0.148,0.217,93.5,green,229,TRUE
804,1660108998.327,4684,2404,3350,4.49,-1.456,3.074,95.4,blue,229,TRUE
805,1660108998.423,2517,4967,750,2.172,1.319,0.7,93.8,red,229,TRUE
806,1660108998.532,3805,-2712,882,4.79,-0.467,0.183,107.0,yellow,229,TRUE
807,1660108998.639,2872,-2791,2526,5.555,-0.168,0.196,109.6,green,229,TRUE
808,1660108998.954,4347,2715,3350,2.917,-1.465,-3.057,93.7,blue,229,TRUE
809,1660108999.048,2300,4863,750,2.122,1.342,0.736,94.0,red,229,TRUE
810,1660108999.142,3739,-2698,882,4.783,-0.456,0.215,101.8,yellow,229,TRUE
811,1660108999.244,2852,-2801,2526,5.559,-0.172,0.194,78.1,green,229,TRUE
812,1660108999.543,4014,3037,3350,2.571,-1.505,-3.105,93.6,blue,229,TRUE
813,1660108999.636,2112,4713,750,2.093,1.335,0.782,109.3,red,229,TRUE
814,1660108999.746,3722,-2702,882,4.783,-0.434,0.23,92.6,yellow,229,TRUE
815,1660108999.838,2845,-2809,2526,5.562,-0.183,0.19,93.9,green,229,TRUE
816,1660109001.094,3663,3253,3350,4.313,-1.491,3.1,93.5,blue,229,TRUE
817,1660109001.188,1957,4587,750,2.401,1.304,0.742,93.8,red,229,TRUE
818,1660109001.282,3698,-2712,882,4.777,-0.427,0.225,103.8,yellow,229,TRUE
819,1660109002.727,3339,3509,3350,4.116,-1.493,3.118,93.7,blue,229,TRUE
820,1660109002.821,1742,4477,750,2.465,1.308,0.852,98.4,red,229,TRUE
821,1660109004.58,3657,-2698,882,4.772,-0.398,0.231,93.7,yellow,229,TRUE
822,1660109006.137,1500,4587,750,2.465,1.298,0.824,93.9,red,229,TRUE
823,1660109006.618,2351,4168,3350,4.04,-1.565,-3.139,93.6,blue,229,TRUE
824,1660109006.727,1391,4726,750,2.47,1.299,0.798,93.7,red,229,TRUE
825,1660109006.821,3581,-2670,882,4.77,-0.393,0.229,97.1,yellow,229,TRUE
826,1660109007.121,2105,4453,3350,4.022,-1.563,-0.007,104.5,blue,229,TRUE
827,1660109007.351,3531,-2668,882,4.77,-0.391,0.229,91.8,yellow,229,TRUE
828,1660109007.646,1974,4770,3350,4.087,-1.514,3.135,94.0,blue,229,TRUE
829,1660109007.756,1421,4760,750,2.494,1.296,0.789,87.6,red,229,TRUE
830,1660109007.843,3490,-2657,882,4.767,-0.396,0.228,93.8,yellow,229,TRUE
831,1660109008.188,1917,4802,3350,4.1,-1.494,3.13,93.7,blue,229,TRUE
832,1660109008.282,1392,4747,750,2.505,1.292,0.77,109.5,red,229,TRUE
833,1660109008.391,3537,-2668,882,4.761,-0.404,0.227,94.2,yellow,229,TRUE
834,1660109008.704,1887,4750,3350,4.218,-1.516,3.115,91.5,blue,229,TRUE
835,1660109008.795,1458,4719,750,2.487,1.29,0.781,93.8,red,229,TRUE
836,1660109008.889,3545,-2667,882,4.761,-0.395,0.229,93.7,yellow,229,TRUE
837,1660109009.181,1941,4696,3350,4.16,-1.54,3.124,93.7,blue,229,TRUE
838,1660109009.418,3555,-2666,882,4.763,-0.392,0.232,90.2,yellow,229,TRUE
839,1660109009.782,1927,4634,3350,4.069,-1.551,3.133,93.8,blue,229,TRUE
840,1660109009.876,1484,4677,750,2.467,1.293,0.829,95.3,red,229,TRUE
841,1660109009.973,3561,-2670,882,4.763,-0.391,0.235,104.8,yellow,229,TRUE
842,1660109010.301,1929,4625,3350,4.085,-1.547,3.133,82.7,blue,229,TRUE
