,timestamp,x,y,z,yaw,roll,pitch,latency,student,session,success
0,1660173399.234,1762,-1634,3350,6.129,-1.057,-0.213,96.9,blue,231,TRUE
1,1660173399.331,1814,-2634,750,4.905,-1.432,0.619,93.8,red,231,TRUE
2,1660173399.55,-1165,4620,2526,3.398,0.02,0.022,81.1,green,231,TRUE
3,1660173399.726,1789,-1623,3350,5.428,-1.06,-0.199,94.0,blue,231,TRUE
4,1660173400.989,-1236,4236,882,5.145,0.055,-0.012,94.6,yellow,231,TRUE
5,1660173401.084,-1154,4633,2526,3.398,0.02,0.022,93.0,green,231,TRUE
6,1660173401.349,1711,-1625,3350,5.366,-1.09,-0.149,107.8,blue,231,TRUE
7,1660173401.456,1814,-2634,750,5.161,-1.417,1.045,94.0,red,231,TRUE
8,1660173401.55,-1237,4236,882,5.145,0.055,-0.012,77.9,yellow,231,TRUE
9,1660173401.628,-1151,4635,2526,3.398,0.02,0.022,98.4,green,231,TRUE
10,1660173401.832,1627,-1611,3350,4.584,-1.049,-0.207,78.1,blue,231,TRUE
11,1660173401.925,1784,-2631,750,5.251,-1.46,0.036,78.4,red,231,TRUE
12,1660173402.019,-1238,4236,882,5.145,0.055,-0.012,82.5,yellow,231,TRUE
13,1660173402.101,-1144,4636,2526,3.398,0.02,0.022,77.8,green,231,TRUE
14,1660173402.288,1559,-1597,3350,4.418,-1.096,-0.185,86.5,blue,231,TRUE
15,1660173402.375,1783,-2602,750,5.367,-1.424,0.071,93.8,red,231,TRUE
16,1660173402.484,-1242,4237,882,5.145,0.055,-0.012,94.1,yellow,231,TRUE
17,1660173402.578,-1155,4617,2526,3.398,0.02,0.022,96.5,green,231,TRUE
18,1660173402.832,1469,-1545,3350,5.336,-1.22,-0.608,97.8,blue,231,TRUE
19,1660173402.94,1741,-2505,750,5.527,-1.416,0.779,86.3,red,231,TRUE
20,1660173403.042,-1244,4236,882,5.145,0.055,-0.012,93.7,yellow,231,TRUE
21,1660173403.136,-1159,4609,2526,3.398,0.02,0.022,99.6,green,231,TRUE
22,1660173403.329,1436,-1451,3350,5.82,-1.148,-0.221,93.6,blue,231,TRUE
23,1660173403.438,1705,-2386,750,5.439,-1.412,0.504,96.5,red,231,TRUE
24,1660173403.535,-1246,4235,882,5.145,0.055,-0.012,82.0,yellow,231,TRUE
25,1660173403.617,-1157,4607,2526,3.398,0.02,0.022,93.7,green,231,TRUE
26,1660173403.803,1425,-1313,3350,5.645,-1.076,-0.193,96.1,blue,231,TRUE
27,1660173403.915,1652,-2249,750,5.409,-1.432,-0.135,94.0,red,231,TRUE
28,1660173404.025,-1246,4235,882,5.145,0.055,-0.012,77.9,yellow,231,TRUE
29,1660173404.102,-1155,4614,2526,3.398,0.02,0.022,83.6,green,231,TRUE
30,1660173404.457,1603,-2085,750,5.498,-1.406,0.11,85.4,red,231,TRUE
31,1660173404.558,-1242,4236,882,5.145,0.055,-0.012,78.2,yellow,231,TRUE
32,1660173404.637,-1163,4611,2526,3.398,0.02,0.022,93.4,green,231,TRUE
33,1660173404.831,1459,-930,3350,3.947,-1.104,-0.135,97.2,blue,231,TRUE
34,1660173404.944,1568,-1884,750,5.813,-1.388,0.103,93.6,red,231,TRUE
35,1660173405.053,-1244,4234,882,5.145,0.055,-0.012,93.8,yellow,231,TRUE
36,1660173405.147,-1173,4598,2526,3.398,0.02,0.022,93.5,green,231,TRUE
37,1660173405.35,1484,-717,3350,3.746,-1.118,-0.051,91.9,blue,231,TRUE
38,1660173405.457,1555,-1632,750,5.98,-1.418,-0.18,93.7,red,231,TRUE
39,1660173405.551,-1241,4240,882,5.145,0.055,-0.012,93.7,yellow,231,TRUE
40,1660173405.645,-1190,4576,2526,3.398,0.02,0.022,89.9,green,231,TRUE
41,1660173405.893,1485,-537,3350,3.557,-1.04,0.165,93.7,blue,231,TRUE
42,1660173406.002,1543,-1376,750,6.007,-1.407,0.377,92.3,red,231,TRUE
43,1660173406.095,-1236,4244,882,5.145,0.055,-0.012,93.7,yellow,231,TRUE
44,1660173406.188,-1177,4577,2526,3.398,0.02,0.022,78.1,green,231,TRUE
45,1660173406.37,1528,-326,3350,3.443,-1.021,-0.053,109.3,blue,231,TRUE
46,1660173406.495,1498,-1092,750,5.705,-1.417,0.035,95.1,red,231,TRUE
47,1660173406.606,-1228,4237,882,5.145,0.055,-0.012,75.2,yellow,231,TRUE
48,1660173406.681,-1177,4577,2526,3.398,0.02,0.022,78.4,green,231,TRUE
49,1660173406.853,1589,-128,3350,3.686,-1.057,-0.088,105.1,blue,231,TRUE
50,1660173406.974,1468,-747,750,5.696,-1.343,0.084,94.0,red,231,TRUE
51,1660173407.084,-1228,4238,882,5.145,0.055,-0.012,78.2,yellow,231,TRUE
52,1660173407.162,-1195,4558,2526,3.398,0.02,0.022,83.0,green,231,TRUE
53,1660173407.477,1684,34,3350,3.995,-1.06,-0.005,98.9,blue,231,TRUE
54,1660173407.576,1470,-374,750,5.905,-1.426,0.512,96.9,red,231,TRUE
55,1660173407.673,-1220,4240,882,5.145,0.055,-0.012,93.6,yellow,231,TRUE
56,1660173407.767,-1220,4526,2526,3.398,0.02,0.022,95.3,green,231,TRUE
57,1660173409.035,1771,195,3350,3.707,-1.106,-0.089,96.9,blue,231,TRUE
58,1660173409.132,1537,-17,750,1.281,-1.482,0.079,83.2,red,231,TRUE
59,1660173409.325,-1210,4524,2526,3.398,0.02,0.022,80.7,green,231,TRUE
60,1660173409.61,1838,343,3350,3.643,-1.105,-0.103,95.0,blue,231,TRUE
61,1660173409.706,1599,305,750,1.314,-1.496,0.053,92.7,red,231,TRUE
62,1660173409.799,-1213,4237,882,5.145,0.055,-0.012,93.7,yellow,231,TRUE
63,1660173409.893,-1226,4515,2526,3.398,0.02,0.022,98.9,green,231,TRUE
64,1660173410.182,1940,473,3350,3.793,-1.082,-0.069,95.4,blue,231,TRUE
65,1660173410.277,1693,597,750,1.403,-1.48,0.06,87.0,red,231,TRUE
66,1660173410.379,-1211,4238,882,5.145,0.055,-0.012,93.8,yellow,231,TRUE
67,1660173410.473,-1226,4515,2526,3.398,0.02,0.022,78.3,green,231,TRUE
68,1660173410.76,1985,565,3350,4.39,-1.203,0.021,89.1,blue,231,TRUE
69,1660173410.849,1800,848,750,1.253,-1.464,0.079,106.7,red,231,TRUE
70,1660173411.065,-1221,4526,2526,3.398,0.02,0.022,93.7,green,231,TRUE
71,1660173411.361,2016,605,3350,4.745,-1.097,-0.021,93.7,blue,231,TRUE
72,1660173411.569,-1264,4137,882,5.145,0.055,-0.012,78.4,yellow,231,TRUE
73,1660173411.648,-1225,4521,2526,3.398,0.02,0.022,93.8,green,231,TRUE
74,1660173412.904,2061,678,3350,5.715,-1.042,-0.196,93.8,blue,231,TRUE
75,1660173412.998,1958,1294,750,5.758,-1.502,0.05,98.9,red,231,TRUE
76,1660173413.114,-1263,4136,882,5.145,0.055,-0.012,78.4,yellow,231,TRUE
77,1660173414.657,2075,1650,750,5.229,-1.449,0.279,93.9,red,231,TRUE
78,1660173414.751,-1261,4138,882,5.145,0.055,-0.012,93.7,yellow,231,TRUE
79,1660173414.845,-1244,4503,2526,3.398,0.02,0.022,96.6,green,231,TRUE
80,1660173416.212,2302,1161,3350,5.093,-1.017,-0.062,93.8,blue,231,TRUE
81,1660173416.306,2161,2008,750,5.721,-1.448,0.424,93.6,red,231,TRUE
82,1660173416.415,-1267,4137,882,5.145,0.055,-0.012,96.8,yellow,231,TRUE
83,1660173416.527,-1251,4491,2526,3.398,0.02,0.022,78.3,green,231,TRUE
84,1660173416.781,2409,1507,3350,5.14,-1.011,-0.047,82.6,blue,231,TRUE
85,1660173416.863,2229,2385,750,5.496,-1.496,0.06,93.8,red,231,TRUE
86,1660173417.089,-1255,4485,2526,3.398,0.02,0.022,88.5,green,231,TRUE
87,1660173417.401,2312,2700,750,4.85,-1.494,-0.029,89.1,red,231,TRUE
88,1660173417.616,-1244,4501,2526,3.398,0.02,0.022,78.0,green,231,TRUE
89,1660173417.796,2589,2098,3350,4.775,-1.083,-0.062,99.3,blue,231,TRUE
90,1660173417.896,2373,2953,750,4.718,-1.32,0.385,99.2,red,231,TRUE
91,1660173417.995,-1268,4137,882,5.145,0.055,-0.012,86.4,yellow,231,TRUE
92,1660173418.097,-1232,4514,2526,3.398,0.02,0.022,78.1,green,231,TRUE
93,1660173418.346,2700,2425,3350,4.304,-1.038,0.069,81.9,blue,231,TRUE
94,1660173418.428,2441,3180,750,4.929,-1.455,0.11,93.7,red,231,TRUE
95,1660173418.522,-1263,4138,882,5.145,0.055,-0.012,93.8,yellow,231,TRUE
96,1660173418.616,-1259,4491,2526,3.398,0.02,0.022,84.3,green,231,TRUE
97,1660173418.809,2824,2731,3350,4.091,-1.188,-0.115,94.9,blue,231,TRUE
98,1660173419.979,-1262,4137,882,5.145,0.055,-0.012,93.7,yellow,231,TRUE
99,1660173420.072,-1243,4510,2526,3.398,0.02,0.022,98.2,green,231,TRUE
100,1660173420.295,2914,3077,3350,3.094,-1.181,-0.015,93.7,blue,231,TRUE
101,1660173420.389,2890,4024,750,0.077,-1.26,1.067,81.1,red,231,TRUE
102,1660173420.473,-1265,4137,882,5.145,0.055,-0.012,81.4,yellow,231,TRUE
103,1660173420.788,3004,3373,3350,3.021,-1.225,-0.271,80.8,blue,231,TRUE
104,1660173420.869,2890,4024,750,0.076,-1.287,0.77,78.3,red,231,TRUE
105,1660173420.947,-1265,4143,882,5.145,0.055,-0.012,93.7,yellow,231,TRUE
106,1660173421.267,3092,3647,3350,3.241,-1.232,-0.147,93.5,blue,231,TRUE
107,1660173421.36,3049,3896,750,0.005,-1.288,0.6,84.8,red,231,TRUE
108,1660173421.445,-1261,4146,882,5.145,0.055,-0.012,93.8,yellow,231,TRUE
109,1660173421.9,3167,3936,3350,3.483,-1.184,-0.058,93.9,blue,231,TRUE
110,1660173421.994,3019,3846,750,0.192,-1.324,0.899,89.8,red,231,TRUE
111,1660173422.225,-1234,4532,2526,3.398,0.02,0.022,94.8,green,231,TRUE
112,1660173422.733,-1213,4261,882,5.145,0.055,-0.012,93.7,yellow,231,TRUE
113,1660173422.843,-1245,4519,2526,3.398,0.02,0.022,79.1,green,231,TRUE
114,1660173423.107,3234,4280,3350,3.334,-1.115,-0.087,93.8,blue,231,TRUE
115,1660173423.2,2921,3787,750,6.24,-1.384,1.198,102.4,red,231,TRUE
116,1660173423.303,-1209,4262,882,5.145,0.055,-0.012,93.9,yellow,231,TRUE
117,1660173423.397,-1251,4512,2526,3.398,0.02,0.022,79.6,green,231,TRUE
118,1660173423.65,3187,4292,3350,3.296,-1.144,-0.165,93.7,blue,231,TRUE
119,1660173423.759,2891,3679,750,6.27,-1.381,1.252,100.8,red,231,TRUE
120,1660173423.869,-1214,4264,882,5.145,0.055,-0.012,83.8,yellow,231,TRUE
121,1660173423.953,-1244,4520,2526,3.398,0.02,0.022,82.7,green,231,TRUE
122,1660173425.189,3191,4265,3350,3.614,-1.098,-0.039,94.0,blue,231,TRUE
123,1660173425.283,2894,3664,750,0.029,-1.37,0.963,95.2,red,231,TRUE
124,1660173425.385,-1248,4238,882,5.145,0.055,-0.012,87.1,yellow,231,TRUE
125,1660173425.472,-1238,4520,2526,3.398,0.02,0.022,78.0,green,231,TRUE
126,1660173425.761,3216,4283,3350,3.587,-1.079,-0.031,93.7,blue,231,TRUE
127,1660173425.87,2878,3647,750,6.267,-1.345,0.954,94.1,red,231,TRUE
128,1660173425.964,-1246,4239,882,5.145,0.055,-0.012,87.5,yellow,231,TRUE
129,1660173426.051,-1235,4528,2526,3.398,0.02,0.022,93.9,green,231,TRUE
130,1660173426.334,3163,4239,3350,3.535,-1.1,-0.045,92.2,blue,231,TRUE
131,1660173426.426,2876,3658,750,0.25,-1.293,0.999,93.7,red,231,TRUE
132,1660173426.52,-1248,4239,882,5.145,0.055,-0.012,96.0,yellow,231,TRUE
133,1660173426.617,-1252,4505,2526,3.398,0.02,0.022,77.9,green,231,TRUE
134,1660173427.902,3100,4206,3350,3.466,-1.1,-0.089,93.8,blue,231,TRUE
135,1660173427.996,2877,3650,750,0.163,-1.334,0.913,93.8,red,231,TRUE
136,1660173428.105,-1249,4241,882,5.145,0.055,-0.012,88.9,yellow,231,TRUE
137,1660173428.194,-1254,4502,2526,3.398,0.02,0.022,93.7,green,231,TRUE
138,1660173429.51,3079,4187,3350,3.401,-1.068,-0.085,94.0,blue,231,TRUE
139,1660173429.726,-1250,4239,882,5.145,0.055,-0.012,91.5,yellow,231,TRUE
140,1660173429.819,-1222,4528,2526,3.398,0.02,0.022,75.9,green,231,TRUE
141,1660173431.084,3069,4170,3350,3.463,-1.09,-0.083,95.4,blue,231,TRUE
142,1660173431.179,2810,3567,750,6.253,-1.368,0.815,98.0,red,231,TRUE
143,1660173431.288,-1254,4239,882,5.145,0.055,-0.012,94.0,yellow,231,TRUE
144,1660173431.665,3047,4162,3350,3.437,-1.068,-0.085,93.7,blue,231,TRUE
145,1660173431.886,-1254,4233,882,5.145,0.055,-0.012,81.4,yellow,231,TRUE
146,1660173431.983,-1232,4514,2526,3.398,0.02,0.022,84.1,green,231,TRUE
147,1660173432.174,3041,4154,3350,3.476,-1.065,-0.079,85.3,blue,231,TRUE
148,1660173432.26,2762,3495,750,0.158,-1.345,1.128,93.8,red,231,TRUE
149,1660173432.353,-1257,4232,882,5.145,0.055,-0.012,78.0,yellow,231,TRUE
150,1660173432.432,-1229,4522,2526,3.398,0.02,0.022,85.9,green,231,TRUE
151,1660173432.611,3033,4134,3350,3.466,-1.074,-0.079,93.9,blue,231,TRUE
152,1660173432.832,-1258,4221,882,5.145,0.055,-0.012,93.7,yellow,231,TRUE
153,1660173432.941,-1222,4522,2526,3.398,0.02,0.022,78.2,green,231,TRUE
154,1660173433.186,3033,4095,3350,3.474,-1.088,-0.083,93.9,blue,231,TRUE
155,1660173433.406,-1259,4221,882,5.145,0.055,-0.012,79.4,yellow,231,TRUE
156,1660173433.485,-1208,4534,2526,3.398,0.02,0.022,78.4,green,231,TRUE
157,1660173433.657,3043,4083,3350,3.483,-1.071,-0.075,94.7,blue,231,TRUE
158,1660173433.752,2696,3289,750,6.224,-1.357,0.749,95.1,red,231,TRUE
159,1660173433.862,-1252,4228,882,5.145,0.055,-0.012,94.0,yellow,231,TRUE
160,1660173433.956,-1199,4556,2526,3.398,0.02,0.022,88.1,green,231,TRUE
161,1660173434.249,2685,3324,750,6.276,-1.352,0.745,108.5,red,231,TRUE
162,1660173434.357,-1250,4225,882,5.145,0.055,-0.012,93.5,yellow,231,TRUE
163,1660173434.451,-1191,4567,2526,3.398,0.02,0.022,94.0,green,231,TRUE
164,1660173434.7,3019,4074,3350,3.483,-1.054,-0.074,94.0,blue,231,TRUE
165,1660173434.794,2689,3339,750,0.014,-1.36,0.784,93.5,red,231,TRUE
166,1660173434.888,-1220,4251,882,5.145,0.055,-0.012,88.5,yellow,231,TRUE
167,1660173434.992,-1198,4565,2526,3.398,0.02,0.022,78.2,green,231,TRUE
168,1660173435.278,2690,3360,750,0.017,-1.361,0.777,93.7,red,231,TRUE
169,1660173435.372,-1217,4249,882,5.145,0.055,-0.012,93.7,yellow,231,TRUE
170,1660173435.466,-1190,4564,2526,3.398,0.02,0.022,83.0,green,231,TRUE
171,1660173435.647,2971,4073,3350,3.496,-1.079,-0.072,93.7,blue,231,TRUE
172,1660173435.741,2681,3369,750,0.011,-1.364,0.766,99.4,red,231,TRUE
173,1660173435.842,-1217,4250,882,5.145,0.055,-0.012,88.7,yellow,231,TRUE
174,1660173435.946,-1178,4584,2526,3.398,0.02,0.022,77.9,green,231,TRUE
175,1660173436.188,2972,4121,3350,3.494,-1.056,-0.071,93.6,blue,231,TRUE
176,1660173436.282,2675,3389,750,0.039,-1.355,0.761,93.9,red,231,TRUE
177,1660173436.487,-1168,4600,2526,3.398,0.02,0.022,79.3,green,231,TRUE
178,1660173436.661,2967,4154,3350,3.509,-1.049,-0.07,94.0,blue,231,TRUE
179,1660173436.755,2725,3502,750,0.033,-1.355,0.754,87.2,red,231,TRUE
180,1660173436.842,-1223,4248,882,5.145,0.055,-0.012,94.0,yellow,231,TRUE
181,1660173436.952,-1203,4575,2526,3.398,0.02,0.022,93.7,green,231,TRUE
182,1660173437.156,2953,4171,3350,3.49,-1.034,-0.071,93.7,blue,231,TRUE
183,1660173437.25,2720,3516,750,0.041,-1.353,0.744,93.4,red,231,TRUE
184,1660173437.343,-1254,4222,882,5.145,0.055,-0.012,91.2,yellow,231,TRUE
185,1660173437.435,-1201,4574,2526,3.398,0.02,0.022,93.7,green,231,TRUE
186,1660173437.685,2961,4175,3350,3.481,-1.034,-0.081,97.8,blue,231,TRUE
187,1660173437.892,-1261,4226,882,5.145,0.055,-0.012,95.0,yellow,231,TRUE
188,1660173438.003,-1218,4555,2526,3.398,0.02,0.022,81.5,green,231,TRUE
189,1660173438.194,2947,4191,3350,3.478,-1.046,-0.087,93.6,blue,231,TRUE
190,1660173438.439,-1263,4223,882,5.145,0.055,-0.012,93.8,yellow,231,TRUE
191,1660173438.533,-1218,4556,2526,3.398,0.02,0.022,79.2,green,231,TRUE
192,1660173438.706,2946,4181,3350,3.484,-1.071,-0.082,94.0,blue,231,TRUE
193,1660173438.925,-1298,4197,882,5.145,0.055,-0.012,102.3,yellow,231,TRUE
194,1660173439.043,-1221,4553,2526,3.398,0.02,0.022,78.1,green,231,TRUE
195,1660173439.297,2965,4216,3350,3.558,-1.069,-0.014,93.7,blue,231,TRUE
196,1660173439.532,-1298,4196,882,5.145,0.055,-0.012,87.0,yellow,231,TRUE
197,1660173439.619,-1235,4539,2526,3.398,0.02,0.022,78.3,green,231,TRUE
198,1660173439.791,2976,4243,3350,3.569,-1.066,-0.021,113.5,blue,231,TRUE
199,1660173439.904,2687,3690,750,0.04,-1.35,0.71,93.8,red,231,TRUE
200,1660173440.013,-1305,4189,882,5.145,0.055,-0.012,92.6,yellow,231,TRUE
201,1660173440.106,-1255,4505,2526,3.398,0.02,0.022,97.6,green,231,TRUE
202,1660173440.297,3006,4272,3350,3.521,-1.059,-0.038,93.6,blue,231,TRUE
203,1660173440.391,2708,3692,750,6.278,-1.361,0.696,97.7,red,231,TRUE
204,1660173440.49,-1308,4190,882,5.145,0.055,-0.012,94.3,yellow,231,TRUE
205,1660173440.584,-1281,4471,2526,3.398,0.02,0.022,79.5,green,231,TRUE
206,1660173440.831,2998,4282,3350,3.508,-1.059,-0.081,93.7,blue,231,TRUE
207,1660173441.05,-1307,4190,882,5.145,0.055,-0.012,91.8,yellow,231,TRUE
208,1660173441.157,-1268,4484,2526,3.398,0.02,0.022,78.2,green,231,TRUE
209,1660173441.329,3051,4314,3350,3.507,-1.046,-0.08,104.9,blue,231,TRUE
210,1660173441.434,2706,3697,750,0.072,-1.37,0.784,94.0,red,231,TRUE
211,1660173441.528,-1309,4191,882,5.145,0.055,-0.012,93.7,yellow,231,TRUE
212,1660173441.824,3065,4293,3350,3.505,-1.045,-0.081,93.8,blue,231,TRUE
213,1660173441.918,2727,3685,750,0.131,-1.358,0.749,99.4,red,231,TRUE
214,1660173442.027,-1321,4196,882,5.145,0.055,-0.012,72.2,yellow,231,TRUE
215,1660173442.099,-1292,4461,2526,3.398,0.02,0.022,93.8,green,231,TRUE
216,1660173442.352,3094,4270,3350,3.507,-1.044,-0.08,94.0,blue,231,TRUE
217,1660173442.446,2739,3674,750,0.075,-1.359,0.726,93.5,red,231,TRUE
218,1660173442.54,-1318,4198,882,5.145,0.055,-0.012,96.5,yellow,231,TRUE
219,1660173442.64,-1286,4465,2526,3.398,0.02,0.022,80.2,green,231,TRUE
220,1660173442.814,3094,4230,3350,3.508,-1.058,-0.077,93.6,blue,231,TRUE
221,1660173442.908,2754,3654,750,6.268,-1.353,0.671,96.8,red,231,TRUE
222,1660173443.02,-1314,4199,882,5.145,0.055,-0.012,93.8,yellow,231,TRUE
223,1660173443.129,-1313,4432,2526,3.398,0.02,0.022,78.4,green,231,TRUE
224,1660173443.296,3122,4200,3350,3.503,-1.066,-0.082,93.7,blue,231,TRUE
225,1660173443.39,2766,3632,750,0.007,-1.353,0.693,95.0,red,231,TRUE
226,1660173443.485,-1315,4201,882,5.145,0.055,-0.012,95.7,yellow,231,TRUE
227,1660173443.58,-1299,4451,2526,3.398,0.02,0.022,78.6,green,231,TRUE
228,1660173443.832,3134,4206,3350,3.509,-1.053,-0.084,85.8,blue,231,TRUE
229,1660173444.043,-1311,4200,882,5.145,0.055,-0.012,93.7,yellow,231,TRUE
230,1660173444.137,-1296,4449,2526,3.398,0.02,0.022,96.2,green,231,TRUE
231,1660173444.326,3142,4178,3350,3.51,-1.055,-0.084,94.0,blue,231,TRUE
232,1660173444.42,2822,3539,750,0.069,-1.367,0.826,93.8,red,231,TRUE
233,1660173444.637,-1289,4453,2526,3.398,0.02,0.022,78.0,green,231,TRUE
234,1660173444.828,3161,4168,3350,3.508,-1.05,-0.083,94.9,blue,231,TRUE
235,1660173444.923,2824,3564,750,0.063,-1.358,0.71,93.7,red,231,TRUE
236,1660173445.017,-1310,4201,882,5.145,0.055,-0.012,93.7,yellow,231,TRUE
237,1660173445.126,-1296,4446,2526,3.398,0.02,0.022,84.2,green,231,TRUE
238,1660173445.381,3151,4126,3350,3.508,-1.056,-0.089,93.4,blue,231,TRUE
239,1660173445.475,2891,3631,750,0.05,-1.346,0.671,93.6,red,231,TRUE
240,1660173445.569,-1275,4227,882,5.145,0.055,-0.012,93.5,yellow,231,TRUE
241,1660173445.662,-1308,4438,2526,3.398,0.02,0.022,96.4,green,231,TRUE
242,1660173445.973,2900,3658,750,0.027,-1.342,0.612,98.6,red,231,TRUE
243,1660173446.094,-1275,4228,882,5.145,0.055,-0.012,95.4,yellow,231,TRUE
244,1660173446.189,-1288,4462,2526,3.398,0.02,0.022,93.8,green,231,TRUE
245,1660173446.39,3113,4063,3350,3.504,-1.08,-0.088,97.6,blue,231,TRUE
246,1660173446.487,2897,3678,750,6.259,-1.354,0.595,93.5,red,231,TRUE
247,1660173446.581,-1275,4231,882,5.145,0.055,-0.012,78.3,yellow,231,TRUE
248,1660173446.659,-1269,4497,2526,3.398,0.02,0.022,90.6,green,231,TRUE
249,1660173446.908,3122,4034,3350,3.497,-1.073,-0.087,94.9,blue,231,TRUE
250,1660173447.006,2903,3662,750,6.277,-1.368,0.662,82.4,red,231,TRUE
251,1660173447.088,-1270,4232,882,5.145,0.055,-0.012,78.1,yellow,231,TRUE
252,1660173447.182,-1244,4528,2526,3.398,0.02,0.022,78.1,green,231,TRUE
253,1660173447.365,3115,4009,3350,3.497,-1.059,-0.088,93.8,blue,231,TRUE
254,1660173447.459,2888,3660,750,0.026,-1.366,0.684,94.9,red,231,TRUE
255,1660173447.554,-1270,4233,882,5.145,0.055,-0.012,93.7,yellow,231,TRUE
256,1660173447.852,3108,4024,3350,3.498,-1.045,-0.086,106.7,blue,231,TRUE
257,1660173448.068,-1289,4218,882,5.145,0.055,-0.012,83.6,yellow,231,TRUE
258,1660173448.166,-1245,4532,2526,3.398,0.02,0.022,79.4,green,231,TRUE
259,1660173448.402,3108,4009,3350,3.496,-1.044,-0.087,95.2,blue,231,TRUE
260,1660173448.497,2888,3653,750,0.023,-1.365,0.688,86.9,red,231,TRUE
261,1660173448.584,-1277,4210,882,5.145,0.055,-0.012,78.1,yellow,231,TRUE
262,1660173448.868,3115,4021,3350,3.494,-1.056,-0.083,81.4,blue,231,TRUE
263,1660173448.949,2894,3643,750,0.026,-1.366,0.69,93.9,red,231,TRUE
264,1660173449.043,-1289,4199,882,5.145,0.055,-0.012,96.0,yellow,231,TRUE
265,1660173449.152,-1219,4557,2526,3.398,0.02,0.022,81.5,green,231,TRUE
266,1660173449.343,3116,3998,3350,3.506,-1.083,-0.086,93.4,blue,231,TRUE
267,1660173449.437,2898,3640,750,0.016,-1.359,0.669,100.9,red,231,TRUE
268,1660173449.538,-1289,4200,882,5.145,0.055,-0.012,93.9,yellow,231,TRUE
269,1660173449.632,-1229,4539,2526,3.398,0.02,0.022,79.3,green,231,TRUE
270,1660173449.995,3101,3955,3350,3.498,-1.081,-0.096,99.3,blue,231,TRUE
271,1660173450.095,2900,3689,750,0.01,-1.377,0.729,87.1,red,231,TRUE
272,1660173450.291,-1225,4551,2526,3.398,0.02,0.022,94.1,green,231,TRUE
273,1660173451.88,-1308,4064,882,5.145,0.055,-0.012,78.5,yellow,231,TRUE
274,1660173451.958,-1211,4570,2526,3.398,0.02,0.022,93.6,green,231,TRUE
275,1660173453.234,3070,3965,3350,3.494,-1.066,-0.086,93.4,blue,231,TRUE
276,1660173453.327,2901,3699,750,0.117,-1.356,0.67,94.0,red,231,TRUE
277,1660173453.421,-1306,4066,882,5.145,0.055,-0.012,90.1,yellow,231,TRUE
278,1660173453.512,-1210,4566,2526,3.398,0.02,0.022,78.4,green,231,TRUE
279,1660173453.809,3046,3958,3350,3.496,-1.056,-0.086,93.7,blue,231,TRUE
280,1660173453.903,2898,3695,750,0.05,-1.37,0.662,93.8,red,231,TRUE
281,1660173453.997,-1304,4065,882,5.145,0.055,-0.012,98.6,yellow,231,TRUE
282,1660173455.481,3030,3959,3350,3.497,-1.061,-0.089,93.7,blue,231,TRUE
283,1660173455.574,2913,3682,750,0.428,-1.268,0.712,95.9,red,231,TRUE
284,1660173455.686,-1360,3910,882,5.145,0.055,-0.012,93.9,yellow,231,TRUE
285,1660173455.78,-1215,4559,2526,3.398,0.02,0.022,93.8,green,231,TRUE
286,1660173457.139,3019,3956,3350,3.495,-1.064,-0.087,97.4,blue,231,TRUE
287,1660173457.236,2927,3686,750,0.048,-1.37,0.712,93.7,red,231,TRUE
288,1660173457.345,-1362,3908,882,5.145,0.055,-0.012,95.3,yellow,231,TRUE
289,1660173457.44,-1205,4556,2526,3.398,0.02,0.022,80.5,green,231,TRUE
290,1660173457.677,3007,3963,3350,3.495,-1.046,-0.084,93.7,blue,231,TRUE
291,1660173457.771,2944,3687,750,0.073,-1.365,0.56,92.9,red,231,TRUE
292,1660173457.879,-1365,3905,882,5.145,0.055,-0.012,78.4,yellow,231,TRUE
293,1660173458.155,3002,3945,3350,3.495,-1.042,-0.084,97.3,blue,231,TRUE
294,1660173458.268,2968,3698,750,0.164,-1.382,0.644,93.8,red,231,TRUE
295,1660173458.377,-1364,3904,882,5.145,0.055,-0.012,78.8,yellow,231,TRUE
296,1660173458.456,-1224,4537,2526,3.398,0.02,0.022,93.7,green,231,TRUE
297,1660173458.659,3004,3929,3350,3.488,-1.048,-0.083,105.5,blue,231,TRUE
298,1660173458.764,2975,3704,750,0.135,-1.369,0.609,100.0,red,231,TRUE
299,1660173458.88,-1346,3920,882,5.145,0.055,-0.012,78.0,yellow,231,TRUE
300,1660173458.958,-1227,4531,2526,3.398,0.02,0.022,94.8,green,231,TRUE
301,1660173459.199,2992,3924,3350,3.484,-1.065,-0.084,93.7,blue,231,TRUE
302,1660173459.309,2985,3716,750,0.057,-1.359,0.541,96.3,red,231,TRUE
303,1660173459.421,-1344,3924,882,5.145,0.055,-0.012,93.8,yellow,231,TRUE
304,1660173459.514,-1231,4518,2526,3.398,0.02,0.022,93.6,green,231,TRUE
305,1660173459.872,2993,3720,750,0.027,-1.373,0.575,96.4,red,231,TRUE
306,1660173459.972,-1332,3935,882,5.145,0.055,-0.012,87.4,yellow,231,TRUE
307,1660173460.059,-1249,4502,2526,3.398,0.02,0.022,93.9,green,231,TRUE
308,1660173460.263,2976,3918,3350,3.486,-1.058,-0.083,87.8,blue,231,TRUE
309,1660173460.366,3012,3726,750,0.137,-1.369,0.638,94.0,red,231,TRUE
310,1660173460.475,-1346,3922,882,5.145,0.055,-0.012,93.7,yellow,231,TRUE
311,1660173460.569,-1253,4502,2526,3.398,0.02,0.022,89.5,green,231,TRUE
312,1660173461.848,3000,3954,3350,3.557,-1.056,-0.063,94.0,blue,231,TRUE
313,1660173461.942,3018,3742,750,0.26,-1.379,0.571,93.5,red,231,TRUE
314,1660173462.035,-1331,3995,882,5.145,0.055,-0.012,82.3,yellow,231,TRUE
315,1660173462.12,-1247,4512,2526,3.398,0.02,0.022,80.9,green,231,TRUE
316,1660173462.389,3008,3934,3350,3.552,-1.089,-0.07,82.3,blue,231,TRUE
317,1660173462.487,3028,3753,750,0.255,-1.369,0.381,93.7,red,231,TRUE
318,1660173462.581,-1336,3994,882,5.145,0.055,-0.012,93.7,yellow,231,TRUE
319,1660173462.675,-1245,4512,2526,3.398,0.02,0.022,94.6,green,231,TRUE
320,1660173463.984,2996,3975,3350,3.539,-1.086,-0.081,97.1,blue,231,TRUE
321,1660173464.081,3034,3755,750,0.26,-1.372,0.654,93.9,red,231,TRUE
322,1660173464.19,-1339,3996,882,5.145,0.055,-0.012,98.1,yellow,231,TRUE
323,1660173464.298,-1247,4514,2526,3.398,0.02,0.022,83.2,green,231,TRUE
324,1660173465.57,2991,3986,3350,3.533,-1.076,-0.079,94.0,blue,231,TRUE
325,1660173465.664,3033,3773,750,0.242,-1.369,0.625,93.5,red,231,TRUE
326,1660173465.877,-1248,4513,2526,3.398,0.02,0.022,94.0,green,231,TRUE
327,1660173467.146,2987,3974,3350,3.524,-1.089,-0.083,95.0,blue,231,TRUE
328,1660173467.243,3011,3797,750,0.047,-1.392,0.595,81.1,red,231,TRUE
329,1660173467.34,-1287,4155,882,5.145,0.055,-0.012,94.4,yellow,231,TRUE
330,1660173467.703,2997,3977,3350,3.522,-1.069,-0.079,84.0,blue,231,TRUE
331,1660173467.787,2981,3801,750,0.088,-1.383,0.581,93.8,red,231,TRUE
332,1660173467.881,-1286,4156,882,5.145,0.055,-0.012,100.8,yellow,231,TRUE
333,1660173467.983,-1234,4533,2526,3.398,0.02,0.022,89.0,green,231,TRUE
334,1660173468.181,2994,3958,3350,3.523,-1.064,-0.077,94.0,blue,231,TRUE
335,1660173468.275,2929,3843,750,0.142,-1.366,0.564,101.4,red,231,TRUE
336,1660173468.377,-1294,4164,882,5.145,0.055,-0.012,93.5,yellow,231,TRUE
337,1660173468.486,-1244,4520,2526,3.398,0.02,0.022,93.9,green,231,TRUE
338,1660173468.674,2989,3963,3350,3.523,-1.065,-0.08,93.7,blue,231,TRUE
339,1660173468.768,2902,3865,750,0.179,-1.366,0.572,94.0,red,231,TRUE
340,1660173468.862,-1294,4164,882,5.145,0.055,-0.012,92.0,yellow,231,TRUE
341,1660173468.97,-1264,4501,2526,3.398,0.02,0.022,78.0,green,231,TRUE
342,1660173470.352,2893,3873,750,0.218,-1.354,0.556,98.5,red,231,TRUE
343,1660173470.452,-1344,4120,882,5.145,0.055,-0.012,88.5,yellow,231,TRUE
344,1660173470.556,-1254,4514,2526,3.398,0.02,0.022,95.0,green,231,TRUE
345,1660173471.863,2969,3981,3350,3.514,-1.058,-0.08,94.0,blue,231,TRUE
346,1660173471.957,2889,3878,750,0.255,-1.34,0.504,94.9,red,231,TRUE
347,1660173472.161,-1239,4534,2526,3.398,0.02,0.022,93.8,green,231,TRUE
348,1660173474.458,2976,3998,3350,3.668,-1.077,-0.056,85.5,blue,231,TRUE
349,1660173474.652,-1404,3962,882,5.145,0.055,-0.012,95.2,yellow,231,TRUE
350,1660173474.748,-1241,4530,2526,3.398,0.02,0.022,93.8,green,231,TRUE
351,1660173475.029,2989,4013,3350,3.629,-1.082,-0.079,105.6,blue,231,TRUE
352,1660173475.15,2865,3844,750,0.108,-1.384,0.666,94.0,red,231,TRUE
353,1660173475.244,-1392,3974,882,5.145,0.055,-0.012,86.9,yellow,231,TRUE
354,1660173475.331,-1250,4516,2526,3.398,0.02,0.022,86.4,green,231,TRUE
355,1660173475.605,2976,4005,3350,3.593,-1.07,-0.079,98.3,blue,231,TRUE
356,1660173475.704,2868,3829,750,6.233,-1.354,0.424,88.7,red,231,TRUE
357,1660173475.793,-1348,4063,882,5.145,0.055,-0.012,93.7,yellow,231,TRUE
358,1660173475.886,-1260,4506,2526,3.398,0.02,0.022,93.8,green,231,TRUE
359,1660173476.199,2966,3998,3350,3.579,-1.062,-0.079,95.3,blue,231,TRUE
360,1660173476.294,2824,3849,750,0.068,-1.343,0.455,90.8,red,231,TRUE
361,1660173476.385,-1404,3931,882,5.145,0.055,-0.012,93.7,yellow,231,TRUE
362,1660173476.771,2989,4037,3350,3.577,-1.056,-0.076,93.5,blue,231,TRUE
363,1660173476.865,2815,3859,750,0.059,-1.352,0.437,95.6,red,231,TRUE
364,1660173476.96,-1397,3936,882,5.145,0.055,-0.012,93.7,yellow,231,TRUE
365,1660173477.054,-1255,4503,2526,3.398,0.02,0.022,93.9,green,231,TRUE
366,1660173478.42,3020,4020,3350,3.555,-1.079,-0.079,90.4,blue,231,TRUE
367,1660173478.511,2812,3855,750,0.08,-1.356,0.508,93.7,red,231,TRUE
368,1660173478.714,-1266,4494,2526,3.398,0.02,0.022,95.1,green,231,TRUE
369,1660173478.973,3035,4027,3350,3.558,-1.07,-0.081,93.9,blue,231,TRUE
370,1660173479.067,2827,3848,750,0.081,-1.355,0.488,92.4,red,231,TRUE
371,1660173479.175,-1414,3915,882,5.145,0.055,-0.012,94.0,yellow,231,TRUE
372,1660173479.269,-1283,4469,2526,3.398,0.02,0.022,109.1,green,231,TRUE
373,1660173479.565,3064,4050,3350,3.56,-1.066,-0.08,93.7,blue,231,TRUE
374,1660173479.674,2843,3850,750,0.087,-1.366,0.512,88.9,red,231,TRUE
375,1660173479.763,-1414,3917,882,5.145,0.055,-0.012,93.7,yellow,231,TRUE
376,1660173479.857,-1280,4478,2526,3.398,0.02,0.022,93.7,green,231,TRUE
377,1660173481.189,3070,4070,3350,3.602,-1.082,-0.077,96.9,blue,231,TRUE
378,1660173481.386,-1402,3909,882,5.145,0.055,-0.012,94.0,yellow,231,TRUE
379,1660173481.48,-1278,4479,2526,3.398,0.02,0.022,99.9,green,231,TRUE
380,1660173482.814,3080,4090,3350,3.625,-1.058,-0.069,91.2,blue,231,TRUE
381,1660173482.905,2875,3731,750,6.265,-1.358,0.321,94.0,red,231,TRUE
382,1660173483.119,-1268,4492,2526,3.398,0.02,0.022,87.7,green,231,TRUE
383,1660173484.489,3085,4218,3350,5.363,-1.112,-0.06,93.8,blue,231,TRUE
384,1660173484.583,2826,3804,750,0.822,-1.345,0.786,123.4,red,231,TRUE
385,1660173484.722,-1402,3909,882,5.145,0.055,-0.012,78.3,yellow,231,TRUE
386,1660173484.8,-1252,4511,2526,3.398,0.02,0.022,93.7,green,231,TRUE
387,1660173485.158,2765,3909,750,1.031,-1.365,0.361,93.7,red,231,TRUE
388,1660173485.252,-1436,3886,882,5.145,0.055,-0.012,89.7,yellow,231,TRUE
389,1660173485.342,-1247,4509,2526,3.398,0.02,0.022,93.8,green,231,TRUE
390,1660173485.529,3051,4490,3350,5.159,-1.144,-0.172,107.9,blue,231,TRUE
391,1660173485.653,2729,4089,750,1.361,-1.342,0.863,93.6,red,231,TRUE
392,1660173485.746,-1382,3929,882,5.145,0.055,-0.012,101.6,yellow,231,TRUE
393,1660173485.848,-1268,4480,2526,3.398,0.02,0.022,89.4,green,231,TRUE
394,1660173486.031,3015,4697,3350,4.724,-1.074,-0.158,109.5,blue,231,TRUE
395,1660173486.156,2672,4265,750,0.92,-1.348,0.738,90.1,red,231,TRUE
396,1660173486.262,-1324,4083,882,5.145,0.055,-0.012,78.0,yellow,231,TRUE
397,1660173486.356,-1259,4499,2526,3.398,0.02,0.022,78.0,green,231,TRUE
398,1660173486.587,2967,4906,3350,4.712,-1.106,-0.216,93.8,blue,231,TRUE
399,1660173486.681,2595,4455,750,0.958,-1.367,0.624,93.6,red,231,TRUE
400,1660173486.774,-1327,4083,882,5.145,0.055,-0.012,95.9,yellow,231,TRUE
401,1660173486.87,-1259,4499,2526,3.398,0.02,0.022,93.7,green,231,TRUE
402,1660173487.058,2912,5131,3350,4.754,-1.164,-0.153,97.4,blue,231,TRUE
403,1660173487.166,2539,4602,750,0.64,-1.344,0.819,95.1,red,231,TRUE
404,1660173487.261,-1328,4085,882,5.145,0.055,-0.012,95.2,yellow,231,TRUE
405,1660173487.372,-1252,4501,2526,3.398,0.02,0.022,79.8,green,231,TRUE
406,1660173487.536,2867,5316,3350,4.682,-1.156,-0.106,93.7,blue,231,TRUE
407,1660173487.629,2441,4790,750,0.488,-1.306,0.613,93.5,red,231,TRUE
408,1660173487.739,-1332,4082,882,5.145,0.055,-0.012,78.8,yellow,231,TRUE
409,1660173487.818,-1250,4501,2526,3.398,0.02,0.022,91.1,green,231,TRUE
410,1660173488.069,2820,5524,3350,4.423,-1.084,-0.034,92.2,blue,231,TRUE
411,1660173488.161,2341,4984,750,0.542,-1.332,0.613,93.6,red,231,TRUE
412,1660173488.271,-1279,4213,882,5.145,0.055,-0.012,78.1,yellow,231,TRUE
413,1660173488.365,-1259,4490,2526,3.398,0.02,0.022,85.8,green,231,TRUE
414,1660173488.544,2778,5738,3350,4.4,-1.11,-0.152,94.0,blue,231,TRUE
415,1660173488.638,2264,5199,750,0.601,-1.345,0.689,97.2,red,231,TRUE
416,1660173488.751,-1287,4205,882,5.145,0.055,-0.012,78.2,yellow,231,TRUE
417,1660173488.829,-1276,4469,2526,3.398,0.02,0.022,93.8,green,231,TRUE
418,1660173489.034,2720,5956,3350,4.395,-1.108,-0.109,82.6,blue,231,TRUE
419,1660173489.116,2180,5377,750,0.567,-1.372,0.719,93.7,red,231,TRUE
420,1660173489.226,-1261,4226,882,5.145,0.055,-0.012,83.4,yellow,231,TRUE
421,1660173489.311,-1258,4492,2526,3.398,0.02,0.022,90.3,green,231,TRUE
422,1660173489.558,2696,6168,3350,4.419,-1.106,-0.099,103.2,blue,231,TRUE
423,1660173489.661,2128,5635,750,0.602,-1.372,0.684,95.4,red,231,TRUE
424,1660173489.772,-1271,4220,882,5.145,0.055,-0.012,78.0,yellow,231,TRUE
425,1660173489.85,-1266,4484,2526,3.398,0.02,0.022,80.7,green,231,TRUE
426,1660173490.04,2661,6367,3350,4.418,-1.114,-0.084,94.0,blue,231,TRUE
427,1660173490.134,2038,5830,750,0.707,-1.347,0.639,93.6,red,231,TRUE
428,1660173490.244,-1272,4218,882,5.145,0.055,-0.012,86.5,yellow,231,TRUE
429,1660173490.346,-1272,4473,2526,3.398,0.02,0.022,78.4,green,231,TRUE
430,1660173490.632,2003,5957,750,0.748,-1.344,0.605,93.5,red,231,TRUE
431,1660173490.741,-1274,4218,882,5.145,0.055,-0.012,78.0,yellow,231,TRUE
432,1660173490.819,-1290,4448,2526,3.398,0.02,0.022,87.6,green,231,TRUE
433,1660173491.063,2630,6456,3350,4.431,-1.095,-0.092,79.3,blue,231,TRUE
434,1660173491.274,-1241,4244,882,5.145,0.055,-0.012,93.6,yellow,231,TRUE
435,1660173491.368,-1287,4452,2526,3.398,0.02,0.022,88.2,green,231,TRUE
436,1660173491.546,2618,6552,3350,4.42,-1.089,-0.098,93.7,blue,231,TRUE
437,1660173491.64,1888,6165,750,0.766,-1.352,0.644,95.2,red,231,TRUE
438,1660173491.751,-1245,4243,882,5.145,0.055,-0.012,88.7,yellow,231,TRUE
439,1660173491.84,-1290,4450,2526,3.398,0.02,0.022,93.7,green,231,TRUE
440,1660173492.027,2614,6582,3350,4.424,-1.09,-0.094,97.4,blue,231,TRUE
441,1660173492.124,1827,6187,750,0.754,-1.35,0.665,93.9,red,231,TRUE
442,1660173492.218,-1243,4242,882,5.145,0.055,-0.012,93.7,yellow,231,TRUE
443,1660173492.328,-1282,4458,2526,3.398,0.02,0.022,119.5,green,231,TRUE
444,1660173492.603,2634,6617,3350,4.425,-1.091,-0.089,93.7,blue,231,TRUE
445,1660173492.697,1814,6237,750,0.738,-1.361,0.644,93.9,red,231,TRUE
446,1660173492.791,-1248,4240,882,5.145,0.055,-0.012,88.0,yellow,231,TRUE
447,1660173492.879,-1284,4453,2526,3.398,0.02,0.022,93.4,green,231,TRUE
448,1660173493.07,2646,6619,3350,4.421,-1.094,-0.092,93.8,blue,231,TRUE
449,1660173493.164,1811,6296,750,0.747,-1.357,0.644,93.7,red,231,TRUE
450,1660173493.273,-1247,4239,882,5.145,0.055,-0.012,79.7,yellow,231,TRUE
451,1660173493.553,2682,6762,3350,4.423,-1.105,-0.096,82.7,blue,231,TRUE
452,1660173493.639,1825,6297,750,0.741,-1.348,0.619,95.9,red,231,TRUE
453,1660173493.75,-1243,4242,882,5.145,0.055,-0.012,78.3,yellow,231,TRUE
454,1660173493.828,-1271,4468,2526,3.398,0.02,0.022,93.6,green,231,TRUE
455,1660173494.073,2707,6798,3350,4.429,-1.106,-0.1,93.5,blue,231,TRUE
456,1660173494.294,-1244,4241,882,5.145,0.055,-0.012,93.7,yellow,231,TRUE
457,1660173494.403,-1266,4479,2526,3.398,0.02,0.022,78.4,green,231,TRUE
458,1660173494.681,1795,6213,750,0.818,-1.354,0.692,93.9,red,231,TRUE
459,1660173494.79,-1242,4243,882,5.145,0.055,-0.012,93.9,yellow,231,TRUE
460,1660173495.198,1822,6246,750,0.758,-1.377,0.706,92.4,red,231,TRUE
461,1660173495.29,-1238,4246,882,5.145,0.055,-0.012,93.5,yellow,231,TRUE
462,1660173495.4,-1259,4468,2526,3.398,0.02,0.022,78.1,green,231,TRUE
463,1660173495.638,2719,6788,3350,4.422,-1.068,-0.077,78.0,blue,231,TRUE
464,1660173495.716,1835,6274,750,0.764,-1.38,0.766,99.0,red,231,TRUE
465,1660173495.818,-1235,4243,882,5.145,0.055,-0.012,75.9,yellow,231,TRUE
466,1660173495.894,-1261,4455,2526,3.398,0.02,0.022,78.1,green,231,TRUE
467,1660173496.066,2722,6812,3350,4.416,-1.072,-0.082,97.8,blue,231,TRUE
468,1660173496.274,-1234,4243,882,5.145,0.055,-0.012,93.8,yellow,231,TRUE
469,1660173496.384,-1252,4467,2526,3.398,0.02,0.022,104.4,green,231,TRUE
470,1660173496.707,1822,6195,750,0.706,-1.374,0.673,96.4,red,231,TRUE
471,1660173496.803,-1235,4242,882,5.145,0.055,-0.012,93.4,yellow,231,TRUE
472,1660173496.897,-1259,4458,2526,3.398,0.02,0.022,78.4,green,231,TRUE
473,1660173497.124,2674,6850,3350,4.444,-1.088,-0.057,77.9,blue,231,TRUE
474,1660173497.327,-1291,4195,882,5.145,0.055,-0.012,93.3,yellow,231,TRUE
475,1660173497.436,-1269,4442,2526,3.398,0.02,0.022,78.4,green,231,TRUE
476,1660173497.607,2686,6889,3350,4.433,-1.086,-0.065,107.6,blue,231,TRUE
477,1660173497.715,1828,6166,750,0.817,-1.354,0.666,93.5,red,231,TRUE
478,1660173497.809,-1287,4196,882,5.145,0.055,-0.012,93.8,yellow,231,TRUE
479,1660173497.902,-1259,4451,2526,3.398,0.02,0.022,97.8,green,231,TRUE
480,1660173498.116,2685,6885,3350,4.436,-1.072,-0.068,77.8,blue,231,TRUE
481,1660173498.308,-1285,4198,882,5.145,0.055,-0.012,83.6,yellow,231,TRUE
482,1660173498.407,-1242,4476,2526,3.398,0.02,0.022,78.3,green,231,TRUE
483,1660173498.662,2674,6849,3350,4.437,-1.062,-0.065,78.3,blue,231,TRUE
484,1660173498.74,1904,6347,750,0.693,-1.391,0.683,107.3,red,231,TRUE
485,1660173498.972,-1240,4483,2526,3.398,0.02,0.022,77.9,green,231,TRUE
486,1660173499.272,1928,6332,750,0.904,-1.37,0.925,94.8,red,231,TRUE
487,1660173499.383,-1328,4056,882,5.145,0.055,-0.012,87.9,yellow,231,TRUE
488,1660173499.487,-1250,4472,2526,3.398,0.02,0.022,81.1,green,231,TRUE
489,1660173499.661,2660,6830,3350,4.437,-1.073,-0.058,109.5,blue,231,TRUE
490,1660173499.771,1942,6358,750,1.132,-1.337,0.97,98.2,red,231,TRUE
491,1660173499.87,-1327,4054,882,5.145,0.055,-0.012,79.6,yellow,231,TRUE
492,1660173499.95,-1246,4485,2526,3.398,0.02,0.022,93.5,green,231,TRUE
493,1660173500.206,2649,6831,3350,4.429,-1.078,-0.052,93.9,blue,231,TRUE
494,1660173500.3,2007,6485,750,0.918,-1.379,0.808,93.7,red,231,TRUE
495,1660173500.41,-1328,4052,882,5.145,0.055,-0.012,84.1,yellow,231,TRUE
496,1660173500.509,-1251,4477,2526,3.398,0.02,0.022,78.2,green,231,TRUE
497,1660173500.683,2624,6626,3350,4.422,-1.078,-0.061,93.7,blue,231,TRUE
498,1660173500.777,2023,6475,750,0.873,-1.36,0.792,87.9,red,231,TRUE
499,1660173500.866,-1329,4050,882,5.145,0.055,-0.012,81.7,yellow,231,TRUE
500,1660173500.948,-1249,4494,2526,3.398,0.02,0.022,94.0,green,231,TRUE
501,1660173501.145,2607,6621,3350,4.415,-1.072,-0.074,93.7,blue,231,TRUE
502,1660173501.239,2033,6475,750,0.91,-1.367,0.766,93.9,red,231,TRUE
503,1660173501.348,-1327,4048,882,5.145,0.055,-0.012,91.5,yellow,231,TRUE
504,1660173501.456,-1250,4494,2526,3.398,0.02,0.022,79.9,green,231,TRUE
505,1660173501.827,2040,6450,750,0.782,-1.393,0.65,93.5,red,231,TRUE
506,1660173501.921,-1331,4051,882,5.145,0.055,-0.012,97.9,yellow,231,TRUE
507,1660173502.019,-1236,4515,2526,3.398,0.02,0.022,78.1,green,231,TRUE
508,1660173502.323,2059,6524,750,0.728,-1.383,0.607,93.5,red,231,TRUE
509,1660173502.433,-1332,4051,882,5.145,0.055,-0.012,79.4,yellow,231,TRUE
510,1660173502.528,-1258,4481,2526,3.398,0.02,0.022,79.8,green,231,TRUE
511,1660173502.7,2504,6654,3350,4.431,-1.065,-0.056,93.5,blue,231,TRUE
512,1660173502.794,2052,6530,750,0.762,-1.382,0.648,93.7,red,231,TRUE
513,1660173502.887,-1344,4042,882,5.145,0.055,-0.012,102.8,yellow,231,TRUE
514,1660173502.99,-1247,4498,2526,3.398,0.02,0.022,93.5,green,231,TRUE
515,1660173503.243,2535,6650,3350,4.429,-1.084,-0.053,94.3,blue,231,TRUE
516,1660173503.337,2074,6522,750,0.826,-1.374,0.656,93.8,red,231,TRUE
517,1660173503.447,-1286,4087,882,5.145,0.055,-0.012,82.4,yellow,231,TRUE
518,1660173503.539,-1257,4487,2526,3.398,0.02,0.022,84.9,green,231,TRUE
519,1660173503.717,2528,6608,3350,4.432,-1.081,-0.061,93.5,blue,231,TRUE
520,1660173503.811,2102,6530,750,0.8,-1.377,0.614,104.8,red,231,TRUE
521,1660173503.915,-1288,4086,882,5.145,0.055,-0.012,93.7,yellow,231,TRUE
522,1660173504.009,-1275,4466,2526,3.398,0.02,0.022,93.7,green,231,TRUE
523,1660173504.199,2508,6562,3350,4.435,-1.078,-0.065,93.9,blue,231,TRUE
524,1660173504.293,2057,6316,750,0.77,-1.37,0.561,93.7,red,231,TRUE
525,1660173504.402,-1291,4082,882,5.145,0.055,-0.012,98.8,yellow,231,TRUE
526,1660173504.516,-1270,4464,2526,3.398,0.02,0.022,78.1,green,231,TRUE
527,1660173504.757,2498,6556,3350,4.422,-1.076,-0.069,91.9,blue,231,TRUE
528,1660173504.958,-1236,4231,882,5.145,0.055,-0.012,93.5,yellow,231,TRUE
529,1660173505.261,2505,6577,3350,4.429,-1.071,-0.069,93.7,blue,231,TRUE
530,1660173505.354,2034,6270,750,0.757,-1.376,0.58,99.0,red,231,TRUE
531,1660173505.469,-1246,4224,882,5.145,0.055,-0.012,93.7,yellow,231,TRUE
532,1660173505.578,-1269,4460,2526,3.398,0.02,0.022,78.0,green,231,TRUE
533,1660173505.754,2494,6550,3350,4.423,-1.068,-0.069,94.4,blue,231,TRUE
534,1660173505.848,2022,6238,750,0.734,-1.377,0.563,93.9,red,231,TRUE
535,1660173505.942,-1246,4225,882,5.145,0.055,-0.012,96.9,yellow,231,TRUE
536,1660173506.039,-1248,4486,2526,3.398,0.02,0.022,79.8,green,231,TRUE
537,1660173506.281,2492,6540,3350,4.411,-1.076,-0.071,81.6,blue,231,TRUE
538,1660173506.363,2010,6210,750,0.74,-1.376,0.574,93.6,red,231,TRUE
539,1660173506.472,-1240,4223,882,5.145,0.055,-0.012,78.2,yellow,231,TRUE
540,1660173506.566,-1254,4474,2526,3.398,0.02,0.022,95.0,green,231,TRUE
541,1660173506.878,1996,6177,750,0.765,-1.378,0.591,88.4,red,231,TRUE
542,1660173506.967,-1239,4225,882,5.145,0.055,-0.012,93.6,yellow,231,TRUE
543,1660173507.06,-1239,4495,2526,3.398,0.02,0.022,93.7,green,231,TRUE
544,1660173507.247,2492,6568,3350,4.427,-1.069,-0.053,93.9,blue,231,TRUE
545,1660173507.341,1970,6150,750,0.791,-1.37,0.587,93.6,red,231,TRUE
546,1660173507.451,-1241,4228,882,5.145,0.055,-0.012,104.4,yellow,231,TRUE
547,1660173507.571,-1234,4496,2526,3.398,0.02,0.022,78.1,green,231,TRUE
548,1660173507.808,2483,6536,3350,4.43,-1.068,-0.055,82.8,blue,231,TRUE
549,1660173507.891,1926,6171,750,0.781,-1.374,0.599,93.8,red,231,TRUE
550,1660173507.985,-1242,4228,882,5.145,0.055,-0.012,93.7,yellow,231,TRUE
551,1660173508.079,-1240,4487,2526,3.398,0.02,0.022,78.6,green,231,TRUE
552,1660173508.268,2513,6529,3350,4.424,-1.061,-0.058,94.0,blue,231,TRUE
553,1660173508.362,1948,6179,750,0.793,-1.365,0.551,100.3,red,231,TRUE
554,1660173508.478,-1240,4225,882,5.145,0.055,-0.012,85.3,yellow,231,TRUE
555,1660173508.578,-1242,4488,2526,3.398,0.02,0.022,78.4,green,231,TRUE
556,1660173508.758,2558,6488,3350,4.418,-1.069,-0.061,83.9,blue,231,TRUE
557,1660173508.842,1954,6172,750,0.802,-1.373,0.569,94.0,red,231,TRUE
558,1660173508.936,-1221,4240,882,5.145,0.055,-0.012,97.3,yellow,231,TRUE
559,1660173509.034,-1229,4516,2526,3.398,0.02,0.022,89.1,green,231,TRUE
560,1660173509.279,2567,6376,3350,4.419,-1.077,-0.062,92.5,blue,231,TRUE
561,1660173509.481,-1228,4237,882,5.145,0.055,-0.012,79.0,yellow,231,TRUE
562,1660173509.576,-1218,4534,2526,3.398,0.02,0.022,93.0,green,231,TRUE
563,1660173509.763,2555,6357,3350,4.427,-1.07,-0.055,93.7,blue,231,TRUE
564,1660173509.857,1905,6168,750,0.776,-1.358,0.54,98.5,red,231,TRUE
565,1660173509.956,-1226,4240,882,5.145,0.055,-0.012,83.0,yellow,231,TRUE
566,1660173510.039,-1210,4548,2526,3.398,0.02,0.022,93.7,green,231,TRUE
567,1660173510.263,2548,6349,3350,4.431,-1.062,-0.055,97.1,blue,231,TRUE
568,1660173510.469,-1222,4245,882,5.145,0.055,-0.012,95.9,yellow,231,TRUE
569,1660173510.581,-1207,4560,2526,3.398,0.02,0.022,78.3,green,231,TRUE
570,1660173510.831,2532,6322,3350,4.43,-1.069,-0.057,88.6,blue,231,TRUE
571,1660173510.92,1845,6079,750,0.767,-1.355,0.544,109.3,red,231,TRUE
572,1660173511.029,-1221,4248,882,5.145,0.055,-0.012,93.8,yellow,231,TRUE
573,1660173511.123,-1215,4557,2526,3.398,0.02,0.022,96.5,green,231,TRUE
574,1660173511.313,2515,6334,3350,4.43,-1.08,-0.058,93.7,blue,231,TRUE
575,1660173511.407,1850,6089,750,0.75,-1.359,0.556,97.5,red,231,TRUE
576,1660173511.507,-1219,4246,882,5.145,0.055,-0.012,79.6,yellow,231,TRUE
577,1660173511.602,-1212,4559,2526,3.398,0.02,0.022,78.4,green,231,TRUE
578,1660173511.795,2511,6334,3350,4.434,-1.079,-0.059,90.0,blue,231,TRUE
579,1660173511.885,1822,6071,750,0.746,-1.372,0.578,109.5,red,231,TRUE
580,1660173512.12,-1214,4558,2526,3.398,0.02,0.022,78.1,green,231,TRUE
581,1660173512.354,2511,6318,3350,4.433,-1.074,-0.057,84.6,blue,231,TRUE
582,1660173512.548,-1251,4233,882,5.145,0.055,-0.012,93.9,yellow,231,TRUE
583,1660173512.658,-1213,4556,2526,3.398,0.02,0.022,88.7,green,231,TRUE
584,1660173512.848,2513,6309,3350,4.439,-1.071,-0.055,94.0,blue,231,TRUE
585,1660173513.056,-1252,4231,882,5.145,0.055,-0.012,93.5,yellow,231,TRUE
586,1660173513.149,-1216,4554,2526,3.398,0.02,0.022,93.7,green,231,TRUE
587,1660173513.346,2513,6314,3350,4.437,-1.066,-0.053,94.8,blue,231,TRUE
588,1660173513.441,1782,5971,750,0.75,-1.378,0.595,94.1,red,231,TRUE
589,1660173513.55,-1251,4231,882,5.145,0.055,-0.012,84.2,yellow,231,TRUE
590,1660173513.643,-1208,4571,2526,3.398,0.02,0.022,79.0,green,231,TRUE
591,1660173513.895,2508,6315,3350,4.439,-1.066,-0.052,90.3,blue,231,TRUE
592,1660173514.095,-1249,4229,882,5.145,0.055,-0.012,93.6,yellow,231,TRUE
593,1660173514.392,2526,6354,3350,4.439,-1.066,-0.052,94.0,blue,231,TRUE
594,1660173514.486,1768,5988,750,0.909,-1.378,0.644,93.3,red,231,TRUE
595,1660173514.595,-1249,4230,882,5.145,0.055,-0.012,77.8,yellow,231,TRUE
596,1660173514.689,-1201,4584,2526,3.398,0.02,0.022,93.7,green,231,TRUE
597,1660173514.882,2518,6382,3350,4.436,-1.072,-0.051,94.0,blue,231,TRUE
598,1660173514.976,1793,6054,750,0.858,-1.39,0.676,93.7,red,231,TRUE
599,1660173515.07,-1256,4222,882,5.145,0.055,-0.012,98.4,yellow,231,TRUE
600,1660173515.17,-1196,4589,2526,3.398,0.02,0.022,82.3,green,231,TRUE
601,1660173515.409,2507,6393,3350,4.436,-1.083,-0.049,94.4,blue,231,TRUE
602,1660173515.503,1826,6035,750,0.855,-1.4,0.669,94.0,red,231,TRUE
603,1660173515.613,-1251,4226,882,5.145,0.055,-0.012,79.7,yellow,231,TRUE
604,1660173515.708,-1211,4567,2526,3.398,0.02,0.022,79.7,green,231,TRUE
605,1660173515.875,2509,6391,3350,4.437,-1.088,-0.047,93.8,blue,231,TRUE
606,1660173515.969,1829,6058,750,0.854,-1.392,0.652,93.6,red,231,TRUE
607,1660173516.062,-1254,4226,882,5.145,0.055,-0.012,91.0,yellow,231,TRUE
608,1660173516.153,-1210,4567,2526,3.398,0.02,0.022,94.0,green,231,TRUE
609,1660173516.341,2520,6409,3350,4.437,-1.081,-0.051,96.7,blue,231,TRUE
610,1660173516.439,1897,6211,750,0.954,-1.373,0.637,95.7,red,231,TRUE
611,1660173516.535,-1255,4221,882,5.145,0.055,-0.012,78.4,yellow,231,TRUE
612,1660173516.629,-1197,4581,2526,3.398,0.02,0.022,95.2,green,231,TRUE
613,1660173516.884,2555,6456,3350,4.44,-1.065,-0.048,93.7,blue,231,TRUE
614,1660173516.977,1900,6243,750,1.019,-1.38,0.699,97.7,red,231,TRUE
615,1660173517.075,-1253,4219,882,5.145,0.055,-0.012,93.8,yellow,231,TRUE
616,1660173517.169,-1203,4576,2526,3.398,0.02,0.022,79.5,green,231,TRUE
617,1660173517.35,2583,6460,3350,4.441,-1.055,-0.048,93.7,blue,231,TRUE
618,1660173517.443,1942,6276,750,1.012,-1.365,0.631,93.7,red,231,TRUE
619,1660173517.537,-1253,4220,882,5.145,0.055,-0.012,98.8,yellow,231,TRUE
620,1660173517.645,-1215,4565,2526,3.398,0.02,0.022,81.8,green,231,TRUE
621,1660173517.836,2573,6440,3350,4.441,-1.052,-0.048,78.1,blue,231,TRUE
622,1660173517.914,2007,6325,750,0.937,-1.383,0.66,89.3,red,231,TRUE
623,1660173518.004,-1248,4215,882,5.145,0.055,-0.012,78.0,yellow,231,TRUE
624,1660173518.082,-1223,4556,2526,3.398,0.02,0.022,95.4,green,231,TRUE
625,1660173518.353,2579,6466,3350,4.44,-1.052,-0.049,78.0,blue,231,TRUE
626,1660173518.431,2082,6479,750,0.894,-1.391,0.648,93.5,red,231,TRUE
627,1660173518.525,-1217,4236,882,5.145,0.055,-0.012,85.9,yellow,231,TRUE
628,1660173518.626,-1216,4570,2526,3.398,0.02,0.022,78.3,green,231,TRUE
629,1660173518.814,2588,6490,3350,4.443,-1.057,-0.048,95.9,blue,231,TRUE
630,1660173519.019,-1218,4236,882,5.145,0.055,-0.012,93.7,yellow,231,TRUE
631,1660173519.113,-1213,4573,2526,3.398,0.02,0.022,100.4,green,231,TRUE
632,1660173519.307,2597,6469,3350,4.447,-1.056,-0.044,77.8,blue,231,TRUE
633,1660173519.385,2105,6456,750,0.927,-1.388,0.668,97.7,red,231,TRUE
634,1660173519.483,-1218,4231,882,5.145,0.055,-0.012,80.9,yellow,231,TRUE
635,1660173519.58,-1209,4577,2526,3.398,0.02,0.022,78.3,green,231,TRUE
636,1660173519.834,2603,6471,3350,4.445,-1.047,-0.036,78.1,blue,231,TRUE
637,1660173519.912,2167,6486,750,0.921,-1.386,0.635,94.0,red,231,TRUE
638,1660173520.006,-1215,4232,882,5.145,0.055,-0.012,95.2,yellow,231,TRUE
639,1660173520.102,-1212,4575,2526,3.398,0.02,0.022,82.7,green,231,TRUE
640,1660173520.31,2601,6448,3350,4.441,-1.064,-0.043,94.8,blue,231,TRUE
641,1660173520.406,2172,6491,750,0.896,-1.381,0.581,81.8,red,231,TRUE
642,1660173520.488,-1214,4233,882,5.145,0.055,-0.012,94.0,yellow,231,TRUE
643,1660173520.581,-1208,4577,2526,3.398,0.02,0.022,78.1,green,231,TRUE
644,1660173520.803,2608,6453,3350,4.444,-1.07,-0.045,78.4,blue,231,TRUE
645,1660173520.881,2175,6451,750,0.892,-1.373,0.577,93.4,red,231,TRUE
646,1660173520.975,-1215,4234,882,5.145,0.055,-0.012,85.2,yellow,231,TRUE
647,1660173521.326,2621,6453,3350,4.442,-1.061,-0.047,84.0,blue,231,TRUE
648,1660173521.41,2203,6483,750,0.927,-1.37,0.6,93.7,red,231,TRUE
649,1660173521.504,-1218,4233,882,5.145,0.055,-0.012,93.5,yellow,231,TRUE
650,1660173521.597,-1218,4565,2526,3.398,0.02,0.022,94.6,green,231,TRUE
651,1660173521.817,2627,6462,3350,4.443,-1.064,-0.049,91.6,blue,231,TRUE
652,1660173521.909,2235,6500,750,0.912,-1.38,0.639,88.1,red,231,TRUE
653,1660173521.997,-1260,4144,882,5.145,0.055,-0.012,93.7,yellow,231,TRUE
654,1660173522.311,2613,6446,3350,4.444,-1.064,-0.049,78.3,blue,231,TRUE
655,1660173522.389,2251,6522,750,0.796,-1.401,0.545,93.5,red,231,TRUE
656,1660173522.483,-1263,4146,882,5.145,0.055,-0.012,96.3,yellow,231,TRUE
657,1660173522.582,-1213,4565,2526,3.398,0.02,0.022,78.2,green,231,TRUE
658,1660173522.833,2596,6426,3350,4.444,-1.064,-0.049,82.9,blue,231,TRUE
659,1660173522.916,2215,6472,750,0.603,-1.396,0.467,93.7,red,231,TRUE
660,1660173523.009,-1262,4148,882,5.145,0.055,-0.012,94.0,yellow,231,TRUE
661,1660173523.329,2594,6408,3350,4.459,-1.062,-0.049,93.7,blue,231,TRUE
662,1660173523.423,2190,6451,750,0.677,-1.394,0.599,85.3,red,231,TRUE
663,1660173523.508,-1263,4147,882,5.145,0.055,-0.012,78.1,yellow,231,TRUE
664,1660173523.586,-1213,4565,2526,3.398,0.02,0.022,78.1,green,231,TRUE
665,1660173523.788,2611,6532,3350,4.481,-1.066,-0.044,79.2,blue,231,TRUE
666,1660173523.867,2162,6405,750,0.769,-1.397,0.633,93.9,red,231,TRUE
667,1660173523.961,-1265,4153,882,5.145,0.055,-0.012,77.9,yellow,231,TRUE
668,1660173524.039,-1223,4558,2526,3.398,0.02,0.022,90.2,green,231,TRUE
669,1660173524.286,2608,6536,3350,4.492,-1.066,-0.026,78.1,blue,231,TRUE
670,1660173524.379,2138,6370,750,0.82,-1.401,0.644,91.2,red,231,TRUE
671,1660173524.471,-1270,4152,882,5.145,0.055,-0.012,80.5,yellow,231,TRUE
672,1660173524.551,-1209,4568,2526,3.398,0.02,0.022,83.3,green,231,TRUE
673,1660173524.747,2608,6564,3350,4.476,-1.059,-0.033,93.4,blue,231,TRUE
674,1660173524.856,2151,6486,750,0.852,-1.384,0.554,93.5,red,231,TRUE
675,1660173524.95,-1272,4152,882,5.145,0.055,-0.012,83.5,yellow,231,TRUE
676,1660173525.033,-1200,4577,2526,3.398,0.02,0.022,93.7,green,231,TRUE
677,1660173525.221,2595,6585,3350,4.47,-1.052,-0.039,95.1,blue,231,TRUE
678,1660173525.329,2150,6476,750,0.913,-1.359,0.547,82.7,red,231,TRUE
679,1660173525.411,-1272,4158,882,5.145,0.055,-0.012,77.9,yellow,231,TRUE
680,1660173525.489,-1202,4578,2526,3.398,0.02,0.022,93.9,green,231,TRUE
681,1660173525.757,2593,6609,3350,4.468,-1.046,-0.041,78.1,blue,231,TRUE
682,1660173525.851,2147,6446,750,0.92,-1.368,0.647,101.6,red,231,TRUE
683,1660173525.952,-1272,4158,882,5.145,0.055,-0.012,93.6,yellow,231,TRUE
684,1660173526.046,-1205,4568,2526,3.398,0.02,0.022,93.7,green,231,TRUE
685,1660173526.236,2587,6624,3350,4.468,-1.043,-0.041,71.4,blue,231,TRUE
686,1660173526.323,2141,6435,750,0.879,-1.372,0.638,93.8,red,231,TRUE
687,1660173526.416,-1270,4154,882,5.145,0.055,-0.012,78.2,yellow,231,TRUE
688,1660173526.495,-1205,4570,2526,3.398,0.02,0.022,95.8,green,231,TRUE
689,1660173526.715,2584,6630,3350,4.468,-1.05,-0.039,93.9,blue,231,TRUE
690,1660173526.825,2119,6426,750,0.888,-1.371,0.614,87.7,red,231,TRUE
691,1660173526.912,-1270,4153,882,5.145,0.055,-0.012,93.7,yellow,231,TRUE
692,1660173527.006,-1190,4584,2526,3.398,0.02,0.022,93.8,green,231,TRUE
693,1660173528.376,2576,6608,3350,4.464,-1.077,-0.049,87.9,blue,231,TRUE
694,1660173528.464,2088,6400,750,0.892,-1.359,0.587,93.5,red,231,TRUE
695,1660173528.573,-1269,4150,882,5.145,0.055,-0.012,93.9,yellow,231,TRUE
696,1660173528.667,-1186,4581,2526,3.398,0.02,0.022,103.6,green,231,TRUE
697,1660173530.042,2565,6601,3350,4.464,-1.08,-0.043,93.6,blue,231,TRUE
698,1660173530.136,2080,6378,750,0.88,-1.373,0.619,99.7,red,231,TRUE
699,1660173530.247,-1226,4237,882,5.145,0.055,-0.012,77.3,yellow,231,TRUE
700,1660173530.324,-1172,4600,2526,3.398,0.02,0.022,93.8,green,231,TRUE
701,1660173531.673,2583,6611,3350,4.467,-1.071,-0.044,93.6,blue,231,TRUE
702,1660173532.848,-1227,4238,882,5.145,0.055,-0.012,78.4,yellow,231,TRUE
703,1660173533.228,2583,6638,3350,4.475,-1.072,-0.043,96.3,blue,231,TRUE
704,1660173533.327,2086,6334,750,0.864,-1.381,0.598,91.4,red,231,TRUE
705,1660173533.418,-1230,4239,882,5.145,0.055,-0.012,93.6,yellow,231,TRUE
706,1660173533.512,-1163,4614,2526,3.398,0.02,0.022,93.8,green,231,TRUE
707,1660173533.846,2131,6353,750,0.893,-1.346,0.542,96.9,red,231,TRUE
708,1660173534.041,-1158,4599,2526,3.398,0.02,0.022,93.9,green,231,TRUE
709,1660173534.229,2564,6647,3350,4.468,-1.078,-0.046,94.9,blue,231,TRUE
710,1660173534.324,2150,6370,750,0.904,-1.337,0.524,93.8,red,231,TRUE
711,1660173534.433,-1220,4241,882,5.145,0.055,-0.012,78.0,yellow,231,TRUE
712,1660173534.527,-1158,4591,2526,3.398,0.02,0.022,78.3,green,231,TRUE
713,1660173534.76,2546,6561,3350,4.467,-1.07,-0.044,98.0,blue,231,TRUE
714,1660173534.861,2171,6398,750,0.908,-1.342,0.537,95.4,red,231,TRUE
715,1660173534.972,-1223,4241,882,5.145,0.055,-0.012,77.9,yellow,231,TRUE
716,1660173535.05,-1164,4590,2526,3.398,0.02,0.022,93.8,green,231,TRUE
717,1660173535.264,2545,6522,3350,4.468,-1.069,-0.043,78.4,blue,231,TRUE
718,1660173535.343,2194,6395,750,0.875,-1.361,0.557,93.7,red,231,TRUE
719,1660173535.452,-1222,4241,882,5.145,0.055,-0.012,97.9,yellow,231,TRUE
720,1660173535.55,-1182,4570,2526,3.398,0.02,0.022,78.1,green,231,TRUE
721,1660173535.722,2538,6474,3350,4.468,-1.069,-0.044,94.0,blue,231,TRUE
722,1660173535.83,2208,6351,750,0.875,-1.367,0.56,95.8,red,231,TRUE
723,1660173535.941,-1219,4240,882,5.145,0.055,-0.012,78.3,yellow,231,TRUE
724,1660173536.035,-1176,4567,2526,3.398,0.02,0.022,82.0,green,231,TRUE
725,1660173536.263,2533,6483,3350,4.468,-1.084,-0.046,93.5,blue,231,TRUE
726,1660173536.357,2175,6336,750,0.879,-1.364,0.551,94.2,red,231,TRUE
727,1660173536.468,-1219,4239,882,5.145,0.055,-0.012,77.8,yellow,231,TRUE
728,1660173536.546,-1185,4564,2526,3.398,0.02,0.022,93.8,green,231,TRUE
729,1660173536.741,2533,6468,3350,4.467,-1.102,-0.047,79.1,blue,231,TRUE
730,1660173536.836,2175,6320,750,0.88,-1.362,0.545,93.7,red,231,TRUE
731,1660173536.93,-1222,4239,882,5.145,0.055,-0.012,78.1,yellow,231,TRUE
732,1660173537.023,-1186,4562,2526,3.398,0.02,0.022,80.9,green,231,TRUE
733,1660173537.198,2537,6451,3350,4.468,-1.08,-0.048,109.5,blue,231,TRUE
734,1660173537.433,-1223,4245,882,5.145,0.055,-0.012,78.2,yellow,231,TRUE
735,1660173537.527,-1189,4559,2526,3.398,0.02,0.022,78.1,green,231,TRUE
736,1660173537.773,2544,6427,3350,4.454,-1.07,-0.055,93.5,blue,231,TRUE
737,1660173537.866,2135,6206,750,0.904,-1.355,0.544,98.9,red,231,TRUE
738,1660173538.084,-1193,4559,2526,3.398,0.02,0.022,78.3,green,231,TRUE
739,1660173538.274,2550,6455,3350,4.468,-1.066,-0.05,87.5,blue,231,TRUE
740,1660173538.361,2140,6209,750,0.926,-1.349,0.536,93.7,red,231,TRUE
741,1660173538.471,-1216,4242,882,5.145,0.055,-0.012,93.7,yellow,231,TRUE
742,1660173538.564,-1199,4548,2526,3.398,0.02,0.022,98.3,green,231,TRUE
743,1660173538.756,2561,6464,3350,4.476,-1.069,-0.049,109.4,blue,231,TRUE
744,1660173538.881,2118,6215,750,0.962,-1.347,0.592,86.1,red,231,TRUE
745,1660173538.967,-1249,4218,882,5.145,0.055,-0.012,93.7,yellow,231,TRUE
746,1660173539.077,-1205,4539,2526,3.398,0.02,0.022,78.3,green,231,TRUE
747,1660173539.424,2124,6233,750,0.989,-1.349,0.591,94.8,red,231,TRUE
748,1660173539.633,-1218,4517,2526,3.398,0.02,0.022,78.2,green,231,TRUE
749,1660173539.819,2539,6461,3350,4.489,-1.082,-0.041,96.9,blue,231,TRUE
750,1660173539.932,2124,6238,750,0.877,-1.383,0.603,93.9,red,231,TRUE
751,1660173540.041,-1244,4218,882,5.145,0.055,-0.012,79.6,yellow,231,TRUE
752,1660173540.122,-1224,4530,2526,3.398,0.02,0.022,87.4,green,231,TRUE
753,1660173540.319,2540,6444,3350,4.485,-1.076,-0.04,93.9,blue,231,TRUE
754,1660173540.412,2114,6222,750,0.827,-1.398,0.657,103.6,red,231,TRUE
755,1660173540.531,-1258,4214,882,5.145,0.055,-0.012,78.1,yellow,231,TRUE
756,1660173540.61,-1210,4552,2526,3.398,0.02,0.022,87.1,green,231,TRUE
757,1660173540.851,2548,6462,3350,4.488,-1.058,-0.036,84.1,blue,231,TRUE
758,1660173540.951,2103,6209,750,0.85,-1.408,0.742,99.0,red,231,TRUE
759,1660173541.052,-1258,4214,882,5.145,0.055,-0.012,90.3,yellow,231,TRUE
760,1660173541.143,-1207,4553,2526,3.398,0.02,0.022,78.1,green,231,TRUE
761,1660173541.33,2566,6451,3350,4.466,-1.055,-0.038,94.0,blue,231,TRUE
762,1660173541.424,2094,6206,750,0.86,-1.394,0.621,93.7,red,231,TRUE
763,1660173541.533,-1256,4212,882,5.145,0.055,-0.012,93.7,yellow,231,TRUE
764,1660173541.627,-1180,4577,2526,3.398,0.02,0.022,88.3,green,231,TRUE
765,1660173541.809,2562,6500,3350,4.469,-1.058,-0.041,93.5,blue,231,TRUE
766,1660173541.918,2098,6212,750,0.965,-1.408,0.556,94.9,red,231,TRUE
767,1660173542.029,-1255,4213,882,5.145,0.055,-0.012,78.1,yellow,231,TRUE
768,1660173542.107,-1196,4556,2526,3.398,0.02,0.022,93.9,green,231,TRUE
769,1660173542.47,2131,6245,750,1.332,-1.325,0.674,93.6,red,231,TRUE
770,1660173542.58,-1255,4213,882,5.145,0.055,-0.012,87.6,yellow,231,TRUE
771,1660173542.667,-1181,4567,2526,3.398,0.02,0.022,82.1,green,231,TRUE
772,1660173542.843,2491,6482,3350,4.46,-1.092,-0.046,104.6,blue,231,TRUE
773,1660173542.963,2140,6265,750,1.382,-1.325,0.719,93.7,red,231,TRUE
774,1660173543.057,-1253,4214,882,5.145,0.055,-0.012,93.8,yellow,231,TRUE
775,1660173543.151,-1192,4556,2526,3.398,0.02,0.022,108.1,green,231,TRUE
776,1660173543.447,2219,6385,750,1.155,-1.368,0.706,98.5,red,231,TRUE
777,1660173543.571,-1250,4208,882,5.145,0.055,-0.012,77.8,yellow,231,TRUE
778,1660173543.648,-1210,4533,2526,3.398,0.02,0.022,78.0,green,231,TRUE
779,1660173543.882,2531,6501,3350,4.449,-1.07,-0.052,78.3,blue,231,TRUE
780,1660173543.976,2227,6400,750,0.98,-1.384,0.651,93.7,red,231,TRUE
781,1660173544.085,-1253,4209,882,5.145,0.055,-0.012,80.0,yellow,231,TRUE
782,1660173544.411,2531,6534,3350,4.465,-1.066,-0.058,96.9,blue,231,TRUE
783,1660173544.508,2266,6481,750,0.975,-1.381,0.634,93.8,red,231,TRUE
784,1660173544.617,-1250,4209,882,5.145,0.055,-0.012,95.0,yellow,231,TRUE
785,1660173544.713,-1205,4535,2526,3.398,0.02,0.022,81.7,green,231,TRUE
786,1660173545.013,2298,6494,750,0.984,-1.376,0.626,99.0,red,231,TRUE
787,1660173545.112,-1219,4232,882,5.145,0.055,-0.012,94.0,yellow,231,TRUE
788,1660173545.206,-1210,4542,2526,3.398,0.02,0.022,93.7,green,231,TRUE
789,1660173545.449,2520,6548,3350,4.466,-1.068,-0.053,93.7,blue,231,TRUE
790,1660173545.543,2300,6501,750,1.037,-1.365,0.745,93.7,red,231,TRUE
791,1660173545.738,-1198,4563,2526,3.398,0.02,0.022,94.0,green,231,TRUE
792,1660173545.973,2546,6562,3350,4.471,-1.058,-0.053,77.9,blue,231,TRUE
793,1660173546.067,2314,6510,750,0.959,-1.348,0.469,93.5,red,231,TRUE
794,1660173546.16,-1255,4207,882,5.145,0.055,-0.012,94.0,yellow,231,TRUE
795,1660173546.254,-1207,4548,2526,3.398,0.02,0.022,87.5,green,231,TRUE
796,1660173546.435,2550,6586,3350,4.472,-1.05,-0.053,93.9,blue,231,TRUE
797,1660173546.545,2328,6556,750,1.02,-1.341,0.699,92.4,red,231,TRUE
798,1660173546.637,-1251,4200,882,5.145,0.055,-0.012,93.7,yellow,231,TRUE
799,1660173546.731,-1210,4540,2526,3.398,0.02,0.022,98.3,green,231,TRUE
800,1660173547.01,2556,6560,3350,4.472,-1.048,-0.055,93.9,blue,231,TRUE
801,1660173547.119,2320,6586,750,0.965,-1.346,0.598,95.4,red,231,TRUE
802,1660173547.216,-1247,4203,882,5.145,0.055,-0.012,92.6,yellow,231,TRUE
803,1660173547.308,-1202,4541,2526,3.398,0.02,0.022,78.0,green,231,TRUE
804,1660173547.48,2556,6580,3350,4.473,-1.052,-0.057,80.1,blue,231,TRUE
805,1660173547.576,2326,6593,750,0.913,-1.37,0.614,93.6,red,231,TRUE
806,1660173547.669,-1247,4205,882,5.145,0.055,-0.012,93.7,yellow,231,TRUE
807,1660173547.763,-1204,4540,2526,3.398,0.02,0.022,100.9,green,231,TRUE
808,1660173547.989,2550,6595,3350,4.473,-1.059,-0.055,93.9,blue,231,TRUE
809,1660173548.098,2319,6594,750,0.902,-1.371,0.611,97.8,red,231,TRUE
810,1660173548.196,-1247,4205,882,5.145,0.055,-0.012,93.6,yellow,231,TRUE
811,1660173548.29,-1215,4532,2526,3.398,0.02,0.022,93.8,green,231,TRUE
812,1660173548.575,2610,6649,3350,4.478,-1.07,-0.055,93.7,blue,231,TRUE
813,1660173548.668,2288,6556,750,0.92,-1.368,0.639,94.2,red,231,TRUE
814,1660173548.764,-1247,4199,882,5.145,0.055,-0.012,85.9,yellow,231,TRUE
815,1660173548.853,-1246,4502,2526,3.398,0.02,0.022,79.6,green,231,TRUE
816,1660173549.057,2628,6703,3350,4.479,-1.08,-0.053,90.1,blue,231,TRUE
817,1660173549.163,2244,6542,750,0.91,-1.36,0.627,93.7,red,231,TRUE
818,1660173549.257,-1247,4198,882,5.145,0.055,-0.012,78.1,yellow,231,TRUE
819,1660173549.335,-1243,4499,2526,3.398,0.02,0.022,79.5,green,231,TRUE
820,1660173549.524,2594,6671,3350,4.478,-1.074,-0.053,78.2,blue,231,TRUE
821,1660173549.618,2199,6543,750,0.92,-1.354,0.626,105.9,red,231,TRUE
822,1660173549.724,-1247,4198,882,5.145,0.055,-0.012,78.1,yellow,231,TRUE
823,1660173549.802,-1244,4496,2526,3.398,0.02,0.022,94.0,green,231,TRUE
824,1660173550.055,2599,6708,3350,4.479,-1.071,-0.05,93.5,blue,231,TRUE
825,1660173550.164,2164,6532,750,0.926,-1.344,0.617,93.8,red,231,TRUE
826,1660173550.258,-1311,4050,882,5.145,0.055,-0.012,80.1,yellow,231,TRUE
827,1660173550.339,-1257,4488,2526,3.398,0.02,0.022,79.2,green,231,TRUE
828,1660173550.559,2603,6720,3350,4.493,-1.064,-0.047,98.2,blue,231,TRUE
829,1660173550.675,2150,6445,750,0.996,-1.338,0.858,93.8,red,231,TRUE
830,1660173550.769,-1316,4057,882,5.145,0.055,-0.012,93.6,yellow,231,TRUE
831,1660173550.862,-1254,4490,2526,3.398,0.02,0.022,99.8,green,231,TRUE
832,1660173551.071,2629,6700,3350,4.491,-1.055,-0.049,78.1,blue,231,TRUE
