,timestamp,x,y,z,yaw,roll,pitch,latency,student,session,success
0,1660184198.875,906,-1274,3350,0.1,-1.414,0.209,90.6,blue,233,TRUE
1,1660184198.965,877,-1190,750,5.878,-1.275,2.594,93.7,red,233,TRUE
2,1660184199.059,3729,-2587,882,5.058,-0.974,-0.108,93.7,yellow,233,TRUE
3,1660184199.153,2819,-2506,2526,5.474,-0.969,0.264,91.9,green,233,TRUE
4,1660184199.401,1038,-1085,3350,0.087,-1.427,0.269,95.1,blue,233,TRUE
5,1660184199.496,1084,-889,750,6.022,-1.284,2.361,85.8,red,233,TRUE
6,1660184199.582,3737,-2593,882,5.057,-0.98,-0.101,93.7,yellow,233,TRUE
7,1660184200.973,1221,-810,3350,6.111,-1.35,0.132,102.7,blue,233,TRUE
8,1660184201.076,1322,-501,750,5.675,-1.246,2.338,93.7,red,233,TRUE
9,1660184201.169,3736,-2593,882,5.057,-0.994,-0.105,93.7,yellow,233,TRUE
10,1660184202.527,1405,-475,3350,5.593,-1.467,0.038,100.9,blue,233,TRUE
11,1660184202.628,1550,-94,750,4.633,-1.321,2.476,93.7,red,233,TRUE
12,1660184202.722,3752,-2587,882,5.06,-0.983,-0.097,78.1,yellow,233,TRUE
13,1660184202.8,2773,-2491,2526,5.475,-0.94,0.249,108.9,green,233,TRUE
14,1660184202.988,1590,-123,3350,5.86,-1.504,0.051,93.7,blue,233,TRUE
15,1660184203.082,1806,275,750,4.468,-1.312,2.458,93.8,red,233,TRUE
16,1660184203.175,3749,-2590,882,5.06,-0.995,-0.099,86.1,yellow,233,TRUE
17,1660184203.277,2741,-2476,2526,5.476,-0.94,0.252,78.1,green,233,TRUE
18,1660184203.465,1789,187,3350,5.787,-1.502,0.049,93.8,blue,233,TRUE
19,1660184203.558,2075,648,750,4.445,-1.319,2.461,93.7,red,233,TRUE
20,1660184204.729,2640,-2407,2526,5.477,-0.942,0.251,81.6,green,233,TRUE
21,1660184205.014,1967,528,3350,5.573,-1.486,0.062,92.6,blue,233,TRUE
22,1660184205.207,3727,-2583,882,5.065,-0.993,-0.086,93.7,yellow,233,TRUE
23,1660184205.301,2593,-2390,2526,5.477,-0.942,0.251,93.6,green,233,TRUE
24,1660184206.629,2134,856,3350,5.429,-1.17,2.595,81.5,blue,233,TRUE
25,1660184206.71,2586,1363,750,4.663,-1.301,2.424,93.7,red,233,TRUE
26,1660184206.804,3733,-2587,882,5.065,-1.002,-0.087,93.7,yellow,233,TRUE
27,1660184206.898,2561,-2376,2526,5.476,-0.939,0.25,81.6,green,233,TRUE
28,1660184208.215,2310,1222,3350,5.549,-1.397,0.458,93.8,blue,233,TRUE
29,1660184208.308,2808,1775,750,4.934,-1.223,2.403,93.7,red,233,TRUE
30,1660184208.402,3727,-2581,882,5.096,-0.905,-0.086,94.6,yellow,233,TRUE
31,1660184209.755,2514,1562,3350,5.541,-1.425,0.392,93.7,blue,233,TRUE
32,1660184209.849,3001,2187,750,4.885,-1.282,2.533,93.8,red,233,TRUE
33,1660184213.334,2702,1873,3350,5.19,-1.524,0.032,92.7,blue,233,TRUE
34,1660184213.426,3127,2427,750,4.862,-1.325,2.482,93.7,red,233,TRUE
35,1660184214.622,2603,-2376,2526,5.467,-0.889,0.216,85.0,green,233,TRUE
36,1660184215.911,2775,2039,3350,5.399,-1.373,0.251,93.7,blue,233,TRUE
37,1660184216.005,3180,2670,750,4.237,-1.321,2.45,93.8,red,233,TRUE
38,1660184217.206,2622,-2385,2526,5.468,-0.894,0.219,93.7,green,233,TRUE
39,1660184218.488,2847,2217,3350,5.368,-1.418,0.261,93.7,blue,233,TRUE
40,1660184218.581,3213,2857,750,4.417,-1.263,2.371,94.5,red,233,TRUE
41,1660184219.042,2907,2356,3350,5.37,-1.421,0.265,93.8,blue,233,TRUE
42,1660184219.136,3230,3003,750,4.44,-1.258,2.326,93.7,red,233,TRUE
43,1660184219.23,2651,-2377,2526,5.468,-0.89,0.218,91.4,green,233,TRUE
44,1660184220.541,2916,2400,3350,5.352,-1.41,0.229,93.7,blue,233,TRUE
45,1660184220.634,3230,3063,750,4.415,-1.264,2.359,93.7,red,233,TRUE
46,1660184221.807,2679,-2384,2526,5.468,-0.888,0.217,93.8,green,233,TRUE
47,1660184222.089,2902,2401,3350,5.355,-1.413,0.268,93.8,blue,233,TRUE
48,1660184222.182,3236,3087,750,4.372,-1.26,2.393,93.7,red,233,TRUE
49,1660184223.414,2743,-2412,2526,5.468,-0.885,0.216,93.7,green,233,TRUE
50,1660184223.68,2886,2388,3350,5.341,-1.42,0.272,93.7,blue,233,TRUE
51,1660184223.774,3219,3130,750,4.368,-1.268,2.362,95.1,red,233,TRUE
52,1660184223.87,3710,-2584,882,4.891,-1.02,-0.122,83.3,yellow,233,TRUE
53,1660184223.953,2816,-2437,2526,5.468,-0.887,0.217,93.7,green,233,TRUE
54,1660184224.22,2873,2390,3350,5.341,-1.414,0.269,96.0,blue,233,TRUE
55,1660184224.316,3214,3171,750,4.342,-1.277,2.385,93.8,red,233,TRUE
56,1660184224.41,3676,-2557,882,4.897,-1.0,-0.113,128.4,yellow,233,TRUE
57,1660184224.538,2931,-2511,2526,5.468,-0.892,0.219,93.8,green,233,TRUE
58,1660184225.773,2871,2381,3350,5.337,-1.408,0.269,93.7,blue,233,TRUE
59,1660184225.867,3237,3242,750,4.409,-1.293,2.311,93.8,red,233,TRUE
60,1660184227.069,2994,-2537,2526,5.468,-0.886,0.217,93.7,green,233,TRUE
61,1660184227.344,2866,2372,3350,5.335,-1.406,0.266,93.7,blue,233,TRUE
62,1660184227.437,3241,3295,750,4.415,-1.29,2.281,93.8,red,233,TRUE
63,1660184227.531,3656,-2559,882,4.893,-1.006,-0.127,91.6,yellow,233,TRUE
64,1660184227.623,3061,-2565,2526,5.468,-0.887,0.217,93.7,green,233,TRUE
65,1660184227.913,2843,2331,3350,5.334,-1.406,0.268,93.8,blue,233,TRUE
66,1660184228.007,3203,3323,750,4.403,-1.286,2.303,93.7,red,233,TRUE
67,1660184229.237,3073,-2572,2526,5.468,-0.886,0.217,93.7,green,233,TRUE
68,1660184229.507,2838,2309,3350,5.336,-1.403,0.242,93.7,blue,233,TRUE
69,1660184229.6,3180,3344,750,4.425,-1.285,2.315,93.7,red,233,TRUE
70,1660184230.825,3109,-2577,2526,5.468,-0.885,0.217,93.7,green,233,TRUE
71,1660184231.096,2844,2331,3350,5.33,-1.406,0.248,93.7,blue,233,TRUE
72,1660184231.19,3129,3359,750,4.436,-1.288,2.294,94.7,red,233,TRUE
73,1660184232.428,3094,-2580,2526,5.469,-0.898,0.22,94.1,green,233,TRUE
74,1660184232.689,2838,2334,3350,5.327,-1.401,0.241,93.7,blue,233,TRUE
75,1660184232.798,3129,3366,750,4.459,-1.276,2.307,93.1,red,233,TRUE
76,1660184234.051,3093,-2580,2526,5.471,-0.885,0.221,88.4,green,233,TRUE
77,1660184235.37,2836,2333,3350,5.318,-1.409,0.256,93.7,blue,233,TRUE
78,1660184235.464,3124,3338,750,4.476,-1.261,2.321,78.1,red,233,TRUE
79,1660184235.542,3646,-2532,882,4.935,-1.196,-2.675,92.8,yellow,233,TRUE
80,1660184235.635,3080,-2593,2526,5.512,-0.905,0.303,93.7,green,233,TRUE
81,1660184235.963,2826,2309,3350,5.317,-1.412,0.259,93.7,blue,233,TRUE
82,1660184236.057,3112,3349,750,4.468,-1.249,2.347,93.7,red,233,TRUE
83,1660184236.151,3623,-2488,882,5.011,-1.416,-2.411,95.4,yellow,233,TRUE
84,1660184236.246,3061,-2580,2526,5.479,-1.028,0.293,93.7,green,233,TRUE
85,1660184237.529,2820,2305,3350,5.311,-1.402,0.239,93.8,blue,233,TRUE
86,1660184237.622,3116,3346,750,4.469,-1.246,2.367,93.7,red,233,TRUE
87,1660184237.716,3603,-2424,882,4.595,-1.374,-1.42,97.3,yellow,233,TRUE
88,1660184237.815,3058,-2566,2526,5.233,-1.474,-0.079,82.3,green,233,TRUE
89,1660184239.145,2824,2308,3350,5.305,-1.404,0.244,93.7,blue,233,TRUE
90,1660184239.239,3101,3355,750,4.512,-1.249,2.297,92.0,red,233,TRUE
91,1660184239.331,3569,-2349,882,4.61,-1.441,-0.966,93.7,yellow,233,TRUE
92,1660184239.425,2991,-2485,2526,4.553,-1.368,-0.634,93.7,green,233,TRUE
93,1660184240.772,2832,2317,3350,5.299,-1.412,0.235,96.4,blue,233,TRUE
94,1660184240.869,3111,3359,750,4.551,-1.251,2.296,93.7,red,233,TRUE
95,1660184240.962,3523,-2279,882,4.472,-1.402,-0.9,93.8,yellow,233,TRUE
96,1660184242.305,2836,2342,3350,5.28,-1.402,0.196,91.7,blue,233,TRUE
97,1660184242.397,3094,3373,750,4.53,-1.249,2.329,93.8,red,233,TRUE
98,1660184242.506,3510,-2213,882,4.418,-1.38,-0.926,93.7,yellow,233,TRUE
99,1660184243.843,2839,2359,3350,5.533,-1.419,0.145,90.5,blue,233,TRUE
100,1660184243.934,3095,3417,750,5.21,-1.305,2.75,93.7,red,233,TRUE
101,1660184244.028,3484,-2147,882,4.411,-1.368,-0.862,93.7,yellow,233,TRUE
102,1660184244.121,2908,-2380,2526,5.63,-1.333,-0.164,84.7,green,233,TRUE
103,1660184244.3,2857,2420,3350,5.773,-1.436,0.373,93.7,blue,233,TRUE
104,1660184244.409,3114,3520,750,5.557,-1.275,2.783,93.6,red,233,TRUE
105,1660184244.517,3394,-2091,882,4.411,-1.367,-0.85,82.2,yellow,233,TRUE
106,1660184244.615,2838,-2271,2526,5.537,-1.326,-0.552,78.1,green,233,TRUE
107,1660184244.775,2865,2519,3350,5.772,-1.431,1.249,83.9,blue,233,TRUE
108,1660184244.859,3141,3628,750,5.641,-1.212,2.359,93.7,red,233,TRUE
109,1660184244.968,3385,-2028,882,4.414,-1.369,-0.855,78.1,yellow,233,TRUE
110,1660184245.046,2756,-2158,2526,5.539,-1.288,-0.658,92.3,green,233,TRUE
111,1660184245.326,2882,2653,3350,5.724,-1.469,0.081,103.0,blue,233,TRUE
112,1660184245.429,3169,3767,750,5.322,-1.251,2.507,93.7,red,233,TRUE
113,1660184245.538,3340,-1950,882,4.419,-1.369,-0.851,78.1,yellow,233,TRUE
114,1660184245.617,2663,-2042,2526,5.522,-1.272,-0.722,79.5,green,233,TRUE
115,1660184245.861,2887,2830,3350,5.628,-1.425,0.857,93.7,blue,233,TRUE
116,1660184245.97,3181,3938,750,5.525,-1.261,2.403,91.2,red,233,TRUE
117,1660184246.061,3241,-1893,882,4.419,-1.369,-0.851,78.1,yellow,233,TRUE
118,1660184246.139,2579,-1922,2526,5.502,-1.272,-0.725,93.7,green,233,TRUE
119,1660184246.4,2877,3080,3350,5.379,-1.412,0.35,93.7,blue,233,TRUE
120,1660184246.509,3169,4134,750,5.295,-1.233,2.421,93.7,red,233,TRUE
121,1660184246.618,3175,-1833,882,4.419,-1.369,-0.852,75.8,yellow,233,TRUE
122,1660184246.694,2478,-1814,2526,5.52,-1.268,-0.635,78.1,green,233,TRUE
123,1660184246.941,2853,3318,3350,5.58,-1.392,0.213,96.1,blue,233,TRUE
124,1660184247.037,3144,4402,750,5.442,-1.314,2.579,93.7,red,233,TRUE
125,1660184247.131,3146,-1797,882,4.421,-1.368,-0.837,78.1,yellow,233,TRUE
126,1660184247.209,2386,-1691,2526,5.507,-1.264,-0.576,96.1,green,233,TRUE
127,1660184248.51,2819,3616,3350,5.573,-1.398,0.228,93.7,blue,233,TRUE
128,1660184248.603,3081,4714,750,4.567,-1.297,2.486,93.7,red,233,TRUE
129,1660184248.697,3076,-1769,882,4.424,-1.367,-0.819,79.5,yellow,233,TRUE
130,1660184248.779,2303,-1576,2526,5.547,-1.294,-0.431,86.3,green,233,TRUE
131,1660184250.106,2786,3927,3350,5.553,-1.414,0.257,93.7,blue,233,TRUE
132,1660184250.2,3052,5021,750,4.592,-1.265,2.498,93.7,red,233,TRUE
133,1660184250.294,3036,-1767,882,4.424,-1.368,-0.828,94.5,yellow,233,TRUE
134,1660184250.388,2240,-1463,2526,5.627,-1.297,-0.379,93.7,green,233,TRUE
135,1660184251.64,2746,4250,3350,5.616,-1.405,0.337,93.7,blue,233,TRUE
136,1660184251.733,3021,5315,750,4.646,-1.246,2.474,94.3,red,233,TRUE
137,1660184251.834,3018,-1779,882,4.422,-1.368,-0.824,76.6,yellow,233,TRUE
138,1660184251.91,2193,-1363,2526,5.634,-1.3,-0.387,93.7,green,233,TRUE
139,1660184252.161,2702,4526,3350,5.591,-1.41,0.364,83.0,blue,233,TRUE
140,1660184252.244,2979,5594,750,4.663,-1.257,2.424,93.7,red,233,TRUE
141,1660184252.337,3002,-1794,882,4.424,-1.366,-0.804,78.1,yellow,233,TRUE
142,1660184252.415,2128,-1274,2526,5.644,-1.301,-0.388,95.1,green,233,TRUE
143,1660184252.62,2659,4834,3350,5.634,-1.404,0.37,93.7,blue,233,TRUE
144,1660184252.714,2951,5889,750,4.641,-1.268,2.426,94.1,red,233,TRUE
145,1660184252.809,2967,-1804,882,4.423,-1.366,-0.794,88.7,yellow,233,TRUE
146,1660184252.897,2121,-1246,2526,5.642,-1.301,-0.386,93.7,green,233,TRUE
147,1660184253.087,2611,5127,3350,5.594,-1.403,0.343,86.3,blue,233,TRUE
148,1660184253.173,2907,6142,750,4.65,-1.272,2.434,93.7,red,233,TRUE
149,1660184253.267,2946,-1811,882,4.423,-1.366,-0.797,93.7,yellow,233,TRUE
150,1660184253.361,2118,-1244,2526,5.643,-1.301,-0.387,91.0,green,233,TRUE
151,1660184253.655,2558,5374,3350,5.574,-1.405,0.325,88.7,blue,233,TRUE
152,1660184253.743,2829,6345,750,4.602,-1.273,2.448,93.1,red,233,TRUE
153,1660184253.837,2955,-1790,882,4.423,-1.366,-0.794,78.1,yellow,233,TRUE
154,1660184253.915,2112,-1247,2526,5.624,-1.297,-0.398,95.2,green,233,TRUE
155,1660184254.168,2527,5648,3350,5.58,-1.404,0.312,93.8,blue,233,TRUE
156,1660184254.262,2766,6537,750,4.641,-1.263,2.434,94.3,red,233,TRUE
157,1660184254.357,2906,-1785,882,4.423,-1.366,-0.794,81.4,yellow,233,TRUE
158,1660184254.438,2117,-1256,2526,5.622,-1.297,-0.393,93.7,green,233,TRUE
159,1660184254.706,2468,5818,3350,5.6,-1.406,0.314,78.1,blue,233,TRUE
160,1660184254.784,2700,6679,750,4.707,-1.25,2.376,84.5,red,233,TRUE
161,1660184254.868,2898,-1777,882,4.423,-1.366,-0.794,92.8,yellow,233,TRUE
162,1660184254.961,2134,-1264,2526,5.627,-1.296,-0.392,93.8,green,233,TRUE
163,1660184255.227,2418,5943,3350,5.612,-1.405,0.312,88.2,blue,233,TRUE
164,1660184255.315,2651,6784,750,4.72,-1.25,2.375,93.7,red,233,TRUE
165,1660184255.409,2927,-1777,882,4.423,-1.366,-0.794,93.7,yellow,233,TRUE
166,1660184255.503,2135,-1276,2526,5.625,-1.296,-0.389,92.9,green,233,TRUE
167,1660184255.785,2396,6003,3350,5.618,-1.403,0.312,88.0,blue,233,TRUE
168,1660184255.978,2946,-1742,882,4.423,-1.366,-0.794,93.8,yellow,233,TRUE
169,1660184256.071,2154,-1274,2526,5.615,-1.295,-0.416,94.9,green,233,TRUE
170,1660184256.326,2375,6065,3350,5.628,-1.401,0.311,93.7,blue,233,TRUE
171,1660184256.419,2603,6900,750,4.72,-1.261,2.363,96.8,red,233,TRUE
172,1660184256.516,2922,-1723,882,4.423,-1.366,-0.793,93.7,yellow,233,TRUE
173,1660184256.61,2168,-1287,2526,5.625,-1.268,-0.454,78.1,green,233,TRUE
174,1660184256.885,2373,6082,3350,5.635,-1.402,0.312,78.1,blue,233,TRUE
175,1660184256.963,2632,6874,750,4.71,-1.265,2.38,93.7,red,233,TRUE
176,1660184257.057,2998,-1750,882,4.424,-1.366,-0.794,93.5,yellow,233,TRUE
177,1660184257.15,2151,-1297,2526,5.512,-1.271,-0.622,78.1,green,233,TRUE
178,1660184257.523,2634,6886,750,4.713,-1.254,2.377,93.8,red,233,TRUE
179,1660184257.616,2971,-1756,882,4.425,-1.366,-0.796,78.1,yellow,233,TRUE
180,1660184257.71,2133,-1310,2526,5.459,-1.269,-0.745,73.7,green,233,TRUE
181,1660184257.963,2364,6073,3350,5.633,-1.406,0.323,94.0,blue,233,TRUE
182,1660184258.162,3009,-1772,882,4.423,-1.368,-0.805,93.7,yellow,233,TRUE
183,1660184258.256,2125,-1312,2526,5.497,-1.27,-0.733,79.9,green,233,TRUE
184,1660184258.501,2360,6074,3350,5.632,-1.405,0.321,93.7,blue,233,TRUE
185,1660184258.594,2612,6961,750,4.706,-1.26,2.37,90.9,red,233,TRUE
186,1660184258.685,3002,-1792,882,4.421,-1.367,-0.776,78.1,yellow,233,TRUE
187,1660184258.779,2127,-1304,2526,5.509,-1.262,-0.629,77.0,green,233,TRUE
188,1660184259.023,2364,6058,3350,5.633,-1.402,0.319,78.1,blue,233,TRUE
189,1660184259.102,2614,6996,750,4.676,-1.257,2.416,93.7,red,233,TRUE
190,1660184259.195,3000,-1777,882,4.424,-1.367,-0.76,106.1,yellow,233,TRUE
191,1660184259.301,2137,-1300,2526,5.524,-1.257,-0.407,78.1,green,233,TRUE
192,1660184259.551,2369,6044,3350,5.632,-1.401,0.325,88.8,blue,233,TRUE
193,1660184259.64,2622,7007,750,4.684,-1.253,2.424,93.7,red,233,TRUE
194,1660184259.749,3022,-1776,882,4.424,-1.369,-0.761,93.3,yellow,233,TRUE
195,1660184259.844,2142,-1291,2526,5.622,-1.277,-0.314,89.7,green,233,TRUE
196,1660184260.105,2377,6037,3350,5.632,-1.401,0.321,94.5,blue,233,TRUE
197,1660184260.201,2631,7012,750,4.66,-1.259,2.411,81.4,red,233,TRUE
198,1660184260.282,3032,-1764,882,4.419,-1.369,-0.76,93.8,yellow,233,TRUE
199,1660184260.376,2149,-1297,2526,5.74,-1.284,-0.24,93.7,green,233,TRUE
200,1660184260.628,2382,6063,3350,5.631,-1.402,0.319,93.7,blue,233,TRUE
201,1660184260.722,2640,7015,750,4.691,-1.271,2.405,94.3,red,233,TRUE
202,1660184260.934,2166,-1297,2526,5.722,-1.29,-0.191,78.1,green,233,TRUE
203,1660184261.183,2377,6015,3350,5.627,-1.401,0.323,93.7,blue,233,TRUE
204,1660184261.276,2655,7037,750,4.682,-1.283,2.349,93.8,red,233,TRUE
205,1660184261.37,3062,-1764,882,4.412,-1.368,-0.749,87.1,yellow,233,TRUE
206,1660184261.457,2186,-1317,2526,5.743,-1.293,-0.183,93.7,green,233,TRUE
207,1660184261.857,2658,7041,750,4.682,-1.293,2.344,93.7,red,233,TRUE
208,1660184261.951,3090,-1773,882,4.41,-1.365,-0.735,95.1,yellow,233,TRUE
209,1660184262.048,2198,-1327,2526,5.744,-1.287,-0.159,79.1,green,233,TRUE
210,1660184262.299,2390,5986,3350,5.623,-1.404,0.337,95.0,blue,233,TRUE
211,1660184262.394,2668,7071,750,4.679,-1.289,2.354,93.7,red,233,TRUE
212,1660184262.488,3101,-1769,882,4.408,-1.361,-0.723,93.7,yellow,233,TRUE
213,1660184262.581,2194,-1345,2526,5.754,-1.282,-0.153,114.3,green,233,TRUE
214,1660184262.873,2397,5999,3350,5.616,-1.404,0.344,94.3,blue,233,TRUE
215,1660184262.969,2665,7062,750,4.687,-1.281,2.386,89.0,red,233,TRUE
216,1660184263.058,3119,-1793,882,4.408,-1.361,-0.723,93.7,yellow,233,TRUE
217,1660184263.151,2205,-1351,2526,5.752,-1.276,-0.155,126.7,green,233,TRUE
218,1660184263.458,2394,6010,3350,5.603,-1.402,0.345,93.8,blue,233,TRUE
219,1660184263.552,2691,7084,750,4.693,-1.273,2.367,91.0,red,233,TRUE
220,1660184263.643,3183,-1807,882,4.41,-1.361,-0.725,93.7,yellow,233,TRUE
221,1660184265.062,2396,6012,3350,5.613,-1.404,0.36,95.8,blue,233,TRUE
222,1660184265.158,2673,7052,750,4.709,-1.286,2.354,93.7,red,233,TRUE
223,1660184265.252,3142,-1774,882,4.428,-1.36,-0.697,93.8,yellow,233,TRUE
224,1660184265.345,2237,-1361,2526,5.744,-1.29,-0.164,94.0,green,233,TRUE
225,1660184265.602,2398,6009,3350,5.609,-1.404,0.364,93.7,blue,233,TRUE
226,1660184265.696,2708,7011,750,4.698,-1.286,2.376,94.0,red,233,TRUE
227,1660184265.806,3171,-1754,882,4.443,-1.367,-0.688,85.4,yellow,233,TRUE
228,1660184265.891,2251,-1370,2526,5.745,-1.29,-0.165,109.3,green,233,TRUE
229,1660184266.173,2402,6026,3350,5.608,-1.405,0.367,93.7,blue,233,TRUE
230,1660184266.267,2712,6997,750,4.684,-1.282,2.398,94.4,red,233,TRUE
231,1660184266.363,3134,-1728,882,4.453,-1.37,-0.685,95.6,yellow,233,TRUE
232,1660184267.693,2406,6006,3350,5.605,-1.405,0.372,93.7,blue,233,TRUE
233,1660184267.786,2718,6977,750,4.701,-1.281,2.369,93.0,red,233,TRUE
234,1660184268.016,2239,-1390,2526,5.745,-1.28,-0.143,93.7,green,233,TRUE
235,1660184268.286,2396,6049,3350,5.598,-1.401,0.358,93.7,blue,233,TRUE
236,1660184268.38,2724,6981,750,4.705,-1.27,2.37,93.8,red,233,TRUE
237,1660184268.474,3135,-1695,882,4.461,-1.369,-0.694,95.2,yellow,233,TRUE
238,1660184268.569,2231,-1400,2526,5.743,-1.289,-0.152,109.3,green,233,TRUE
239,1660184268.874,2394,6028,3350,5.591,-1.401,0.34,78.1,blue,233,TRUE
240,1660184268.952,2746,6993,750,4.706,-1.271,2.382,93.8,red,233,TRUE
241,1660184269.046,3110,-1681,882,4.473,-1.389,-0.754,94.9,yellow,233,TRUE
242,1660184270.424,2393,6058,3350,5.575,-1.396,0.315,93.7,blue,233,TRUE
243,1660184270.518,2747,6983,750,4.701,-1.27,2.367,93.7,red,233,TRUE
244,1660184270.612,3105,-1673,882,4.465,-1.364,-0.7,96.8,yellow,233,TRUE
245,1660184271.999,2387,6055,3350,5.593,-1.4,0.32,93.7,blue,233,TRUE
246,1660184272.093,2752,6984,750,4.669,-1.271,2.402,95.1,red,233,TRUE
247,1660184272.19,3082,-1657,882,4.458,-1.364,-0.717,94.1,yellow,233,TRUE
248,1660184273.595,2397,6013,3350,5.617,-1.401,0.326,78.1,blue,233,TRUE
249,1660184273.673,2761,7007,750,4.684,-1.269,2.371,101.7,red,233,TRUE
250,1660184273.775,3081,-1676,882,4.461,-1.362,-0.716,83.8,yellow,233,TRUE
251,1660184273.906,2186,-1385,2526,5.752,-1.276,-0.154,93.8,green,233,TRUE
252,1660184274.165,2389,6058,3350,5.62,-1.396,0.316,93.7,blue,233,TRUE
253,1660184274.259,2772,7030,750,4.709,-1.273,2.367,95.2,red,233,TRUE
254,1660184274.355,3067,-1670,882,4.461,-1.362,-0.713,80.1,yellow,233,TRUE
255,1660184275.7,2395,6016,3350,5.616,-1.401,0.328,78.1,blue,233,TRUE
256,1660184275.778,2796,7048,750,4.652,-1.272,2.476,93.7,red,233,TRUE
257,1660184275.888,3046,-1666,882,4.455,-1.36,-0.712,79.9,yellow,233,TRUE
258,1660184277.249,2405,5967,3350,5.612,-1.397,0.309,93.7,blue,233,TRUE
259,1660184277.342,2782,7045,750,4.652,-1.276,2.452,94.7,red,233,TRUE
260,1660184277.439,3018,-1649,882,4.539,-1.343,-0.585,77.9,yellow,233,TRUE
261,1660184277.517,2174,-1355,2526,5.752,-1.278,-0.143,78.1,green,233,TRUE
262,1660184277.786,2401,5952,3350,5.618,-1.396,0.313,93.8,blue,233,TRUE
263,1660184277.879,2795,7053,750,4.66,-1.273,2.451,89.2,red,233,TRUE
264,1660184277.984,3252,-1463,882,4.488,-1.326,-0.566,78.2,yellow,233,TRUE
265,1660184278.066,2182,-1342,2526,5.743,-1.276,-0.148,83.4,green,233,TRUE
266,1660184278.321,2399,5944,3350,5.613,-1.398,0.322,77.4,blue,233,TRUE
267,1660184278.399,2806,7071,750,4.681,-1.282,2.409,93.8,red,233,TRUE
268,1660184278.493,3486,-1279,882,4.466,-1.322,-0.556,78.1,yellow,233,TRUE
269,1660184278.571,2178,-1335,2526,5.732,-1.278,-0.143,95.1,green,233,TRUE
270,1660184278.83,2397,5999,3350,5.604,-1.401,0.338,93.8,blue,233,TRUE
271,1660184278.939,2797,7069,750,4.698,-1.286,2.383,91.2,red,233,TRUE
272,1660184279.046,3526,-1280,882,4.476,-1.331,-0.587,78.1,yellow,233,TRUE
273,1660184279.124,2169,-1323,2526,5.732,-1.275,-0.136,93.7,green,233,TRUE
274,1660184279.395,2395,6001,3350,5.611,-1.4,0.327,93.7,blue,233,TRUE
275,1660184279.489,2801,7078,750,4.695,-1.272,2.376,95.5,red,233,TRUE
276,1660184279.586,3505,-1295,882,4.478,-1.335,-0.6,76.0,yellow,233,TRUE
277,1660184279.662,2165,-1318,2526,5.732,-1.282,-0.144,109.4,green,233,TRUE
278,1660184279.951,2398,6003,3350,5.603,-1.397,0.323,93.7,blue,233,TRUE
279,1660184280.061,2804,7086,750,4.705,-1.273,2.405,93.7,red,233,TRUE
280,1660184280.154,3574,-1322,882,4.489,-1.346,-0.664,90.0,yellow,233,TRUE
281,1660184281.492,2397,5994,3350,5.591,-1.395,0.312,93.8,blue,233,TRUE
282,1660184281.586,2787,7061,750,4.71,-1.261,2.407,93.7,red,233,TRUE
283,1660184281.68,3587,-1320,882,4.456,-1.365,-0.756,106.0,yellow,233,TRUE
284,1660184281.786,2163,-1314,2526,5.556,-1.244,-0.439,80.7,green,233,TRUE
285,1660184282.054,2395,5943,3350,5.588,-1.393,0.316,86.6,blue,233,TRUE
286,1660184282.14,2788,7079,750,4.72,-1.256,2.41,93.7,red,233,TRUE
287,1660184282.234,3586,-1328,882,4.448,-1.362,-0.754,93.7,yellow,233,TRUE
288,1660184282.328,2168,-1303,2526,5.584,-1.24,-0.409,93.3,green,233,TRUE
289,1660184282.593,2401,5905,3350,5.591,-1.396,0.32,94.6,blue,233,TRUE
290,1660184282.689,2774,7076,750,4.721,-1.242,2.407,83.3,red,233,TRUE
291,1660184282.772,3593,-1335,882,4.457,-1.364,-0.753,93.7,yellow,233,TRUE
292,1660184282.866,2173,-1290,2526,5.668,-1.276,-0.219,93.7,green,233,TRUE
293,1660184283.147,2390,5924,3350,5.591,-1.396,0.32,93.8,blue,233,TRUE
294,1660184283.241,2760,7053,750,4.734,-1.238,2.401,86.0,red,233,TRUE
295,1660184283.327,3565,-1338,882,4.458,-1.364,-0.755,93.7,yellow,233,TRUE
296,1660184283.42,2170,-1292,2526,5.716,-1.284,-0.095,93.7,green,233,TRUE
297,1660184283.701,2388,5930,3350,5.591,-1.396,0.319,93.7,blue,233,TRUE
298,1660184283.795,2782,7045,750,4.731,-1.242,2.416,93.8,red,233,TRUE
299,1660184283.888,3613,-1347,882,4.459,-1.364,-0.754,86.7,yellow,233,TRUE
300,1660184283.975,2183,-1296,2526,5.721,-1.295,-0.029,93.7,green,233,TRUE
301,1660184284.258,2388,5931,3350,5.587,-1.398,0.325,78.1,blue,233,TRUE
302,1660184284.336,2747,7012,750,4.733,-1.236,2.417,93.7,red,233,TRUE
303,1660184284.43,3670,-1351,882,4.459,-1.362,-0.752,95.3,yellow,233,TRUE
304,1660184284.526,2190,-1308,2526,5.734,-1.31,0.025,79.6,green,233,TRUE
305,1660184284.793,2376,5960,3350,5.585,-1.397,0.328,81.2,blue,233,TRUE
306,1660184284.874,2754,7027,750,4.896,-1.221,2.366,93.7,red,233,TRUE
307,1660184284.968,3693,-1358,882,4.459,-1.362,-0.75,93.7,yellow,233,TRUE
308,1660184286.327,2401,6010,3350,0.097,-1.366,0.686,96.6,blue,233,TRUE
309,1660184286.424,2775,7021,750,5.704,-1.298,2.466,93.7,red,233,TRUE
310,1660184286.517,3480,-1550,882,4.47,-1.362,-0.756,93.8,yellow,233,TRUE
311,1660184286.611,2185,-1336,2526,5.748,-1.298,0.021,93.9,green,233,TRUE
312,1660184286.873,2439,6039,3350,0.788,-1.41,0.13,93.8,blue,233,TRUE
313,1660184286.966,2835,7030,750,0.085,-1.366,2.638,90.8,red,233,TRUE
314,1660184287.073,3225,-1748,882,4.475,-1.362,-0.757,78.1,yellow,233,TRUE
315,1660184287.167,2187,-1349,2526,5.745,-1.296,0.022,93.7,green,233,TRUE
316,1660184287.426,2482,5976,3350,1.452,-1.358,0.254,93.7,blue,233,TRUE
317,1660184287.52,2898,7000,750,0.802,-1.294,2.609,95.2,red,233,TRUE
318,1660184287.616,3176,-1759,882,4.471,-1.361,-0.749,87.9,yellow,233,TRUE
319,1660184288.958,2557,5959,3350,1.258,-1.334,0.08,102.2,blue,233,TRUE
320,1660184289.06,2964,6952,750,0.918,-1.304,2.491,94.5,red,233,TRUE
321,1660184289.183,3236,-1753,882,4.471,-1.359,-0.744,78.1,yellow,233,TRUE
322,1660184289.261,2189,-1368,2526,5.741,-1.298,0.02,93.8,green,233,TRUE
323,1660184289.536,2647,5965,3350,1.086,-1.358,0.157,93.7,blue,233,TRUE
324,1660184289.63,3042,6909,750,1.032,-1.259,2.583,93.7,red,233,TRUE
325,1660184289.739,3192,-1735,882,4.456,-1.359,-0.746,76.4,yellow,233,TRUE
326,1660184289.816,2200,-1399,2526,5.741,-1.297,0.022,78.1,green,233,TRUE
327,1660184290.066,2738,5986,3350,1.088,-1.373,0.211,85.2,blue,233,TRUE
328,1660184290.167,3125,6892,750,1.014,-1.262,2.501,93.8,red,233,TRUE
329,1660184290.261,3185,-1742,882,4.439,-1.359,-0.749,78.1,yellow,233,TRUE
330,1660184290.339,2207,-1422,2526,5.74,-1.294,0.035,85.9,green,233,TRUE
331,1660184290.597,2833,6027,3350,1.098,-1.367,0.237,93.9,blue,233,TRUE
332,1660184290.705,3199,6856,750,1.01,-1.256,2.496,96.8,red,233,TRUE
333,1660184290.802,3225,-1754,882,4.431,-1.355,-0.724,93.7,yellow,233,TRUE
334,1660184290.895,2504,-1221,2526,5.742,-1.292,0.043,78.1,green,233,TRUE
335,1660184291.156,2919,6049,3350,1.083,-1.406,0.382,93.7,blue,233,TRUE
336,1660184291.265,3280,6823,750,1.019,-1.257,2.435,81.3,red,233,TRUE
337,1660184292.419,2510,-1243,2526,5.743,-1.299,0.05,93.7,green,233,TRUE
338,1660184292.688,3020,6070,3350,1.054,-1.391,0.364,93.7,blue,233,TRUE
339,1660184292.781,3368,6815,750,1.011,-1.24,2.488,97.9,red,233,TRUE
340,1660184292.879,3212,-1786,882,4.43,-1.354,-0.71,78.1,yellow,233,TRUE
341,1660184292.957,2521,-1259,2526,5.742,-1.299,0.05,93.7,green,233,TRUE
342,1660184293.243,3123,6051,3350,1.104,-1.385,0.406,93.8,blue,233,TRUE
343,1660184293.337,3432,6782,750,1.028,-1.238,2.477,93.7,red,233,TRUE
344,1660184293.43,3232,-1768,882,4.434,-1.354,-0.717,81.5,yellow,233,TRUE
345,1660184293.512,2526,-1263,2526,5.738,-1.298,0.053,93.7,green,233,TRUE
346,1660184293.813,3216,6086,3350,1.122,-1.385,0.416,93.7,blue,233,TRUE
347,1660184293.907,3536,6783,750,0.997,-1.246,2.499,93.7,red,233,TRUE
348,1660184294.001,3185,-1792,882,4.433,-1.352,-0.709,78.9,yellow,233,TRUE
349,1660184294.08,2520,-1275,2526,5.756,-1.298,0.065,94.0,green,233,TRUE
350,1660184294.38,3328,6094,3350,1.132,-1.381,0.407,96.8,blue,233,TRUE
351,1660184294.476,3612,6732,750,0.998,-1.251,2.489,93.7,red,233,TRUE
352,1660184294.57,3157,-1793,882,4.433,-1.352,-0.736,93.8,yellow,233,TRUE
353,1660184294.664,2532,-1274,2526,5.706,-1.296,0.013,95.1,green,233,TRUE
354,1660184294.936,3412,6059,3350,1.133,-1.381,0.404,92.6,blue,233,TRUE
355,1660184295.028,3672,6722,750,1.002,-1.257,2.493,93.8,red,233,TRUE
356,1660184295.122,3132,-1800,882,4.433,-1.353,-0.731,93.7,yellow,233,TRUE
357,1660184295.231,2551,-1272,2526,5.659,-1.296,-0.025,105.6,green,233,TRUE
358,1660184295.509,3449,6055,3350,1.124,-1.389,0.429,94.9,blue,233,TRUE
359,1660184295.606,3695,6686,750,0.99,-1.249,2.524,85.7,red,233,TRUE
360,1660184295.691,3165,-1797,882,4.444,-1.355,-0.732,78.1,yellow,233,TRUE
361,1660184295.785,2530,-1259,2526,5.586,-1.281,-0.004,78.1,green,233,TRUE
362,1660184296.03,3511,6047,3350,1.121,-1.392,0.439,93.8,blue,233,TRUE
363,1660184296.124,3721,6684,750,1.001,-1.249,2.515,94.9,red,233,TRUE
364,1660184296.355,2550,-1257,2526,5.698,-1.295,0.052,93.8,green,233,TRUE
365,1660184296.601,3542,6054,3350,1.105,-1.391,0.445,93.8,blue,233,TRUE
366,1660184296.694,3721,6691,750,0.981,-1.257,2.503,109.3,red,233,TRUE
367,1660184296.819,3272,-1780,882,4.434,-1.354,-0.724,89.1,yellow,233,TRUE
368,1660184296.909,2569,-1263,2526,5.717,-1.338,0.159,93.7,green,233,TRUE
369,1660184297.18,3570,6027,3350,1.095,-1.389,0.429,93.7,blue,233,TRUE
370,1660184297.29,3712,6693,750,0.997,-1.246,2.466,93.8,red,233,TRUE
371,1660184297.383,3271,-1799,882,4.446,-1.354,-0.716,79.0,yellow,233,TRUE
372,1660184297.874,3715,6687,750,1.007,-1.247,2.462,93.7,red,233,TRUE
373,1660184297.968,3237,-1803,882,4.447,-1.355,-0.713,78.1,yellow,233,TRUE
374,1660184298.046,2551,-1238,2526,5.76,-1.312,0.206,77.1,green,233,TRUE
375,1660184298.326,3547,5910,3350,1.097,-1.385,0.433,94.6,blue,233,TRUE
376,1660184298.421,3725,6689,750,1.001,-1.251,2.481,93.7,red,233,TRUE
377,1660184298.514,3267,-1811,882,4.454,-1.354,-0.713,78.1,yellow,233,TRUE
378,1660184298.592,2289,-1474,2526,5.818,-1.341,0.169,95.0,green,233,TRUE
379,1660184298.865,3562,5902,3350,1.096,-1.385,0.433,93.7,blue,233,TRUE
380,1660184298.959,3732,6689,750,0.995,-1.247,2.481,94.3,red,233,TRUE
381,1660184299.053,3241,-1812,882,4.452,-1.353,-0.712,79.8,yellow,233,TRUE
382,1660184299.133,2299,-1498,2526,5.762,-1.29,0.323,78.1,green,233,TRUE
383,1660184299.421,3567,5893,3350,1.093,-1.385,0.437,93.7,blue,233,TRUE
384,1660184299.515,3730,6688,750,0.984,-1.253,2.473,95.2,red,233,TRUE
385,1660184299.614,3253,-1797,882,4.454,-1.353,-0.712,88.7,yellow,233,TRUE
386,1660184299.703,2314,-1520,2526,5.851,-1.238,0.346,78.1,green,233,TRUE
387,1660184299.961,3569,5897,3350,1.084,-1.385,0.447,93.7,blue,233,TRUE
388,1660184300.055,3721,6689,750,0.982,-1.257,2.473,93.8,red,233,TRUE
389,1660184300.148,3302,-1792,882,4.455,-1.353,-0.713,79.5,yellow,233,TRUE
390,1660184300.242,2314,-1544,2526,5.801,-1.273,0.323,108.7,green,233,TRUE
391,1660184300.64,3730,6694,750,0.98,-1.262,2.483,93.7,red,233,TRUE
392,1660184300.734,3309,-1765,882,4.455,-1.353,-0.713,79.4,yellow,233,TRUE
393,1660184302.12,3505,5790,3350,1.1,-1.384,0.455,109.3,blue,233,TRUE
394,1660184302.229,3742,6698,750,1.012,-1.257,2.448,93.8,red,233,TRUE
395,1660184302.339,3299,-1767,882,4.478,-1.344,-0.666,90.2,yellow,233,TRUE
396,1660184302.429,2322,-1610,2526,5.751,-1.257,0.313,109.4,green,233,TRUE
397,1660184303.707,3501,5794,3350,1.09,-1.386,0.466,110.5,blue,233,TRUE
398,1660184303.928,3291,-1755,882,4.459,-1.354,-0.702,83.1,yellow,233,TRUE
399,1660184304.012,2322,-1610,2526,5.752,-1.268,0.335,93.7,green,233,TRUE
400,1660184304.273,3547,5779,3350,1.09,-1.386,0.468,93.8,blue,233,TRUE
401,1660184304.382,3760,6688,750,1.024,-1.257,2.441,93.7,red,233,TRUE
402,1660184304.476,3249,-1752,882,4.467,-1.357,-0.708,104.9,yellow,233,TRUE
403,1660184304.581,2322,-1647,2526,5.755,-1.266,0.332,93.7,green,233,TRUE
404,1660184304.86,3542,5783,3350,1.09,-1.386,0.466,90.9,blue,233,TRUE
405,1660184304.951,3761,6689,750,1.007,-1.26,2.431,93.7,red,233,TRUE
406,1660184305.045,3195,-1747,882,4.526,-1.36,-0.656,94.3,yellow,233,TRUE
407,1660184305.142,2359,-1679,2526,5.755,-1.266,0.334,78.8,green,233,TRUE
408,1660184305.539,3780,6692,750,1.012,-1.252,2.462,93.7,red,233,TRUE
409,1660184305.632,3197,-1755,882,4.549,-1.353,-0.635,93.8,yellow,233,TRUE
410,1660184305.726,2352,-1716,2526,5.755,-1.266,0.348,78.7,green,233,TRUE
411,1660184305.992,3535,5793,3350,1.088,-1.389,0.473,94.5,blue,233,TRUE
412,1660184306.173,3238,-1741,882,4.533,-1.35,-0.624,93.7,yellow,233,TRUE
413,1660184306.267,2336,-1709,2526,5.752,-1.265,0.362,93.7,green,233,TRUE
414,1660184306.536,3517,5807,3350,1.086,-1.388,0.473,93.7,blue,233,TRUE
415,1660184306.63,3779,6658,750,1.024,-1.248,2.45,94.5,red,233,TRUE
416,1660184306.724,3259,-1731,882,4.533,-1.352,-0.627,96.9,yellow,233,TRUE
417,1660184306.837,2339,-1722,2526,5.753,-1.264,0.373,93.8,green,233,TRUE
418,1660184307.108,3583,5888,3350,1.085,-1.388,0.475,96.9,blue,233,TRUE
419,1660184307.205,3780,6660,750,1.024,-1.25,2.433,93.7,red,233,TRUE
420,1660184307.299,3238,-1713,882,4.518,-1.352,-0.617,92.7,yellow,233,TRUE
421,1660184307.407,2347,-1740,2526,5.712,-1.261,0.364,78.1,green,233,TRUE
422,1660184307.666,3586,5889,3350,1.094,-1.388,0.482,93.7,blue,233,TRUE
423,1660184307.759,3777,6666,750,1.013,-1.256,2.426,93.7,red,233,TRUE
424,1660184307.869,3202,-1690,882,4.509,-1.352,-0.597,107.4,yellow,233,TRUE
425,1660184307.976,2313,-1737,2526,5.73,-1.265,0.388,109.4,green,233,TRUE
426,1660184308.244,3583,5890,3350,1.081,-1.39,0.478,85.3,blue,233,TRUE
427,1660184308.345,3787,6671,750,1.016,-1.257,2.439,93.7,red,233,TRUE
428,1660184308.439,3210,-1676,882,4.358,-1.336,-0.467,93.7,yellow,233,TRUE
429,1660184308.533,2310,-1736,2526,5.729,-1.268,0.379,91.6,green,233,TRUE
430,1660184308.796,3594,5887,3350,1.081,-1.388,0.471,102.0,blue,233,TRUE
431,1660184308.914,3790,6675,750,0.997,-1.254,2.447,93.8,red,233,TRUE
432,1660184309.007,3169,-1672,882,4.372,-1.407,-0.561,93.7,yellow,233,TRUE
433,1660184309.101,2307,-1738,2526,5.743,-1.272,0.392,93.3,green,233,TRUE
434,1660184309.382,3598,5889,3350,1.064,-1.388,0.467,95.2,blue,233,TRUE
435,1660184309.477,3782,6664,750,1.002,-1.258,2.446,93.4,red,233,TRUE
436,1660184309.57,3104,-1713,882,4.271,-1.438,-0.778,93.7,yellow,233,TRUE
437,1660184309.664,2313,-1735,2526,5.755,-1.277,0.404,93.8,green,233,TRUE
438,1660184309.936,3658,5985,3350,1.062,-1.388,0.469,93.8,blue,233,TRUE
439,1660184310.03,3766,6666,750,1.013,-1.252,2.424,97.0,red,233,TRUE
440,1660184310.127,3104,-1713,882,4.279,-1.434,-0.742,73.5,yellow,233,TRUE
441,1660184310.201,2306,-1732,2526,5.749,-1.276,0.401,93.7,green,233,TRUE
442,1660184310.459,3690,5974,3350,1.062,-1.388,0.469,93.7,blue,233,TRUE
443,1660184310.553,3751,6671,750,1.006,-1.256,2.416,93.7,red,233,TRUE
444,1660184310.646,3087,-1705,882,4.292,-1.429,-0.722,93.5,yellow,233,TRUE
445,1660184310.74,2291,-1719,2526,5.739,-1.274,0.322,100.2,green,233,TRUE
446,1660184311.013,3702,5961,3350,1.059,-1.385,0.454,93.3,blue,233,TRUE
447,1660184311.107,3731,6676,750,1.005,-1.253,2.407,93.7,red,233,TRUE
448,1660184311.2,3088,-1723,882,4.301,-1.426,-0.64,78.1,yellow,233,TRUE
449,1660184311.279,2296,-1704,2526,5.869,-1.263,0.314,83.0,green,233,TRUE
450,1660184311.533,3703,5955,3350,1.058,-1.383,0.44,94.3,blue,233,TRUE
451,1660184311.63,3718,6675,750,1.006,-1.256,2.417,94.6,red,233,TRUE
452,1660184311.724,3056,-1739,882,4.372,-1.42,-0.322,95.0,yellow,233,TRUE
453,1660184312.117,3722,5942,3350,1.057,-1.382,0.435,93.7,blue,233,TRUE
454,1660184312.211,3701,6671,750,1.006,-1.258,2.414,91.4,red,233,TRUE
455,1660184312.302,3137,-1757,882,4.711,-1.391,-0.19,93.7,yellow,233,TRUE
456,1660184313.633,3719,5947,3350,1.057,-1.382,0.434,93.7,blue,233,TRUE
457,1660184313.727,3699,6699,750,1.005,-1.26,2.386,94.3,red,233,TRUE
458,1660184314.899,2347,-1706,2526,6.012,-1.286,0.132,95.2,green,233,TRUE
459,1660184315.162,3713,5944,3350,1.055,-1.382,0.439,93.7,blue,233,TRUE
460,1660184315.256,3701,6707,750,1.018,-1.263,2.427,94.2,red,233,TRUE
461,1660184316.457,2380,-1693,2526,6.016,-1.283,0.146,79.3,green,233,TRUE
462,1660184316.699,3706,5947,3350,1.05,-1.382,0.444,93.7,blue,233,TRUE
463,1660184316.793,3695,6698,750,1.061,-1.274,2.376,93.3,red,233,TRUE
464,1660184319.268,3697,5952,3350,1.04,-1.379,0.43,89.7,blue,233,TRUE
465,1660184319.358,3697,6688,750,1.043,-1.276,2.445,93.7,red,233,TRUE
466,1660184319.467,3511,-1762,882,4.924,-1.321,-0.362,93.8,yellow,233,TRUE
467,1660184320.978,3700,6682,750,1.082,-1.251,2.451,93.7,red,233,TRUE
468,1660184321.088,3770,-1799,882,4.91,-1.256,-0.469,79.9,yellow,233,TRUE
469,1660184322.462,3695,5960,3350,1.038,-1.378,0.428,93.7,blue,233,TRUE
470,1660184322.556,3711,6682,750,1.061,-1.251,2.467,93.7,red,233,TRUE
471,1660184322.649,4079,-1835,882,4.809,-1.276,-0.362,103.7,yellow,233,TRUE
472,1660184322.987,3688,5956,3350,1.026,-1.377,0.425,90.0,blue,233,TRUE
473,1660184323.093,3723,6687,750,1.07,-1.25,2.467,93.7,red,233,TRUE
474,1660184324.49,3668,5965,3350,1.018,-1.378,0.432,107.1,blue,233,TRUE
475,1660184324.597,3736,6681,750,1.064,-1.257,2.431,93.8,red,233,TRUE
476,1660184324.69,4683,-1980,882,3.869,-1.274,-0.491,78.1,yellow,233,TRUE
477,1660184324.951,3647,5976,3350,1.019,-1.378,0.431,93.7,blue,233,TRUE
478,1660184325.06,3755,6676,750,1.049,-1.254,2.47,93.7,red,233,TRUE
479,1660184325.17,4958,-2004,882,3.808,-1.356,-0.421,74.4,yellow,233,TRUE
480,1660184325.416,3632,5984,3350,1.018,-1.378,0.433,104.7,blue,233,TRUE
481,1660184325.536,3774,6674,750,1.041,-1.256,2.49,93.7,red,233,TRUE
482,1660184325.63,5222,-2031,882,4.025,-1.285,-0.289,109.3,yellow,233,TRUE
483,1660184325.971,3611,5993,3350,1.018,-1.379,0.435,93.7,blue,233,TRUE
484,1660184326.08,3774,6676,750,1.014,-1.258,2.515,88.6,red,233,TRUE
485,1660184326.185,5541,-2008,882,4.415,-1.228,-0.528,77.2,yellow,233,TRUE
486,1660184326.556,3777,6670,750,1.008,-1.258,2.536,93.7,red,233,TRUE
487,1660184326.65,5814,-2021,882,4.793,-1.278,-0.407,102.0,yellow,233,TRUE
488,1660184326.914,3538,6021,3350,1.017,-1.38,0.439,78.1,blue,233,TRUE
489,1660184327.008,3790,6673,750,1.014,-1.264,2.51,87.6,red,233,TRUE
490,1660184327.111,6068,-2022,882,4.923,-1.36,-0.322,93.8,yellow,233,TRUE
491,1660184327.453,3544,6019,3350,1.014,-1.378,0.437,93.8,blue,233,TRUE
492,1660184327.547,3804,6662,750,1.056,-1.258,2.462,95.2,red,233,TRUE
493,1660184327.643,6352,-2010,882,5.059,-1.369,-0.463,95.1,yellow,233,TRUE
494,1660184327.921,3530,6031,3350,1.013,-1.378,0.439,86.5,blue,233,TRUE
495,1660184328.008,3813,6664,750,1.071,-1.258,2.451,93.8,red,233,TRUE
496,1660184328.102,6524,-1992,882,5.048,-1.358,-0.616,93.7,yellow,233,TRUE
497,1660184328.397,3540,6027,3350,1.012,-1.376,0.432,93.7,blue,233,TRUE
498,1660184328.491,3823,6670,750,1.054,-1.254,2.473,94.8,red,233,TRUE
499,1660184328.723,2380,-1693,2526,5.982,-1.224,-0.231,78.1,green,233,TRUE
500,1660184328.998,3554,6014,3350,1.008,-1.373,0.429,93.7,blue,233,TRUE
501,1660184329.092,3820,6670,750,1.053,-1.262,2.476,95.2,red,233,TRUE
502,1660184329.201,6345,-1940,882,4.985,-1.354,-0.653,93.1,yellow,233,TRUE
503,1660184329.294,2411,-1665,2526,5.958,-1.224,-0.238,93.7,green,233,TRUE
504,1660184329.568,3538,6026,3350,1.01,-1.368,0.418,93.7,blue,233,TRUE
505,1660184329.662,3803,6667,750,1.031,-1.268,2.495,93.7,red,233,TRUE
506,1660184329.755,6293,-1902,882,4.984,-1.341,-0.672,98.8,yellow,233,TRUE
507,1660184329.854,2444,-1644,2526,5.887,-1.234,-0.143,109.4,green,233,TRUE
508,1660184330.143,3535,6032,3350,0.999,-1.362,0.385,93.8,blue,233,TRUE
509,1660184330.253,3799,6665,750,1.021,-1.27,2.484,93.7,red,233,TRUE
510,1660184330.346,6263,-1850,882,4.975,-1.344,-0.663,92.6,yellow,233,TRUE
511,1660184330.439,2481,-1621,2526,5.953,-1.258,0.005,125.0,green,233,TRUE
512,1660184330.753,3548,6027,3350,0.998,-1.362,0.373,83.1,blue,233,TRUE
513,1660184330.836,3787,6661,750,1.055,-1.269,2.445,93.7,red,233,TRUE
514,1660184330.93,6240,-1782,882,4.985,-1.334,-0.638,95.1,yellow,233,TRUE
515,1660184331.027,2500,-1610,2526,5.946,-1.25,0.033,123.2,green,233,TRUE
516,1660184331.34,3554,6031,3350,0.997,-1.362,0.371,87.1,blue,233,TRUE
517,1660184331.427,3771,6668,750,1.041,-1.27,2.442,78.1,red,233,TRUE
518,1660184331.505,6234,-1739,882,5.129,-1.318,-0.504,93.7,yellow,233,TRUE
519,1660184333.931,3757,6664,750,1.009,-1.251,2.515,93.7,red,233,TRUE
520,1660184335.165,2549,-1599,2526,0.109,-1.357,0.616,78.2,green,233,TRUE
521,1660184335.427,3504,6060,3350,1.046,-1.37,0.409,93.7,blue,233,TRUE
522,1660184335.521,3765,6655,750,1.014,-1.262,2.482,93.7,red,233,TRUE
523,1660184338.058,3507,6063,3350,1.035,-1.367,0.383,94.7,blue,233,TRUE
524,1660184338.157,3755,6648,750,1.02,-1.297,2.303,93.5,red,233,TRUE
525,1660184340.654,3542,6052,3350,1.037,-1.354,0.371,93.7,blue,233,TRUE
526,1660184340.748,3750,6646,750,1.014,-1.283,2.342,93.7,red,233,TRUE
527,1660184340.857,6275,-1796,882,5.053,-1.36,-0.649,96.2,yellow,233,TRUE
528,1660184342.268,3531,6058,3350,1.038,-1.357,0.368,94.9,blue,233,TRUE
529,1660184342.363,3732,6644,750,1.107,-1.273,2.342,95.3,red,233,TRUE
530,1660184342.486,6395,-1810,882,4.823,-1.283,-0.652,78.1,yellow,233,TRUE
531,1660184342.58,2651,-1660,2526,0.254,-1.333,-0.316,93.7,green,233,TRUE
532,1660184342.871,3500,6072,3350,1.037,-1.357,0.367,93.7,blue,233,TRUE
533,1660184342.964,3722,6635,750,1.218,-1.305,2.217,94.9,red,233,TRUE
534,1660184343.059,6395,-1810,882,4.635,-1.224,-0.745,76.3,yellow,233,TRUE
535,1660184343.135,2713,-1711,2526,0.385,-1.328,-0.208,78.1,green,233,TRUE
536,1660184343.425,3493,6078,3350,1.038,-1.357,0.363,93.7,blue,233,TRUE
537,1660184343.519,3718,6621,750,1.562,-1.262,2.185,93.7,red,233,TRUE
538,1660184343.613,6460,-1863,882,4.542,-1.246,-0.732,80.8,yellow,233,TRUE
539,1660184344.994,3470,6076,3350,1.193,-1.348,0.401,93.7,blue,233,TRUE
540,1660184345.088,3681,6587,750,2.291,-1.295,2.33,94.9,red,233,TRUE
541,1660184347.569,3461,5956,3350,2.803,-1.405,0.446,93.7,blue,233,TRUE
542,1660184347.663,3595,6426,750,2.414,-1.328,2.622,90.5,red,233,TRUE
543,1660184347.754,6309,-1928,882,3.856,-1.38,-0.944,94.6,yellow,233,TRUE
544,1660184349.175,3446,5782,3350,2.436,-1.352,0.381,97.1,blue,233,TRUE
545,1660184349.273,3525,6191,750,2.085,-1.304,2.548,93.7,red,233,TRUE
546,1660184349.366,6183,-1975,882,3.72,-1.35,-0.678,93.7,yellow,233,TRUE
547,1660184349.476,2869,-1895,2526,0.089,-1.424,-0.413,96.8,green,233,TRUE
548,1660184349.76,3412,5595,3350,2.461,-1.343,0.135,93.1,blue,233,TRUE
549,1660184349.856,3467,5923,750,2.151,-1.27,2.249,82.6,red,233,TRUE
550,1660184349.939,5979,-2041,882,3.79,-1.385,-0.957,93.7,yellow,233,TRUE
551,1660184350.032,2907,-1968,2526,6.118,-1.409,-0.317,95.5,green,233,TRUE
552,1660184350.347,3408,5407,3350,2.366,-1.342,-0.1,94.1,blue,233,TRUE
553,1660184350.443,3439,5643,750,1.994,-1.238,2.182,97.5,red,233,TRUE
554,1660184350.556,5747,-2106,882,4.131,-1.464,-0.072,78.1,yellow,233,TRUE
555,1660184350.634,2918,-2039,2526,5.707,-1.518,-0.022,93.7,green,233,TRUE
556,1660184350.907,3428,5181,3350,2.259,-1.373,0.119,93.7,blue,233,TRUE
557,1660184351.001,3372,5328,750,2.03,-1.28,2.398,95.1,red,233,TRUE
558,1660184351.096,5530,-2150,882,4.006,-1.391,-1.134,79.3,yellow,233,TRUE
559,1660184351.175,2940,-2108,2526,5.425,-1.523,-3.094,78.1,green,233,TRUE
560,1660184352.414,3448,4951,3350,2.206,-1.381,0.219,96.9,blue,233,TRUE
561,1660184352.511,3344,5017,750,1.558,-1.237,2.37,95.2,red,233,TRUE
562,1660184352.612,5291,-2199,882,4.182,-1.409,-0.833,86.3,yellow,233,TRUE
563,1660184352.698,2937,-2182,2526,5.66,-1.287,0.239,78.1,green,233,TRUE
564,1660184352.957,3471,4726,3350,2.198,-1.38,0.243,93.7,blue,233,TRUE
565,1660184353.051,3318,4707,750,1.265,-1.265,2.498,93.7,red,233,TRUE
566,1660184353.16,5087,-2264,882,4.198,-1.424,-0.846,77.9,yellow,233,TRUE
567,1660184353.238,2955,-2250,2526,5.667,-1.287,0.228,83.7,green,233,TRUE
568,1660184353.493,3462,4513,3350,2.221,-1.395,0.3,95.0,blue,233,TRUE
569,1660184353.604,3290,4395,750,1.367,-1.218,2.439,93.8,red,233,TRUE
570,1660184353.698,4840,-2319,882,4.236,-1.43,-0.857,79.3,yellow,233,TRUE
571,1660184356.097,3467,4292,3350,2.221,-1.377,0.244,93.7,blue,233,TRUE
572,1660184356.191,3258,4087,750,1.382,-1.241,2.425,95.3,red,233,TRUE
573,1660184356.292,4612,-2405,882,4.153,-1.405,-0.719,82.6,yellow,233,TRUE
574,1660184356.375,2966,-2312,2526,5.697,-1.285,0.247,79.3,green,233,TRUE
575,1660184357.625,3492,4062,3350,2.205,-1.377,0.25,93.7,blue,233,TRUE
576,1660184357.719,3248,3796,750,1.39,-1.24,2.415,95.0,red,233,TRUE
577,1660184357.82,4323,-2371,882,4.107,-1.408,-0.855,90.3,yellow,233,TRUE
578,1660184357.91,3010,-2328,2526,5.655,-1.306,0.225,78.1,green,233,TRUE
579,1660184358.191,3490,3847,3350,2.209,-1.374,0.251,93.7,blue,233,TRUE
580,1660184358.285,3234,3505,750,1.371,-1.24,2.43,93.7,red,233,TRUE
581,1660184358.379,3975,-2390,882,4.111,-1.407,-0.861,79.9,yellow,233,TRUE
582,1660184358.461,2980,-2311,2526,5.7,-1.29,0.244,80.9,green,233,TRUE
583,1660184358.745,3496,3649,3350,2.219,-1.372,0.264,95.6,blue,233,TRUE
584,1660184358.84,3229,3227,750,1.37,-1.24,2.435,93.8,red,233,TRUE
585,1660184358.934,3655,-2362,882,4.244,-1.419,-0.719,79.2,yellow,233,TRUE
586,1660184359.013,2959,-2301,2526,5.715,-1.293,0.255,101.1,green,233,TRUE
587,1660184359.302,3503,3554,3350,2.223,-1.372,0.264,93.0,blue,233,TRUE
588,1660184359.395,3281,3076,750,1.392,-1.235,2.429,93.7,red,233,TRUE
589,1660184359.489,3550,-2324,882,4.409,-1.439,-0.79,93.7,yellow,233,TRUE
590,1660184359.582,2944,-2262,2526,5.71,-1.293,0.254,95.2,green,233,TRUE
591,1660184359.856,3515,3512,3350,2.223,-1.377,0.268,93.7,blue,233,TRUE
592,1660184359.95,3303,2998,750,1.4,-1.239,2.411,92.8,red,233,TRUE
593,1660184360.043,3428,-2317,882,4.378,-1.421,-0.717,93.7,yellow,233,TRUE
594,1660184360.136,2941,-2239,2526,5.716,-1.287,0.24,78.1,green,233,TRUE
595,1660184361.403,3532,3499,3350,2.226,-1.378,0.273,95.0,blue,233,TRUE
596,1660184361.501,3329,2955,750,1.383,-1.246,2.403,81.6,red,233,TRUE
597,1660184361.582,3407,-2300,882,4.265,-1.417,-0.755,93.7,yellow,233,TRUE
598,1660184361.676,2896,-2222,2526,5.729,-1.293,0.231,93.8,green,233,TRUE
599,1660184362.006,3522,3475,3350,2.229,-1.38,0.275,93.8,blue,233,TRUE
600,1660184362.099,3332,2917,750,1.364,-1.25,2.39,86.8,red,233,TRUE
601,1660184362.186,3407,-2300,882,4.231,-1.418,-0.785,79.5,yellow,233,TRUE
602,1660184362.559,3522,3482,3350,2.227,-1.378,0.272,93.7,blue,233,TRUE
603,1660184362.653,3361,2915,750,1.372,-1.259,2.367,95.2,red,233,TRUE
604,1660184362.863,2894,-2205,2526,5.794,-1.294,0.249,78.1,green,233,TRUE
605,1660184363.13,3522,3488,3350,2.227,-1.379,0.273,93.8,blue,233,TRUE
606,1660184363.239,3361,2916,750,1.373,-1.261,2.37,93.7,red,233,TRUE
607,1660184363.333,3356,-2252,882,4.232,-1.418,-0.791,85.2,yellow,233,TRUE
608,1660184363.418,2895,-2199,2526,5.787,-1.29,0.256,95.2,green,233,TRUE
609,1660184364.748,3515,3492,3350,2.223,-1.379,0.271,93.7,blue,233,TRUE
610,1660184364.841,3376,2924,750,1.396,-1.254,2.315,93.4,red,233,TRUE
611,1660184364.941,3356,-2243,882,4.55,-1.419,-0.176,90.2,yellow,233,TRUE
612,1660184365.031,2906,-2186,2526,5.766,-1.285,0.24,93.7,green,233,TRUE
613,1660184366.363,3510,3491,3350,2.207,-1.384,0.265,94.7,blue,233,TRUE
614,1660184366.458,3367,2925,750,1.401,-1.258,2.362,91.4,red,233,TRUE
615,1660184366.55,3349,-2231,882,3.872,-1.284,-0.72,93.7,yellow,233,TRUE
616,1660184366.644,2910,-2168,2526,5.787,-1.286,0.262,93.8,green,233,TRUE
617,1660184366.933,3505,3498,3350,2.198,-1.389,0.257,93.7,blue,233,TRUE
618,1660184367.027,3378,2922,750,1.418,-1.249,2.352,93.4,red,233,TRUE
619,1660184367.12,3358,-2221,882,3.982,-1.326,-0.685,93.7,yellow,233,TRUE
620,1660184367.214,2917,-2163,2526,5.791,-1.287,0.262,93.8,green,233,TRUE
621,1660184367.534,3496,3497,3350,2.203,-1.394,0.267,94.8,blue,233,TRUE
622,1660184367.629,3368,2894,750,1.31,-1.296,2.474,93.4,red,233,TRUE
623,1660184367.723,3331,-2206,882,4.026,-1.347,-0.626,79.4,yellow,233,TRUE
624,1660184367.826,2891,-2165,2526,5.741,-1.28,0.235,93.7,green,233,TRUE
625,1660184369.141,3488,3493,3350,2.186,-1.406,0.155,94.3,blue,233,TRUE
626,1660184369.432,2882,-2171,2526,5.688,-1.29,0.189,95.1,green,233,TRUE
627,1660184370.724,3528,3439,3350,1.718,-1.371,0.54,86.6,blue,233,TRUE
628,1660184370.811,3426,2743,750,1.211,-1.228,2.53,93.7,red,233,TRUE
629,1660184370.904,3365,-2205,882,4.096,-1.362,-0.713,94.9,yellow,233,TRUE
630,1660184370.999,2889,-2176,2526,5.71,-1.299,0.206,107.1,green,233,TRUE
631,1660184372.341,3587,3374,3350,1.841,-1.402,0.491,94.9,blue,233,TRUE
632,1660184372.436,3489,2669,750,1.803,-1.217,2.367,95.4,red,233,TRUE
633,1660184372.537,3385,-2184,882,4.052,-1.338,-0.746,108.9,yellow,233,TRUE
634,1660184372.646,2889,-2181,2526,5.728,-1.306,0.179,93.7,green,233,TRUE
635,1660184372.956,3643,3320,3350,2.063,-1.393,0.448,93.7,blue,233,TRUE
636,1660184373.05,3567,2596,750,1.626,-1.225,2.414,93.7,red,233,TRUE
637,1660184373.144,3428,-2192,882,4.02,-1.306,-0.797,94.7,yellow,233,TRUE
638,1660184373.242,2877,-2177,2526,5.721,-1.286,0.19,83.4,green,233,TRUE
639,1660184373.512,3695,3256,3350,1.999,-1.376,0.407,92.0,blue,233,TRUE
640,1660184373.604,3654,2552,750,1.619,-1.222,2.4,95.0,red,233,TRUE
641,1660184373.699,3465,-2198,882,4.132,-1.262,-0.829,78.1,yellow,233,TRUE
642,1660184373.777,2880,-2185,2526,5.71,-1.286,0.188,93.2,green,233,TRUE
643,1660184374.068,3742,3231,3350,1.931,-1.381,0.312,93.5,blue,233,TRUE
644,1660184374.163,3694,2503,750,1.682,-1.211,2.38,93.8,red,233,TRUE
645,1660184374.257,3491,-2176,882,4.414,-1.294,-0.81,93.7,yellow,233,TRUE
646,1660184376.669,3786,3198,3350,1.942,-1.38,0.361,93.7,blue,233,TRUE
647,1660184376.763,3770,2445,750,1.982,-1.22,2.375,93.7,red,233,TRUE
648,1660184376.857,3380,-2159,882,3.6,-1.37,-0.858,104.0,yellow,233,TRUE
649,1660184378.204,3841,3135,3350,1.941,-1.38,0.382,93.7,blue,233,TRUE
650,1660184378.298,3828,2401,750,1.667,-1.236,2.298,93.7,red,233,TRUE
651,1660184380.765,3898,3068,3350,1.957,-1.384,0.471,90.9,blue,233,TRUE
652,1660184380.856,3887,2341,750,1.769,-1.248,2.182,100.9,red,233,TRUE
653,1660184382.043,2865,-2200,2526,5.394,-1.268,0.026,78.2,green,233,TRUE
654,1660184382.299,3950,3011,3350,2.402,-1.391,0.771,93.7,blue,233,TRUE
655,1660184382.393,3946,2286,750,1.337,-1.241,2.34,95.0,red,233,TRUE
656,1660184382.504,3310,-2172,882,3.655,-1.384,-0.945,78.1,yellow,233,TRUE
657,1660184382.597,2878,-2225,2526,5.358,-1.256,-0.001,76.2,green,233,TRUE
658,1660184382.874,3987,2967,3350,2.606,-1.394,0.818,93.7,blue,233,TRUE
659,1660184382.968,3970,2247,750,0.536,-1.248,2.534,93.8,red,233,TRUE
660,1660184383.062,3256,-2169,882,3.782,-1.373,-0.449,71.9,yellow,233,TRUE
661,1660184383.134,2878,-2225,2526,5.31,-1.27,-0.041,79.2,green,233,TRUE
662,1660184383.387,4026,2928,3350,2.385,-1.424,0.777,93.8,blue,233,TRUE
663,1660184383.48,3983,2227,750,0.039,-1.263,2.582,93.7,red,233,TRUE
664,1660184383.59,3183,-2169,882,3.819,-1.356,-0.209,78.2,yellow,233,TRUE
665,1660184383.669,2863,-2234,2526,5.132,-1.397,-0.524,82.6,green,233,TRUE
666,1660184383.924,4117,2878,3350,2.338,-1.409,0.709,93.3,blue,233,TRUE
667,1660184384.019,3977,2281,750,6.089,-1.253,2.382,96.9,red,233,TRUE
668,1660184384.116,3073,-2158,882,3.858,-1.373,-0.079,78.1,yellow,233,TRUE
669,1660184385.444,4106,2885,3350,2.654,-1.4,0.813,100.6,blue,233,TRUE
670,1660184385.545,3916,2311,750,5.83,-1.259,2.55,93.7,red,233,TRUE
671,1660184385.654,2991,-2169,882,3.776,-1.419,-0.213,78.1,yellow,233,TRUE
672,1660184385.732,2889,-2272,2526,5.214,-1.004,0.11,79.6,green,233,TRUE
673,1660184385.985,4064,2889,3350,2.729,-1.4,0.867,93.7,blue,233,TRUE
674,1660184386.079,3871,2362,750,5.797,-1.271,2.52,98.2,red,233,TRUE
675,1660184387.303,2834,-2311,2526,5.221,-1.013,0.277,107.8,green,233,TRUE
676,1660184387.598,4034,2900,3350,2.608,-1.396,0.851,95.2,blue,233,TRUE
677,1660184387.716,3786,2402,750,5.775,-1.276,2.507,93.1,red,233,TRUE
678,1660184389.205,4016,2902,3350,2.538,-1.395,0.898,89.0,blue,233,TRUE
679,1660184389.294,3695,2409,750,5.796,-1.284,2.537,93.7,red,233,TRUE
680,1660184389.388,3004,-2199,882,4.199,-1.486,-0.008,78.1,yellow,233,TRUE
681,1660184389.466,2892,-2382,2526,5.221,-0.941,0.239,106.0,green,233,TRUE
682,1660184389.762,4050,2893,3350,2.534,-1.394,0.898,93.2,blue,233,TRUE
683,1660184389.957,2987,-2206,882,4.644,-1.445,-0.595,79.2,yellow,233,TRUE
684,1660184390.036,2876,-2399,2526,5.219,-0.939,0.238,93.8,green,233,TRUE
685,1660184390.307,4042,2868,3350,2.532,-1.393,0.889,93.7,blue,233,TRUE
686,1660184390.401,3583,2367,750,5.866,-1.262,2.482,96.0,red,233,TRUE
687,1660184390.497,2964,-2240,882,4.878,-1.523,-3.115,78.1,yellow,233,TRUE
688,1660184390.575,2870,-2424,2526,5.22,-0.946,0.239,102.4,green,233,TRUE
689,1660184390.86,4039,2858,3350,2.531,-1.39,0.861,93.7,blue,233,TRUE
690,1660184390.954,3517,2381,750,5.854,-1.268,2.485,93.8,red,233,TRUE
691,1660184391.047,2966,-2262,882,4.712,-1.448,-0.609,82.0,yellow,233,TRUE
692,1660184391.129,2864,-2453,2526,5.22,-0.938,0.241,93.7,green,233,TRUE
693,1660184391.397,4035,2845,3350,2.534,-1.393,0.862,81.5,blue,233,TRUE
694,1660184391.478,3437,2392,750,5.878,-1.275,2.482,93.8,red,233,TRUE
695,1660184391.572,2972,-2265,882,4.633,-1.421,-0.566,94.2,yellow,233,TRUE
696,1660184391.68,2867,-2472,2526,5.22,-0.935,0.236,96.3,green,233,TRUE
697,1660184391.979,4027,2847,3350,2.521,-1.397,0.842,83.8,blue,233,TRUE
698,1660184392.063,3395,2419,750,5.886,-1.271,2.488,93.7,red,233,TRUE
699,1660184392.157,2988,-2292,882,4.628,-1.414,-0.539,93.7,yellow,233,TRUE
700,1660184392.251,2870,-2490,2526,5.238,-0.929,0.241,93.2,green,233,TRUE
701,1660184392.52,4029,2845,3350,2.326,-1.369,0.512,95.3,blue,233,TRUE
702,1660184392.616,3352,2400,750,5.859,-1.253,2.499,83.3,red,233,TRUE
703,1660184392.715,3125,-2305,882,4.671,-1.448,-0.604,93.7,yellow,233,TRUE
704,1660184392.809,2880,-2500,2526,5.212,-0.962,0.201,93.7,green,233,TRUE
705,1660184393.092,4045,2825,3350,2.219,-1.376,0.468,93.7,blue,233,TRUE
706,1660184393.186,3343,2402,750,6.171,-1.252,2.317,97.1,red,233,TRUE
707,1660184393.283,3235,-2325,882,4.782,-1.464,-0.056,93.8,yellow,233,TRUE
708,1660184393.377,2867,-2499,2526,5.217,-0.984,0.229,110.6,green,233,TRUE
709,1660184393.662,4005,2842,3350,2.261,-1.365,0.458,93.7,blue,233,TRUE
710,1660184393.771,3353,2456,750,6.076,-1.254,2.379,92.9,red,233,TRUE
711,1660184393.865,3326,-2339,882,4.815,-1.467,-0.048,83.3,yellow,233,TRUE
712,1660184393.948,2877,-2513,2526,5.221,-0.981,0.235,93.7,green,233,TRUE
713,1660184394.217,4025,2829,3350,2.339,-1.37,0.514,93.8,blue,233,TRUE
714,1660184394.311,3348,2436,750,5.986,-1.242,2.437,93.7,red,233,TRUE
715,1660184394.405,3437,-2359,882,4.79,-1.457,-0.05,78.3,yellow,233,TRUE
716,1660184394.484,2852,-2495,2526,5.22,-0.982,0.235,98.1,green,233,TRUE
717,1660184394.769,4041,2854,3350,2.366,-1.367,0.497,86.0,blue,233,TRUE
718,1660184394.855,3351,2471,750,5.988,-1.26,2.433,93.7,red,233,TRUE
719,1660184394.949,3556,-2375,882,4.77,-1.458,-0.056,78.1,yellow,233,TRUE
720,1660184395.027,2951,-2502,2526,5.211,-0.996,0.254,81.8,green,233,TRUE
721,1660184395.281,4053,2863,3350,2.388,-1.357,0.467,95.0,blue,233,TRUE
722,1660184395.378,3379,2491,750,5.97,-1.262,2.418,94.9,red,233,TRUE
723,1660184395.473,3676,-2371,882,4.701,-1.491,-0.063,93.7,yellow,233,TRUE
724,1660184397.884,4074,2866,3350,2.259,-1.356,0.409,93.7,blue,233,TRUE
725,1660184397.978,3420,2523,750,0.348,-1.257,2.263,93.7,red,233,TRUE
726,1660184398.071,3675,-2362,882,4.655,-1.457,-0.074,79.7,yellow,233,TRUE
727,1660184400.435,4037,2818,3350,2.184,-1.365,0.193,93.8,blue,233,TRUE
728,1660184400.529,3464,2607,750,0.742,-1.3,2.295,93.8,red,233,TRUE
729,1660184400.628,3687,-2372,882,4.657,-1.457,-0.075,93.8,yellow,233,TRUE
730,1660184402.081,4048,2810,3350,2.169,-1.398,0.168,102.7,blue,233,TRUE
731,1660184402.184,3511,2624,750,0.78,-1.271,2.315,93.7,red,233,TRUE
732,1660184402.278,3724,-2370,882,4.663,-1.454,-0.079,78.1,yellow,233,TRUE
733,1660184403.635,4047,2840,3350,2.254,-1.374,0.142,95.8,blue,233,TRUE
734,1660184403.73,3562,2631,750,0.781,-1.271,2.285,94.3,red,233,TRUE
735,1660184403.831,3750,-2352,882,4.682,-1.456,-0.077,81.3,yellow,233,TRUE
736,1660184404.172,4045,2871,3350,2.236,-1.372,0.14,94.5,blue,233,TRUE
737,1660184404.373,3769,-2367,882,4.673,-1.455,-0.076,93.8,yellow,233,TRUE
738,1660184405.637,4046,2889,3350,2.234,-1.365,0.14,93.8,blue,233,TRUE
739,1660184405.731,3597,2663,750,0.819,-1.268,2.232,100.4,red,233,TRUE
740,1660184405.831,3812,-2360,882,4.673,-1.455,-0.076,78.1,yellow,233,TRUE
741,1660184405.925,2939,-2490,2526,5.177,-0.924,0.202,109.4,green,233,TRUE
742,1660184406.209,4060,2889,3350,2.243,-1.364,0.135,93.7,blue,233,TRUE
743,1660184406.303,3654,2697,750,0.834,-1.264,2.222,96.6,red,233,TRUE
744,1660184406.4,3812,-2378,882,4.663,-1.452,-0.076,77.2,yellow,233,TRUE
745,1660184406.493,2940,-2487,2526,5.195,-0.888,0.192,94.9,green,233,TRUE
746,1660184407.755,4061,2908,3350,2.062,-1.312,0.046,98.1,blue,233,TRUE
747,1660184407.853,3688,2707,750,0.798,-1.261,2.303,95.0,red,233,TRUE
748,1660184407.955,3809,-2378,882,4.668,-1.455,-0.077,81.6,yellow,233,TRUE
749,1660184409.31,4063,2900,3350,2.147,-1.343,0.101,93.7,blue,233,TRUE
750,1660184409.403,3723,2669,750,0.77,-1.283,2.285,95.3,red,233,TRUE
751,1660184409.5,3832,-2395,882,4.672,-1.425,-0.543,80.9,yellow,233,TRUE
752,1660184410.823,4061,2898,3350,2.317,-1.345,0.238,93.7,blue,233,TRUE
753,1660184410.917,3761,2688,750,0.58,-1.295,2.382,93.8,red,233,TRUE
754,1660184411.027,3839,-2394,882,4.673,-1.458,-0.08,88.8,yellow,233,TRUE
755,1660184411.115,2907,-2465,2526,5.191,-0.877,0.228,78.1,green,233,TRUE
756,1660184411.37,4077,2873,3350,2.314,-1.34,0.233,94.5,blue,233,TRUE
757,1660184411.465,3797,2654,750,0.575,-1.295,2.429,93.7,red,233,TRUE
758,1660184411.574,3836,-2398,882,4.662,-1.455,-0.079,79.8,yellow,233,TRUE
759,1660184411.655,2909,-2465,2526,5.126,-0.873,0.216,93.8,green,233,TRUE
760,1660184411.92,4089,2849,3350,2.306,-1.332,0.22,101.2,blue,233,TRUE
761,1660184412.036,3844,2642,750,0.583,-1.284,2.463,93.7,red,233,TRUE
762,1660184412.13,3824,-2400,882,4.719,-1.434,-0.579,78.1,yellow,233,TRUE
763,1660184412.208,2942,-2478,2526,5.285,-1.038,0.173,80.0,green,233,TRUE
764,1660184412.457,4084,2843,3350,2.295,-1.325,0.215,93.7,blue,233,TRUE
765,1660184412.566,3861,2635,750,0.597,-1.276,2.457,88.4,red,233,TRUE
766,1660184412.654,3824,-2400,882,4.591,-1.415,-0.824,78.1,yellow,233,TRUE
767,1660184412.733,2944,-2486,2526,5.24,-1.163,0.115,92.4,green,233,TRUE
768,1660184413.012,4089,2864,3350,2.256,-1.3,0.132,93.7,blue,233,TRUE
769,1660184413.106,3861,2641,750,0.627,-1.276,2.403,95.2,red,233,TRUE
770,1660184413.203,3872,-2381,882,4.497,-1.414,-0.861,85.9,yellow,233,TRUE
771,1660184414.604,4095,2869,3350,2.23,-1.353,0.081,93.7,blue,233,TRUE
772,1660184414.698,3864,2646,750,0.654,-1.254,2.398,96.4,red,233,TRUE
773,1660184414.795,3896,-2362,882,4.531,-1.461,-0.103,91.3,yellow,233,TRUE
774,1660184416.178,4093,2849,3350,2.215,-1.345,0.059,93.7,blue,233,TRUE
775,1660184416.272,3861,2653,750,0.686,-1.271,2.358,84.3,red,233,TRUE
776,1660184416.356,3858,-2351,882,4.656,-1.469,-0.091,78.1,yellow,233,TRUE
777,1660184417.759,4099,2833,3350,2.201,-1.334,0.05,93.1,blue,233,TRUE
778,1660184417.855,3913,2644,750,0.595,-1.261,2.466,81.5,red,233,TRUE
779,1660184417.937,3858,-2351,882,4.199,-1.43,-1.648,78.1,yellow,233,TRUE
780,1660184418.268,4097,2829,3350,2.181,-1.324,0.053,93.7,blue,233,TRUE
781,1660184418.362,3907,2649,750,0.58,-1.266,2.471,95.2,red,233,TRUE
782,1660184418.46,3858,-2351,882,4.295,-1.418,-1.216,64.4,yellow,233,TRUE
783,1660184418.729,4097,2809,3350,2.195,-1.329,0.043,95.5,blue,233,TRUE
784,1660184418.824,3924,2660,750,0.54,-1.274,2.49,93.8,red,233,TRUE
785,1660184418.918,3843,-2371,882,4.433,-1.431,-0.994,93.7,yellow,233,TRUE
786,1660184419.237,4081,2818,3350,2.188,-1.32,0.02,93.7,blue,233,TRUE
787,1660184419.331,3927,2662,750,0.445,-1.282,2.549,94.3,red,233,TRUE
788,1660184419.425,3812,-2369,882,4.301,-1.449,-0.981,93.7,yellow,233,TRUE
789,1660184419.777,4074,2794,3350,2.198,-1.331,0.029,93.8,blue,233,TRUE
790,1660184419.871,3911,2667,750,0.392,-1.299,2.543,93.7,red,233,TRUE
791,1660184419.965,3703,-2406,882,4.311,-1.45,-0.666,94.2,yellow,233,TRUE
792,1660184421.238,4068,2802,3350,2.191,-1.323,0.026,87.0,blue,233,TRUE
793,1660184421.325,3929,2667,750,0.576,-1.286,2.475,94.9,red,233,TRUE
794,1660184421.42,3677,-2393,882,4.433,-1.45,-0.983,93.7,yellow,233,TRUE
795,1660184421.775,4059,2803,3350,2.19,-1.337,0.05,94.5,blue,233,TRUE
796,1660184421.87,3918,2667,750,0.509,-1.295,2.503,90.6,red,233,TRUE
797,1660184421.961,3667,-2382,882,4.424,-1.443,-1.09,93.7,yellow,233,TRUE
798,1660184422.259,4107,2796,3350,2.201,-1.32,0.041,78.1,blue,233,TRUE
799,1660184422.337,3896,2670,750,0.491,-1.296,2.531,93.7,red,233,TRUE
800,1660184422.431,3670,-2371,882,4.428,-1.443,-0.927,100.0,yellow,233,TRUE
801,1660184422.735,4099,2785,3350,2.179,-1.261,0.029,105.5,blue,233,TRUE
802,1660184422.841,3887,2662,750,0.578,-1.306,2.45,93.7,red,233,TRUE
803,1660184422.935,3661,-2359,882,4.44,-1.444,-0.856,79.3,yellow,233,TRUE
804,1660184423.275,4087,2793,3350,2.317,-1.285,0.146,93.7,blue,233,TRUE
805,1660184423.368,3904,2663,750,0.595,-1.287,2.463,90.3,red,233,TRUE
806,1660184423.459,3629,-2353,882,4.502,-1.448,-0.804,93.7,yellow,233,TRUE
807,1660184423.75,4069,2798,3350,2.555,-1.271,0.172,91.8,blue,233,TRUE
808,1660184423.842,3888,2663,750,0.614,-1.26,2.484,93.7,red,233,TRUE
809,1660184423.935,3635,-2342,882,4.507,-1.432,-0.67,79.7,yellow,233,TRUE
810,1660184424.218,4037,2786,3350,2.597,-1.265,0.172,95.2,blue,233,TRUE
811,1660184424.314,3896,2658,750,0.867,-1.235,2.375,85.9,red,233,TRUE
812,1660184424.4,3551,-2357,882,4.487,-1.43,-0.717,78.1,yellow,233,TRUE
813,1660184424.757,4018,2799,3350,2.757,-1.294,0.245,91.5,blue,233,TRUE
814,1660184424.848,3893,2663,750,0.803,-1.222,2.447,95.6,red,233,TRUE
815,1660184425.252,3988,2793,3350,2.952,-1.329,0.189,88.6,blue,233,TRUE
816,1660184425.34,3907,2671,750,0.502,-1.266,2.609,93.7,red,233,TRUE
817,1660184425.434,3659,-2365,882,4.464,-1.44,-0.968,79.3,yellow,233,TRUE
818,1660184425.714,3957,2806,3350,3.072,-1.311,0.18,93.7,blue,233,TRUE
819,1660184425.808,3865,2669,750,0.213,-1.344,2.575,88.9,red,233,TRUE
820,1660184425.897,3625,-2371,882,4.563,-1.442,-0.893,78.1,yellow,233,TRUE
821,1660184426.228,3940,2795,3350,2.883,-1.323,-0.035,93.7,blue,233,TRUE
822,1660184426.322,3830,2659,750,0.302,-1.288,2.452,93.7,red,233,TRUE
823,1660184426.415,3647,-2365,882,4.585,-1.427,-0.933,93.7,yellow,233,TRUE
824,1660184426.717,3936,2832,3350,2.512,-1.394,-0.205,93.7,blue,233,TRUE
825,1660184426.812,3821,2670,750,0.406,-1.26,2.482,94.2,red,233,TRUE
826,1660184426.906,3647,-2365,882,4.579,-1.43,-1.04,78.1,yellow,233,TRUE
827,1660184427.181,3941,2849,3350,2.392,-1.416,-0.062,93.7,blue,233,TRUE
828,1660184427.29,3766,2663,750,0.395,-1.213,2.53,93.8,red,233,TRUE
829,1660184427.384,3741,-2333,882,4.554,-1.425,-1.013,87.1,yellow,233,TRUE
