,timestamp,x,y,z,yaw,roll,pitch,latency,student,session,success
0,1660198640.199,1740,-777,3348,5.586,-1.322,0.248,88.8,blue,236,TRUE
1,1660198640.291,-1609,4509,882,3.462,-0.037,-0.024,86.8,yellow,236,TRUE
2,1660198640.379,2157,-1203,2526,2.401,-0.544,-0.028,88.8,green,236,TRUE
3,1660198640.857,1543,190,750,0.767,-1.314,1.833,88.8,red,236,TRUE
4,1660198640.947,1877,-404,3348,5.596,-1.385,0.415,88.8,blue,236,TRUE
5,1660198641.038,-1596,4508,882,3.462,-0.037,-0.024,87.8,yellow,236,TRUE
6,1660198641.127,2151,-1205,2526,2.401,-0.544,-0.028,73.8,green,236,TRUE
7,1660198641.578,1728,536,750,0.805,-1.325,1.616,86.8,red,236,TRUE
8,1660198641.666,1948,24,3348,5.257,-1.403,-0.062,88.7,blue,236,TRUE
9,1660198641.755,-1596,4507,882,3.462,-0.037,-0.024,88.8,yellow,236,TRUE
10,1660198644.33,1822,958,750,0.14,-1.366,1.517,88.8,red,236,TRUE
11,1660198644.425,2062,462,3348,4.547,-1.286,0.111,83.8,blue,236,TRUE
12,1660198644.513,-1585,4507,882,3.462,-0.037,-0.024,85.8,yellow,236,TRUE
13,1660198644.6,2129,-1216,2526,2.401,-0.544,-0.028,88.8,green,236,TRUE
14,1660198645.08,1950,1315,750,5.762,-1.325,1.815,86.8,red,236,TRUE
15,1660198645.168,2182,898,3348,4.535,-1.332,-0.1,88.8,blue,236,TRUE
16,1660198645.26,-1562,4501,882,3.462,-0.037,-0.024,86.8,yellow,236,TRUE
17,1660198645.348,2126,-1216,2526,2.401,-0.544,-0.028,73.9,green,236,TRUE
18,1660198646.755,2074,1731,750,5.678,-1.311,1.53,88.8,red,236,TRUE
19,1660198646.85,2275,1335,3348,4.248,-1.376,-0.616,84.4,blue,236,TRUE
20,1660198646.937,-1553,4504,882,3.462,-0.037,-0.024,86.9,yellow,236,TRUE
21,1660198647.025,2140,-1210,2526,2.4,-0.544,-0.028,88.8,green,236,TRUE
22,1660198648.552,2185,2059,750,5.946,-1.345,1.695,88.7,red,236,TRUE
23,1660198648.647,2379,1599,3348,4.64,-1.377,0.087,82.7,blue,236,TRUE
24,1660198648.732,-1563,4507,882,3.462,-0.037,-0.024,87.8,yellow,236,TRUE
25,1660198648.82,2135,-1211,2526,2.4,-0.541,-0.027,74.9,green,236,TRUE
26,1660198650.257,2240,2329,750,6.157,-1.348,1.667,88.5,red,236,TRUE
27,1660198650.35,2511,1907,3348,4.421,-1.474,0.052,84.9,blue,236,TRUE
28,1660198650.44,-1554,4482,882,3.462,-0.037,-0.024,84.8,yellow,236,TRUE
29,1660198650.526,2074,-1219,2526,2.4,-0.541,-0.027,88.8,green,236,TRUE
30,1660198651.036,2306,2577,750,6.005,-1.36,1.752,87.8,red,236,TRUE
31,1660198651.124,2643,2184,3348,5.004,-1.432,0.309,88.8,blue,236,TRUE
32,1660198651.213,-1537,4478,882,3.462,-0.037,-0.024,89.8,yellow,236,TRUE
33,1660198651.306,2079,-1222,2526,2.4,-0.541,-0.027,86.8,green,236,TRUE
34,1660198651.782,2343,2751,750,5.967,-1.373,1.712,88.7,red,236,TRUE
35,1660198651.872,2764,2419,3348,4.973,-1.409,0.212,88.8,blue,236,TRUE
36,1660198651.964,-1530,4473,882,3.462,-0.037,-0.024,87.3,yellow,236,TRUE
37,1660198652.052,2082,-1225,2526,2.4,-0.541,-0.027,88.8,green,236,TRUE
38,1660198652.533,2355,2854,750,5.985,-1.392,1.685,86.8,red,236,TRUE
39,1660198652.621,2855,2627,3348,4.962,-1.357,0.184,88.8,blue,236,TRUE
40,1660198652.724,-1530,4476,882,3.462,-0.037,-0.024,90.7,yellow,236,TRUE
41,1660198652.816,2074,-1225,2526,2.4,-0.541,-0.027,73.8,green,236,TRUE
42,1660198654.358,2912,2804,3348,4.85,-1.438,0.122,88.8,blue,236,TRUE
43,1660198654.451,-1517,4475,882,3.462,-0.037,-0.024,85.7,yellow,236,TRUE
44,1660198654.543,2075,-1226,2526,2.4,-0.541,-0.027,83.7,green,236,TRUE
45,1660198655.031,2351,2917,750,6.135,-1.397,1.619,88.8,red,236,TRUE
46,1660198655.123,2950,2919,3348,4.912,-1.42,0.135,86.8,blue,236,TRUE
47,1660198655.211,-1506,4474,882,3.462,-0.037,-0.024,88.8,yellow,236,TRUE
48,1660198655.303,2069,-1226,2526,2.4,-0.541,-0.027,87.1,green,236,TRUE
49,1660198655.78,2340,2945,750,6.145,-1.398,1.596,89.3,red,236,TRUE
50,1660198655.87,2966,2972,3348,4.907,-1.378,0.084,88.8,blue,236,TRUE
51,1660198655.962,-1487,4487,882,3.462,-0.037,-0.024,86.8,yellow,236,TRUE
52,1660198656.05,2088,-1215,2526,2.4,-0.541,-0.027,88.8,green,236,TRUE
53,1660198656.529,2305,2979,750,6.156,-1.4,1.592,87.8,red,236,TRUE
54,1660198656.62,2971,3008,3348,4.913,-1.334,0.035,86.8,blue,236,TRUE
55,1660198656.708,-1483,4488,882,3.462,-0.037,-0.024,88.8,yellow,236,TRUE
56,1660198656.798,2096,-1212,2526,2.4,-0.541,-0.027,88.8,green,236,TRUE
57,1660198657.276,2274,3012,750,6.161,-1.397,1.542,88.8,red,236,TRUE
58,1660198657.366,2953,2999,3348,4.937,-1.289,0.041,88.7,blue,236,TRUE
59,1660198657.459,-1481,4486,882,3.462,-0.037,-0.024,85.8,yellow,236,TRUE
60,1660198657.546,2123,-1201,2526,2.4,-0.541,-0.027,73.8,green,236,TRUE
61,1660198658.026,2267,3042,750,6.162,-1.397,1.512,87.0,red,236,TRUE
62,1660198658.114,2951,2984,3348,4.886,-1.307,-0.008,88.8,blue,236,TRUE
63,1660198658.204,-1477,4482,882,3.462,-0.037,-0.024,88.8,yellow,236,TRUE
64,1660198658.295,2122,-1206,2526,2.4,-0.541,-0.027,86.8,green,236,TRUE
65,1660198658.773,2258,3087,750,6.126,-1.404,1.552,89.3,red,236,TRUE
66,1660198658.862,2956,2960,3348,4.881,-1.287,0.0,89.8,blue,236,TRUE
67,1660198658.955,-1479,4479,882,3.462,-0.037,-0.024,87.3,yellow,236,TRUE
68,1660198659.043,2113,-1212,2526,2.4,-0.541,-0.027,73.8,green,236,TRUE
69,1660198659.492,2256,3079,750,6.124,-1.404,1.518,88.8,red,236,TRUE
70,1660198659.582,2957,3034,3348,4.879,-1.287,0.013,87.8,blue,236,TRUE
71,1660198659.671,-1470,4476,882,3.462,-0.037,-0.024,89.3,yellow,236,TRUE
72,1660198659.761,2118,-1210,2526,2.4,-0.541,-0.027,103.7,green,236,TRUE
73,1660198660.24,2232,3074,750,6.1,-1.403,1.501,88.8,red,236,TRUE
74,1660198660.33,2968,3020,3348,4.862,-1.314,0.022,88.8,blue,236,TRUE
75,1660198660.423,-1460,4498,882,3.462,-0.037,-0.024,85.8,yellow,236,TRUE
76,1660198660.51,2183,-1198,2526,2.4,-0.541,-0.027,103.5,green,236,TRUE
77,1660198661.019,2249,3101,750,6.093,-1.405,1.568,89.7,red,236,TRUE
78,1660198661.111,2976,3038,3348,4.829,-1.334,0.009,86.8,blue,236,TRUE
79,1660198661.199,-1450,4495,882,3.462,-0.037,-0.024,88.8,yellow,236,TRUE
80,1660198661.291,2182,-1195,2526,2.4,-0.541,-0.027,86.9,green,236,TRUE
81,1660198661.767,2247,3067,750,6.118,-1.405,1.593,88.8,red,236,TRUE
82,1660198661.857,2934,3064,3348,4.88,-1.324,0.049,88.8,blue,236,TRUE
83,1660198661.948,-1450,4495,882,3.462,-0.037,-0.024,87.8,yellow,236,TRUE
84,1660198662.037,2177,-1195,2526,2.4,-0.541,-0.027,88.7,green,236,TRUE
85,1660198662.516,2229,3039,750,6.154,-1.413,1.647,88.8,red,236,TRUE
86,1660198662.607,2923,3073,3348,4.845,-1.331,0.063,87.8,blue,236,TRUE
87,1660198662.696,-1453,4496,882,3.462,-0.037,-0.024,88.8,yellow,236,TRUE
88,1660198662.785,2182,-1193,2526,2.4,-0.541,-0.027,88.8,green,236,TRUE
89,1660198663.264,2234,3053,750,6.093,-1.421,1.715,88.9,red,236,TRUE
90,1660198663.353,2894,3059,3348,4.591,-1.39,0.017,89.6,blue,236,TRUE
91,1660198663.447,-1438,4505,882,3.462,-0.037,-0.024,85.8,yellow,236,TRUE
92,1660198663.533,2177,-1192,2526,2.4,-0.541,-0.027,73.8,green,236,TRUE
93,1660198664.013,2219,3053,750,6.1,-1.426,1.653,88.8,red,236,TRUE
94,1660198664.103,2884,3033,3348,4.6,-1.42,0.124,87.8,blue,236,TRUE
95,1660198664.192,-1440,4504,882,3.462,-0.037,-0.024,88.8,yellow,236,TRUE
96,1660198665.78,2193,3116,750,0.048,-1.36,1.521,87.8,red,236,TRUE
97,1660198665.868,2880,3026,3348,4.755,-1.264,0.135,88.7,blue,236,TRUE
98,1660198665.959,-1438,4504,882,3.462,-0.037,-0.024,87.8,yellow,236,TRUE
99,1660198666.048,2184,-1190,2526,2.4,-0.541,-0.027,88.8,green,236,TRUE
100,1660198666.527,2168,3099,750,6.222,-1.36,1.372,88.6,red,236,TRUE
101,1660198666.618,2858,3035,3348,4.925,-1.273,0.272,86.8,blue,236,TRUE
102,1660198666.706,-1443,4501,882,3.462,-0.037,-0.024,88.8,yellow,236,TRUE
103,1660198666.796,2189,-1189,2526,2.4,-0.541,-0.027,88.7,green,236,TRUE
104,1660198667.289,2161,3054,750,6.118,-1.367,1.422,89.1,red,236,TRUE
105,1660198667.379,2872,3057,3348,4.905,-1.26,0.247,89.1,blue,236,TRUE
106,1660198667.473,-1432,4510,882,3.462,-0.037,-0.024,85.4,yellow,236,TRUE
107,1660198669.027,2161,3059,750,6.027,-1.369,1.419,87.8,red,236,TRUE
108,1660198669.117,2881,3064,3348,4.835,-1.18,0.156,87.4,blue,236,TRUE
109,1660198669.206,-1430,4497,882,3.462,-0.037,-0.024,89.0,yellow,236,TRUE
110,1660198669.296,2187,-1189,2526,2.4,-0.541,-0.027,88.8,green,236,TRUE
111,1660198670.732,2201,3080,750,6.005,-1.369,1.421,88.8,red,236,TRUE
112,1660198670.827,2886,3116,3348,5.111,-1.238,0.185,84.2,blue,236,TRUE
113,1660198670.912,-1423,4502,882,3.462,-0.037,-0.024,88.8,yellow,236,TRUE
114,1660198671.003,2184,-1188,2526,2.4,-0.541,-0.027,87.7,green,236,TRUE
115,1660198671.483,2218,3018,750,6.008,-1.369,1.41,86.4,red,236,TRUE
116,1660198671.572,2898,3179,3348,5.613,-1.257,0.121,86.8,blue,236,TRUE
117,1660198671.66,-1432,4510,882,3.462,-0.037,-0.024,88.8,yellow,236,TRUE
118,1660198671.75,2191,-1183,2526,2.4,-0.541,-0.027,88.5,green,236,TRUE
119,1660198672.228,2223,3037,750,6.112,-1.355,1.357,88.8,red,236,TRUE
120,1660198672.318,2928,3275,3348,5.646,-1.189,0.276,88.6,blue,236,TRUE
121,1660198672.408,-1433,4509,882,3.462,-0.037,-0.024,87.7,yellow,236,TRUE
122,1660198672.499,2190,-1181,2526,2.4,-0.541,-0.027,71.8,green,236,TRUE
123,1660198672.976,2268,3041,750,0.332,-1.293,2.03,88.8,red,236,TRUE
124,1660198673.067,2919,3401,3348,5.741,-1.252,0.074,88.4,blue,236,TRUE
125,1660198673.156,-1436,4517,882,3.462,-0.037,-0.024,88.7,yellow,236,TRUE
126,1660198673.246,2188,-1186,2526,2.4,-0.541,-0.027,88.8,green,236,TRUE
127,1660198673.725,2303,3112,750,0.295,-1.401,2.088,89.1,red,236,TRUE
128,1660198673.815,2923,3615,3348,5.035,-1.261,0.13,89.2,blue,236,TRUE
129,1660198673.904,-1460,4525,882,3.462,-0.037,-0.024,89.8,yellow,236,TRUE
130,1660198673.997,2212,-1169,2526,2.4,-0.541,-0.027,86.8,green,236,TRUE
131,1660198674.475,2338,3311,750,5.719,-1.347,1.92,87.8,red,236,TRUE
132,1660198674.566,2907,3835,3348,5.354,-1.239,0.272,86.8,blue,236,TRUE
133,1660198674.654,-1463,4521,882,3.462,-0.037,-0.024,88.8,yellow,236,TRUE
134,1660198674.746,2225,-1167,2526,2.4,-0.541,-0.027,85.8,green,236,TRUE
135,1660198675.222,2354,3482,750,5.733,-1.334,1.814,88.8,red,236,TRUE
136,1660198675.312,2922,4118,3348,5.133,-1.241,0.146,89.3,blue,236,TRUE
137,1660198675.403,-1471,4515,882,3.462,-0.037,-0.024,87.7,yellow,236,TRUE
138,1660198675.494,2237,-1160,2526,2.4,-0.541,-0.027,101.7,green,236,TRUE
139,1660198676.0,2363,3725,750,5.562,-1.389,2.05,88.8,red,236,TRUE
140,1660198676.092,2901,4443,3348,4.989,-1.208,0.156,87.3,blue,236,TRUE
141,1660198676.18,-1448,4524,882,3.462,-0.037,-0.024,88.8,yellow,236,TRUE
142,1660198676.27,2232,-1164,2526,2.4,-0.541,-0.027,88.8,green,236,TRUE
143,1660198676.75,2380,3999,750,5.696,-1.355,1.909,87.8,red,236,TRUE
144,1660198676.837,2884,4738,3348,4.758,-1.221,0.128,89.8,blue,236,TRUE
145,1660198676.929,-1447,4525,882,3.462,-0.037,-0.024,87.8,yellow,236,TRUE
146,1660198677.018,2232,-1166,2526,2.4,-0.541,-0.027,88.8,green,236,TRUE
147,1660198677.499,2394,4308,750,5.556,-1.397,1.986,86.8,red,236,TRUE
148,1660198677.588,2892,5045,3348,4.692,-1.2,0.068,86.8,blue,236,TRUE
149,1660198677.676,-1443,4528,882,3.462,-0.037,-0.024,88.8,yellow,236,TRUE
150,1660198677.766,2268,-1170,2526,2.065,-0.485,-0.014,88.8,green,236,TRUE
151,1660198678.245,2370,4667,750,5.799,-1.388,1.761,88.7,red,236,TRUE
152,1660198678.335,2881,5302,3348,4.691,-1.202,0.117,88.9,blue,236,TRUE
153,1660198678.427,-1458,4519,882,3.462,-0.037,-0.024,86.8,yellow,236,TRUE
154,1660198678.516,2265,-1183,2526,1.091,-0.357,-1.738,86.7,green,236,TRUE
155,1660198679.007,2352,4989,750,5.886,-1.39,1.669,89.8,red,236,TRUE
156,1660198679.099,2857,5591,3348,4.731,-1.305,0.442,87.6,blue,236,TRUE
157,1660198679.188,-1450,4536,882,3.462,-0.037,-0.024,88.8,yellow,236,TRUE
158,1660198679.277,2265,-1183,2526,6.101,-0.701,-1.228,74.4,green,236,TRUE
159,1660198679.757,2297,5287,750,5.926,-1.402,1.648,88.8,red,236,TRUE
160,1660198679.846,2830,5869,3348,4.529,-1.264,0.161,88.6,blue,236,TRUE
161,1660198679.937,-1456,4531,882,3.462,-0.037,-0.024,87.8,yellow,236,TRUE
162,1660198681.586,2286,5650,750,0.046,-1.37,1.455,85.8,red,236,TRUE
163,1660198681.673,2804,6160,3348,4.427,-1.252,0.008,88.7,blue,236,TRUE
164,1660198681.762,-1433,4528,882,3.462,-0.037,-0.024,88.5,yellow,236,TRUE
165,1660198683.409,2285,6040,750,0.259,-1.338,1.31,88.8,red,236,TRUE
166,1660198683.5,2756,6413,3348,4.458,-1.272,0.063,87.7,blue,236,TRUE
167,1660198683.591,-1426,4531,882,3.462,-0.037,-0.024,86.8,yellow,236,TRUE
168,1660198685.236,2243,6348,750,0.371,-1.333,1.252,87.8,red,236,TRUE
169,1660198685.324,2725,6564,3348,4.467,-1.257,0.001,89.5,blue,236,TRUE
170,1660198685.416,-1445,4531,882,3.462,-0.037,-0.024,87.8,yellow,236,TRUE
171,1660198685.983,2191,6589,750,0.419,-1.338,1.227,88.9,red,236,TRUE
172,1660198686.075,2713,6660,3348,4.428,-1.273,0.001,86.8,blue,236,TRUE
173,1660198686.163,-1425,4522,882,3.462,-0.037,-0.024,88.8,yellow,236,TRUE
174,1660198686.643,2166,6730,750,0.444,-1.342,1.309,88.4,red,236,TRUE
175,1660198686.732,2689,6802,3348,4.429,-1.277,-0.014,88.7,blue,236,TRUE
176,1660198686.822,-1432,4526,882,3.462,-0.037,-0.024,88.8,yellow,236,TRUE
177,1660198687.361,2134,6887,750,0.466,-1.34,1.306,88.8,red,236,TRUE
178,1660198687.45,2671,6831,3348,4.429,-1.269,-0.02,88.8,blue,236,TRUE
179,1660198687.542,-1445,4524,882,3.462,-0.037,-0.024,86.8,yellow,236,TRUE
180,1660198688.049,2121,6959,750,0.476,-1.338,1.295,88.8,red,236,TRUE
181,1660198688.139,2675,6884,3348,4.463,-1.257,0.0,87.8,blue,236,TRUE
182,1660198688.228,-1466,4515,882,3.462,-0.037,-0.024,89.4,yellow,236,TRUE
183,1660198688.767,2103,6964,750,0.508,-1.331,1.235,88.8,red,236,TRUE
184,1660198688.857,2670,6975,3348,4.477,-1.245,0.017,88.8,blue,236,TRUE
185,1660198688.948,-1489,4496,882,3.462,-0.037,-0.024,87.9,yellow,236,TRUE
186,1660198689.457,2099,6996,750,0.492,-1.336,1.237,88.8,red,236,TRUE
187,1660198689.547,2670,7004,3348,4.495,-1.23,0.022,87.7,blue,236,TRUE
188,1660198689.638,-1491,4496,882,3.462,-0.037,-0.024,87.1,yellow,236,TRUE
189,1660198690.174,2115,6996,750,0.487,-1.346,1.34,88.7,red,236,TRUE
190,1660198690.264,2660,7073,3348,4.489,-1.247,0.019,88.7,blue,236,TRUE
191,1660198690.354,-1499,4502,882,3.462,-0.037,-0.024,88.8,yellow,236,TRUE
192,1660198690.863,2115,6998,750,0.491,-1.346,1.372,88.8,red,236,TRUE
193,1660198690.953,2655,7125,3348,4.489,-1.248,0.009,88.7,blue,236,TRUE
194,1660198691.043,-1518,4498,882,3.462,-0.037,-0.024,87.8,yellow,236,TRUE
195,1660198692.631,2103,6999,750,0.504,-1.344,1.328,86.8,red,236,TRUE
196,1660198692.719,2657,7156,3348,4.531,-1.232,0.056,88.8,blue,236,TRUE
197,1660198692.809,-1514,4495,882,3.462,-0.037,-0.024,88.8,yellow,236,TRUE
198,1660198694.442,2128,7015,750,0.771,-1.34,1.515,87.7,red,236,TRUE
199,1660198694.531,2678,7125,3348,5.557,-1.225,0.576,88.4,blue,236,TRUE
200,1660198694.622,-1538,4495,882,3.462,-0.037,-0.024,87.8,yellow,236,TRUE
201,1660198696.208,2208,6920,750,2.088,-1.382,1.804,86.8,red,236,TRUE
202,1660198696.296,2751,7081,3348,1.073,-1.188,-0.147,88.8,blue,236,TRUE
203,1660198696.386,-1552,4494,882,3.462,-0.037,-0.024,88.2,yellow,236,TRUE
204,1660198696.49,1919,-346,2526,2.721,-0.477,-1.404,74.8,green,236,TRUE
205,1660198696.985,2301,6869,750,2.045,-1.32,1.556,89.8,red,236,TRUE
206,1660198697.077,2809,7094,3348,1.317,-1.229,0.273,87.7,blue,236,TRUE
207,1660198697.166,-1545,4494,882,3.462,-0.037,-0.024,88.8,yellow,236,TRUE
208,1660198697.255,1546,405,2526,2.505,-0.113,-1.469,73.9,green,236,TRUE
209,1660198697.735,2437,6857,750,1.365,-1.312,1.622,88.8,red,236,TRUE
210,1660198697.825,2903,7110,3348,1.277,-1.172,0.204,88.7,blue,236,TRUE
211,1660198697.913,-1537,4499,882,3.462,-0.037,-0.024,89.8,yellow,236,TRUE
212,1660198699.471,2561,6818,750,1.537,-1.352,1.718,88.0,red,236,TRUE
213,1660198699.562,2993,7049,3348,1.297,-1.286,0.573,87.7,blue,236,TRUE
214,1660198699.652,-1526,4499,882,3.462,-0.037,-0.024,86.8,yellow,236,TRUE
215,1660198699.739,1546,405,2526,3.833,-0.212,-1.204,74.1,green,236,TRUE
216,1660198700.218,2708,6781,750,1.49,-1.366,1.792,88.8,red,236,TRUE
217,1660198700.308,3052,7026,3348,1.542,-1.256,0.338,88.9,blue,236,TRUE
218,1660198700.399,-1531,4500,882,3.462,-0.037,-0.024,87.8,yellow,236,TRUE
219,1660198700.489,1546,405,2526,3.302,-0.178,-1.385,72.8,green,236,TRUE
220,1660198700.967,2839,6755,750,1.448,-1.361,1.871,88.8,red,236,TRUE
221,1660198701.057,3109,6991,3348,1.332,-1.212,0.243,88.8,blue,236,TRUE
222,1660198701.148,-1541,4508,882,3.462,-0.037,-0.024,87.7,yellow,236,TRUE
223,1660198701.236,1546,405,2526,2.894,-0.467,-0.899,73.8,green,236,TRUE
224,1660198701.715,2975,6720,750,1.316,-1.374,1.954,88.7,red,236,TRUE
225,1660198701.805,3174,6929,3348,1.329,-1.22,0.233,89.1,blue,236,TRUE
226,1660198701.895,-1534,4518,882,3.462,-0.037,-0.024,88.8,yellow,236,TRUE
227,1660198701.985,1546,405,2526,2.654,-0.487,0.071,72.8,green,236,TRUE
228,1660198702.433,3108,6687,750,1.335,-1.377,1.919,88.8,red,236,TRUE
229,1660198702.525,3237,6944,3348,0.952,-1.232,0.191,86.7,blue,236,TRUE
230,1660198702.615,-1542,4525,882,3.462,-0.037,-0.024,86.8,yellow,236,TRUE
231,1660198702.702,1546,405,2526,2.571,-0.392,0.248,73.8,green,236,TRUE
232,1660198703.151,3245,6659,750,1.37,-1.372,1.934,88.8,red,236,TRUE
233,1660198703.241,3330,6922,3348,1.197,-1.3,0.313,88.8,blue,236,TRUE
234,1660198703.331,-1543,4520,882,3.462,-0.037,-0.024,88.8,yellow,236,TRUE
235,1660198703.422,1546,405,2526,2.498,-0.261,0.125,71.5,green,236,TRUE
236,1660198703.899,3371,6623,750,1.374,-1.372,1.924,88.8,red,236,TRUE
237,1660198703.989,3421,6929,3348,1.404,-1.302,0.161,88.8,blue,236,TRUE
238,1660198704.08,-1544,4520,882,3.462,-0.037,-0.024,88.1,yellow,236,TRUE
239,1660198704.169,1217,1096,2526,2.263,0.422,-0.422,88.8,green,236,TRUE
240,1660198704.651,3552,6605,750,1.361,-1.373,1.914,87.8,red,236,TRUE
241,1660198704.739,3506,6961,3348,1.309,-1.304,0.175,88.8,blue,236,TRUE
242,1660198704.828,-1564,4526,882,3.462,-0.037,-0.024,89.4,yellow,236,TRUE
243,1660198704.919,887,1780,2526,1.877,0.774,-0.201,89.3,green,236,TRUE
244,1660198705.398,3675,6567,750,1.344,-1.374,1.931,88.8,red,236,TRUE
245,1660198705.488,3579,7011,3348,1.098,-1.324,0.105,89.6,blue,236,TRUE
246,1660198705.58,-1550,4535,882,3.462,-0.037,-0.024,85.8,yellow,236,TRUE
247,1660198705.667,521,2465,2526,1.596,0.905,-0.143,88.8,green,236,TRUE
248,1660198706.147,3732,6546,750,1.347,-1.373,1.939,86.9,red,236,TRUE
249,1660198706.235,3598,7041,3348,1.337,-1.324,0.223,88.8,blue,236,TRUE
250,1660198706.325,-1551,4542,882,3.462,-0.037,-0.024,88.8,yellow,236,TRUE
251,1660198706.416,194,3170,2526,1.748,0.869,-0.312,72.8,green,236,TRUE
252,1660198706.894,3785,6539,750,1.338,-1.377,1.919,88.8,red,236,TRUE
253,1660198706.983,3629,7045,3348,1.317,-1.33,0.164,88.8,blue,236,TRUE
254,1660198707.074,-1538,4545,882,3.462,-0.037,-0.024,87.8,yellow,236,TRUE
255,1660198707.163,-128,3916,2526,1.947,0.86,-0.425,88.8,green,236,TRUE
256,1660198707.658,3801,6550,750,1.244,-1.382,1.918,86.8,red,236,TRUE
257,1660198707.746,3616,7038,3348,1.24,-1.322,0.118,88.8,blue,236,TRUE
258,1660198707.836,-1539,4546,882,3.462,-0.037,-0.024,88.8,yellow,236,TRUE
259,1660198707.926,-441,4604,2526,2.165,0.069,-0.552,73.8,green,236,TRUE
260,1660198708.404,3815,6561,750,1.198,-1.384,1.908,88.8,red,236,TRUE
261,1660198708.494,3624,7059,3348,1.272,-1.313,0.124,89.0,blue,236,TRUE
262,1660198708.587,-1521,4560,882,3.462,-0.037,-0.024,85.7,yellow,236,TRUE
263,1660198708.674,-441,4604,2526,3.067,-0.759,0.194,73.8,green,236,TRUE
264,1660198709.154,3821,6578,750,1.224,-1.386,1.857,86.8,red,236,TRUE
265,1660198709.242,3648,7100,3348,1.443,-1.346,0.236,88.8,blue,236,TRUE
266,1660198709.332,-1505,4570,882,3.462,-0.037,-0.024,88.7,yellow,236,TRUE
267,1660198709.422,-441,4604,2526,3.095,-0.061,0.073,72.9,green,236,TRUE
268,1660198709.9,3819,6585,750,1.365,-1.369,1.881,88.8,red,236,TRUE
269,1660198709.99,3648,7101,3348,1.634,-1.329,0.307,88.8,blue,236,TRUE
270,1660198710.081,-1521,4568,882,3.462,-0.037,-0.024,87.7,yellow,236,TRUE
271,1660198710.169,-441,4604,2526,3.066,-0.068,0.068,74.8,green,236,TRUE
272,1660198710.65,3821,6578,750,1.551,-1.35,1.873,86.8,red,236,TRUE
273,1660198710.738,3640,7095,3348,1.696,-1.304,0.356,88.8,blue,236,TRUE
274,1660198710.828,-1526,4556,882,3.462,-0.037,-0.024,88.8,yellow,236,TRUE
275,1660198710.918,-441,4604,2526,3.06,-0.068,0.064,73.8,green,236,TRUE
276,1660198711.397,3801,6523,750,1.563,-1.356,1.721,88.8,red,236,TRUE
277,1660198711.487,3610,7025,3348,1.629,-1.324,0.095,88.8,blue,236,TRUE
278,1660198711.579,-1529,4555,882,3.462,-0.037,-0.024,85.8,yellow,236,TRUE
279,1660198711.666,-441,4604,2526,3.059,-0.068,0.062,73.9,green,236,TRUE
280,1660198712.147,3771,6478,750,1.557,-1.35,1.673,87.6,red,236,TRUE
281,1660198712.235,3596,6986,3348,1.689,-1.334,0.027,88.8,blue,236,TRUE
282,1660198712.325,-1486,4573,882,3.462,-0.037,-0.024,88.8,yellow,236,TRUE
283,1660198712.415,-441,4604,2526,3.058,-0.055,0.072,73.8,green,236,TRUE
284,1660198712.893,3752,6444,750,1.552,-1.353,1.581,88.8,red,236,TRUE
285,1660198712.983,3557,6933,3348,1.8,-1.392,-0.216,88.8,blue,236,TRUE
286,1660198713.075,-1453,4589,882,3.462,-0.037,-0.024,87.8,yellow,236,TRUE
287,1660198713.164,-441,4604,2526,3.058,-0.055,0.071,72.8,green,236,TRUE
288,1660198713.644,3703,6400,750,1.577,-1.36,1.632,85.7,red,236,TRUE
289,1660198713.731,3537,6848,3348,1.955,-1.306,0.226,88.8,blue,236,TRUE
290,1660198713.821,-1425,4594,882,3.462,-0.037,-0.024,88.8,yellow,236,TRUE
291,1660198713.911,-441,4604,2526,3.058,-0.055,0.071,73.8,green,236,TRUE
292,1660198714.389,3659,6339,750,1.635,-1.357,1.619,88.8,red,236,TRUE
293,1660198714.479,3532,6756,3348,2.099,-1.295,0.467,88.5,blue,236,TRUE
294,1660198714.572,-1414,4601,882,3.462,-0.037,-0.024,85.8,yellow,236,TRUE
295,1660198714.658,-441,4604,2526,3.058,-0.055,0.071,73.8,green,236,TRUE
296,1660198715.138,3620,6306,750,1.606,-1.36,1.583,87.8,red,236,TRUE
297,1660198715.227,3511,6672,3348,2.155,-1.372,0.585,88.7,blue,236,TRUE
298,1660198715.317,-1392,4605,882,3.462,-0.037,-0.024,88.8,yellow,236,TRUE
299,1660198715.406,-441,4604,2526,3.058,-0.055,0.071,73.8,green,236,TRUE
300,1660198715.855,3597,6283,750,1.496,-1.37,1.576,88.8,red,236,TRUE
301,1660198715.945,3499,6613,3348,2.02,-1.348,0.335,88.8,blue,236,TRUE
302,1660198716.036,-1412,4606,882,3.462,-0.037,-0.024,87.8,yellow,236,TRUE
303,1660198716.125,-441,4604,2526,3.057,-0.055,0.071,73.7,green,236,TRUE
304,1660198716.606,3574,6240,750,1.445,-1.368,1.657,85.8,red,236,TRUE
305,1660198716.693,3474,6552,3348,1.809,-1.309,0.146,88.8,blue,236,TRUE
306,1660198716.796,-1399,4613,882,3.462,-0.037,-0.024,90.8,yellow,236,TRUE
307,1660198716.887,-441,4604,2526,3.058,-0.061,0.065,73.8,green,236,TRUE
308,1660198717.366,3541,6204,750,1.194,-1.385,1.797,88.8,red,236,TRUE
309,1660198717.456,3455,6482,3348,1.787,-1.3,0.136,88.8,blue,236,TRUE
310,1660198717.549,-1403,4606,882,3.462,-0.037,-0.024,85.6,yellow,236,TRUE
311,1660198717.635,-441,4604,2526,3.067,-0.059,0.065,73.8,green,236,TRUE
312,1660198718.116,3505,6132,750,1.275,-1.373,1.835,87.8,red,236,TRUE
313,1660198718.205,3440,6420,3348,1.575,-1.31,0.036,88.8,blue,236,TRUE
314,1660198718.294,-1394,4596,882,3.462,-0.037,-0.024,88.8,yellow,236,TRUE
315,1660198718.384,-441,4604,2526,3.07,-0.056,0.067,73.8,green,236,TRUE
316,1660198718.863,3508,6068,750,1.451,-1.376,1.877,88.9,red,236,TRUE
317,1660198718.952,3440,6400,3348,1.104,-1.27,-0.134,89.8,blue,236,TRUE
318,1660198719.043,-1353,4606,882,3.462,-0.037,-0.024,87.8,yellow,236,TRUE
319,1660198719.132,-441,4604,2526,3.07,-0.056,0.065,73.8,green,236,TRUE
320,1660198719.614,3487,6009,750,1.432,-1.373,1.975,85.8,red,236,TRUE
321,1660198719.701,3458,6388,3348,1.068,-1.27,-0.094,88.8,blue,236,TRUE
322,1660198719.797,-1329,4627,882,3.462,-0.037,-0.024,96.7,yellow,236,TRUE
323,1660198719.894,-441,4604,2526,3.069,-0.056,0.065,74.7,green,236,TRUE
324,1660198720.359,3491,6009,750,1.674,-1.348,2.301,88.7,red,236,TRUE
325,1660198720.449,3474,6405,3348,1.065,-1.295,-0.067,88.8,blue,236,TRUE
326,1660198720.542,-1300,4639,882,3.462,-0.037,-0.024,85.8,yellow,236,TRUE
327,1660198720.628,-441,4604,2526,3.069,-0.056,0.065,73.5,green,236,TRUE
328,1660198721.108,3508,5944,750,2.437,-1.328,2.272,88.3,red,236,TRUE
329,1660198721.197,3474,6395,3348,1.454,-1.316,0.171,88.8,blue,236,TRUE
330,1660198721.287,-1328,4628,882,3.462,-0.037,-0.024,88.7,yellow,236,TRUE
331,1660198721.377,-441,4604,2526,3.069,-0.056,0.065,73.8,green,236,TRUE
332,1660198721.856,3559,5791,750,2.471,-1.361,2.054,88.7,red,236,TRUE
333,1660198721.946,3497,6393,3348,0.716,-1.365,-0.472,88.8,blue,236,TRUE
334,1660198722.037,-1361,4612,882,3.462,-0.037,-0.024,87.8,yellow,236,TRUE
335,1660198722.125,-441,4604,2526,3.069,-0.056,0.065,73.8,green,236,TRUE
336,1660198722.607,3619,5592,750,2.181,-1.384,1.716,85.8,red,236,TRUE
337,1660198722.694,3505,6423,3348,1.078,-1.238,0.118,88.8,blue,236,TRUE
338,1660198722.797,-1364,4610,882,3.462,-0.037,-0.024,90.7,yellow,236,TRUE
339,1660198722.889,-441,4604,2526,3.07,-0.057,0.064,73.8,green,236,TRUE
340,1660198723.352,3707,5408,750,0.971,-1.403,1.929,88.8,red,236,TRUE
341,1660198723.442,3499,6469,3348,1.094,-1.298,0.299,88.8,blue,236,TRUE
342,1660198723.535,-1375,4589,882,3.462,-0.037,-0.024,85.8,yellow,236,TRUE
343,1660198723.622,-441,4604,2526,3.07,-0.057,0.064,73.8,green,236,TRUE
344,1660198724.103,3787,5188,750,1.966,-1.284,1.806,87.8,red,236,TRUE
345,1660198724.191,3522,6521,3348,0.887,-1.244,-0.057,89.3,blue,236,TRUE
346,1660198724.281,-1390,4571,882,3.462,-0.037,-0.024,88.7,yellow,236,TRUE
347,1660198724.371,-441,4604,2526,3.07,-0.057,0.064,73.8,green,236,TRUE
348,1660198724.82,3893,4928,750,2.056,-1.395,2.11,88.8,red,236,TRUE
349,1660198724.91,3507,6553,3348,1.097,-1.221,0.123,89.4,blue,236,TRUE
350,1660198725.001,-1360,4572,882,3.462,-0.037,-0.024,87.8,yellow,236,TRUE
351,1660198725.09,-441,4604,2526,3.07,-0.057,0.064,73.8,green,236,TRUE
352,1660198725.569,4028,4648,750,2.002,-1.369,1.517,88.0,red,236,TRUE
353,1660198725.66,3508,6573,3348,1.107,-1.214,0.166,86.8,blue,236,TRUE
354,1660198725.748,-1378,4559,882,3.462,-0.037,-0.024,88.8,yellow,236,TRUE
355,1660198725.838,-441,4604,2526,3.07,-0.057,0.064,73.8,green,236,TRUE
356,1660198726.287,4183,4345,750,1.983,-1.429,1.732,88.7,red,236,TRUE
357,1660198726.376,3506,6616,3348,1.097,-1.221,0.176,88.8,blue,236,TRUE
358,1660198726.468,-1393,4550,882,3.462,-0.037,-0.024,87.8,yellow,236,TRUE
359,1660198726.559,-441,4604,2526,3.07,-0.057,0.064,70.8,green,236,TRUE
360,1660198727.034,4333,4073,750,2.055,-1.378,1.824,88.7,red,236,TRUE
361,1660198727.125,3517,6641,3348,1.048,-1.237,0.173,87.8,blue,236,TRUE
362,1660198727.214,-1400,4545,882,3.462,-0.037,-0.024,88.8,yellow,236,TRUE
363,1660198727.304,-441,4604,2526,3.07,-0.057,0.064,73.8,green,236,TRUE
364,1660198727.753,4471,3817,750,2.097,-1.335,1.922,88.7,red,236,TRUE
365,1660198727.842,3521,6642,3348,1.054,-1.227,0.176,88.8,blue,236,TRUE
366,1660198727.932,-1422,4528,882,3.462,-0.037,-0.024,88.6,yellow,236,TRUE
367,1660198728.024,-441,4604,2526,3.07,-0.057,0.064,72.8,green,236,TRUE
368,1660198728.501,4643,3538,750,2.122,-1.264,2.121,88.7,red,236,TRUE
369,1660198728.592,3498,6628,3348,1.06,-1.212,0.152,87.2,blue,236,TRUE
370,1660198728.683,-1436,4516,882,3.462,-0.037,-0.024,86.8,yellow,236,TRUE
371,1660198728.77,-441,4604,2526,3.07,-0.057,0.064,73.9,green,236,TRUE
372,1660198729.22,4808,3256,750,2.087,-1.27,2.095,90.3,red,236,TRUE
373,1660198729.31,3490,6618,3348,1.064,-1.202,0.145,88.8,blue,236,TRUE
374,1660198729.4,-1445,4505,882,3.462,-0.037,-0.024,88.8,yellow,236,TRUE
375,1660198729.494,-441,4604,2526,3.07,-0.057,0.064,69.7,green,236,TRUE
376,1660198729.983,4940,3039,750,2.059,-1.318,1.857,88.8,red,236,TRUE
377,1660198730.073,3484,6631,3348,1.055,-1.217,0.164,88.8,blue,236,TRUE
378,1660198730.164,-1445,4502,882,3.462,-0.037,-0.024,87.8,yellow,236,TRUE
379,1660198730.252,-441,4604,2526,3.07,-0.057,0.064,73.8,green,236,TRUE
380,1660198730.732,5046,2902,750,2.092,-1.308,1.958,87.8,red,236,TRUE
381,1660198730.821,3478,6638,3348,1.06,-1.223,0.177,88.7,blue,236,TRUE
382,1660198730.91,-1431,4503,882,3.462,-0.037,-0.024,88.8,yellow,236,TRUE
383,1660198731.001,-441,4604,2526,3.07,-0.057,0.064,72.8,green,236,TRUE
384,1660198731.509,5141,2822,750,2.076,-1.32,1.895,88.8,red,236,TRUE
385,1660198731.599,3465,6630,3348,1.057,-1.209,0.159,88.8,blue,236,TRUE
386,1660198731.691,-1446,4503,882,3.462,-0.037,-0.024,85.8,yellow,236,TRUE
387,1660198731.778,-441,4604,2526,3.07,-0.057,0.064,73.8,green,236,TRUE
388,1660198732.257,5221,2721,750,2.122,-1.32,1.86,88.8,red,236,TRUE
389,1660198732.347,3451,6614,3348,1.066,-1.181,0.129,88.8,blue,236,TRUE
390,1660198732.436,-1463,4514,882,3.462,-0.037,-0.024,88.6,yellow,236,TRUE
391,1660198732.529,-441,4604,2526,3.07,-0.057,0.064,70.8,green,236,TRUE
392,1660198733.005,5302,2660,750,2.098,-1.322,1.825,88.8,red,236,TRUE
393,1660198733.095,3428,6605,3348,1.064,-1.198,0.148,88.8,blue,236,TRUE
394,1660198733.186,-1468,4524,882,3.462,-0.037,-0.024,87.8,yellow,236,TRUE
395,1660198733.275,-441,4604,2526,3.07,-0.057,0.064,73.8,green,236,TRUE
396,1660198733.753,5342,2638,750,2.104,-1.323,1.801,89.0,red,236,TRUE
397,1660198733.843,3434,6614,3348,1.061,-1.197,0.147,88.8,blue,236,TRUE
398,1660198733.933,-1478,4519,882,3.462,-0.037,-0.024,88.6,yellow,236,TRUE
399,1660198734.025,-441,4604,2526,3.07,-0.057,0.064,71.9,green,236,TRUE
400,1660198734.501,5355,2624,750,2.106,-1.324,1.797,89.3,red,236,TRUE
401,1660198734.592,3439,6624,3348,1.072,-1.174,0.121,88.8,blue,236,TRUE
402,1660198734.684,-1488,4525,882,3.462,-0.037,-0.024,85.8,yellow,236,TRUE
403,1660198734.771,-441,4604,2526,3.07,-0.057,0.064,73.8,green,236,TRUE
404,1660198735.25,5360,2634,750,2.149,-1.317,1.81,88.7,red,236,TRUE
405,1660198735.34,3438,6611,3348,1.09,-1.166,0.117,89.8,blue,236,TRUE
406,1660198735.431,-1478,4530,882,3.462,-0.037,-0.024,88.8,yellow,236,TRUE
407,1660198735.524,-441,4604,2526,3.07,-0.057,0.064,70.8,green,236,TRUE
408,1660198735.999,5378,2624,750,2.206,-1.244,2.341,89.2,red,236,TRUE
409,1660198736.09,3432,6605,3348,1.064,-1.2,0.147,88.8,blue,236,TRUE
410,1660198736.181,-1485,4547,882,3.462,-0.037,-0.024,86.8,yellow,236,TRUE
411,1660198736.269,-441,4604,2526,3.07,-0.057,0.064,73.8,green,236,TRUE
412,1660198736.748,5375,2623,750,2.17,-1.237,2.389,88.8,red,236,TRUE
413,1660198736.838,3431,6601,3348,1.064,-1.18,0.129,88.8,blue,236,TRUE
414,1660198736.928,-1518,4555,882,3.462,-0.037,-0.024,88.8,yellow,236,TRUE
415,1660198737.02,-441,4604,2526,3.07,-0.057,0.064,71.8,green,236,TRUE
416,1660198737.497,5361,2643,750,2.178,-1.223,2.405,88.8,red,236,TRUE
417,1660198737.586,3452,6601,3348,1.085,-1.145,0.104,88.5,blue,236,TRUE
418,1660198737.679,-1545,4552,882,3.462,-0.037,-0.024,85.8,yellow,236,TRUE
419,1660198737.766,-441,4604,2526,3.07,-0.057,0.064,74.8,green,236,TRUE
420,1660198738.214,5348,2655,750,2.16,-1.226,2.41,88.8,red,236,TRUE
421,1660198738.317,3457,6591,3348,1.174,-1.107,0.089,90.8,blue,236,TRUE
422,1660198738.409,-1569,4546,882,3.462,-0.037,-0.024,88.8,yellow,236,TRUE
423,1660198738.5,-441,4604,2526,3.07,-0.057,0.064,71.8,green,236,TRUE
424,1660198738.962,5361,2659,750,2.141,-1.242,2.376,88.8,red,236,TRUE
425,1660198739.052,3455,6589,3348,1.199,-1.132,0.111,88.8,blue,236,TRUE
426,1660198739.144,-1563,4549,882,3.462,-0.037,-0.024,86.7,yellow,236,TRUE
427,1660198739.231,-441,4604,2526,3.07,-0.057,0.064,73.8,green,236,TRUE
428,1660198739.711,5384,2643,750,2.047,-1.302,2.292,87.7,red,236,TRUE
429,1660198739.8,3465,6589,3348,1.313,-1.122,0.145,88.8,blue,236,TRUE
430,1660198739.89,-1575,4549,882,3.462,-0.037,-0.024,88.8,yellow,236,TRUE
431,1660198739.98,-441,4604,2526,3.07,-0.057,0.064,73.8,green,236,TRUE
432,1660198740.458,5392,2625,750,2.231,-1.391,1.714,88.8,red,236,TRUE
433,1660198740.547,3457,6585,3348,1.045,-1.187,0.029,89.7,blue,236,TRUE
434,1660198740.641,-1562,4551,882,3.462,-0.037,-0.024,70.8,yellow,236,TRUE
435,1660198740.712,-441,4604,2526,3.07,-0.057,0.064,73.8,green,236,TRUE
436,1660198741.178,5410,2589,750,2.585,-1.332,1.67,87.8,red,236,TRUE
437,1660198741.266,3459,6580,3348,1.05,-1.177,-0.004,88.8,blue,236,TRUE
438,1660198741.356,-1543,4550,882,3.462,-0.037,-0.024,88.7,yellow,236,TRUE
439,1660198741.446,-441,4604,2526,3.07,-0.057,0.064,73.8,green,236,TRUE
440,1660198741.94,5418,2551,750,2.632,-1.305,1.809,88.8,red,236,TRUE
441,1660198742.028,3460,6577,3348,1.049,-1.19,-0.007,89.8,blue,236,TRUE
442,1660198742.12,-1547,4547,882,3.462,-0.037,-0.024,87.7,yellow,236,TRUE
443,1660198742.209,-441,4604,2526,3.07,-0.057,0.064,73.8,green,236,TRUE
444,1660198742.691,5427,2513,750,2.7,-1.283,1.781,85.8,red,236,TRUE
445,1660198742.777,3463,6575,3348,1.064,-1.187,0.004,88.8,blue,236,TRUE
446,1660198742.866,-1558,4560,882,3.462,-0.037,-0.024,89.8,yellow,236,TRUE
447,1660198742.956,-441,4604,2526,3.07,-0.057,0.064,74.8,green,236,TRUE
448,1660198743.435,5441,2469,750,2.77,-1.27,1.679,88.8,red,236,TRUE
449,1660198743.525,3464,6560,3348,1.08,-1.18,0.02,88.8,blue,236,TRUE
450,1660198743.618,-1510,4584,882,3.462,-0.037,-0.024,85.8,yellow,236,TRUE
451,1660198743.705,-441,4604,2526,3.07,-0.057,0.064,73.8,green,236,TRUE
452,1660198744.186,5441,2431,750,2.761,-1.264,1.736,86.9,red,236,TRUE
453,1660198744.274,3466,6559,3348,1.184,-1.166,0.051,88.8,blue,236,TRUE
454,1660198744.363,-1498,4594,882,3.462,-0.037,-0.024,88.8,yellow,236,TRUE
455,1660198744.453,-441,4604,2526,3.07,-0.057,0.064,73.8,green,236,TRUE
456,1660198744.931,5436,2399,750,2.759,-1.264,1.716,89.7,red,236,TRUE
457,1660198745.022,3452,6557,3348,1.176,-1.144,0.053,88.8,blue,236,TRUE
458,1660198745.112,-1495,4586,882,3.462,-0.037,-0.024,87.8,yellow,236,TRUE
459,1660198745.201,-441,4604,2526,3.07,-0.057,0.064,73.8,green,236,TRUE
460,1660198745.683,5453,2354,750,2.769,-1.263,1.679,85.8,red,236,TRUE
461,1660198745.77,3446,6551,3348,1.222,-1.134,0.057,88.9,blue,236,TRUE
462,1660198745.86,-1463,4592,882,3.462,-0.037,-0.024,88.7,yellow,236,TRUE
463,1660198745.949,-441,4604,2526,3.07,-0.057,0.064,73.8,green,236,TRUE
464,1660198746.428,5440,2284,750,2.787,-1.262,1.674,89.0,red,236,TRUE
465,1660198746.518,3431,6543,3348,1.214,-1.176,0.101,89.2,blue,236,TRUE
466,1660198746.611,-1438,4596,882,3.462,-0.037,-0.024,85.8,yellow,236,TRUE
467,1660198746.698,-441,4604,2526,3.07,-0.057,0.064,73.8,green,236,TRUE
468,1660198747.179,5443,2207,750,2.796,-1.262,1.646,86.6,red,236,TRUE
469,1660198747.267,3416,6556,3348,1.109,-1.175,0.032,88.7,blue,236,TRUE
470,1660198747.357,-1414,4598,882,3.462,-0.037,-0.024,88.8,yellow,236,TRUE
471,1660198747.446,-441,4604,2526,3.07,-0.057,0.064,73.5,green,236,TRUE
472,1660198747.925,5436,2145,750,2.796,-1.263,1.631,88.8,red,236,TRUE
473,1660198748.015,3406,6559,3348,1.061,-1.22,0.024,89.0,blue,236,TRUE
474,1660198748.107,-1420,4592,882,3.462,-0.037,-0.024,86.8,yellow,236,TRUE
475,1660198748.194,-441,4604,2526,3.064,-0.067,0.05,73.8,green,236,TRUE
476,1660198748.676,5418,2108,750,2.798,-1.262,1.643,85.8,red,236,TRUE
477,1660198748.762,3385,6557,3348,1.058,-1.209,0.004,88.8,blue,236,TRUE
478,1660198748.852,-1419,4593,882,3.462,-0.037,-0.024,88.7,yellow,236,TRUE
479,1660198748.942,-441,4604,2526,3.085,-0.024,0.039,73.8,green,236,TRUE
480,1660198749.391,5423,2025,750,2.801,-1.262,1.636,88.7,red,236,TRUE
481,1660198749.481,3391,6563,3348,1.043,-1.223,0.017,88.8,blue,236,TRUE
482,1660198749.574,-1437,4592,882,3.462,-0.037,-0.024,85.8,yellow,236,TRUE
483,1660198749.661,-441,4604,2526,3.11,-0.015,-0.025,73.8,green,236,TRUE
484,1660198750.141,5387,2005,750,2.796,-1.263,1.621,87.8,red,236,TRUE
485,1660198750.229,3411,6580,3348,1.02,-1.22,0.073,88.8,blue,236,TRUE
486,1660198750.332,-1452,4594,882,3.462,-0.037,-0.024,90.7,yellow,236,TRUE
487,1660198750.424,-441,4604,2526,3.11,-0.015,-0.025,73.8,green,236,TRUE
488,1660198750.888,5369,2002,750,2.811,-1.263,1.61,88.7,red,236,TRUE
489,1660198750.977,3436,6599,3348,1.069,-1.208,0.125,88.7,blue,236,TRUE
490,1660198751.069,-1442,4592,882,3.462,-0.037,-0.024,86.8,yellow,236,TRUE
491,1660198751.157,-441,4604,2526,3.103,-0.023,-0.005,73.8,green,236,TRUE
492,1660198751.651,5350,2001,750,2.81,-1.263,1.609,88.8,red,236,TRUE
493,1660198751.743,3469,6619,3348,1.132,-1.232,0.24,85.8,blue,236,TRUE
494,1660198751.83,-1448,4582,882,3.462,-0.037,-0.024,88.7,yellow,236,TRUE
495,1660198751.92,-441,4604,2526,3.102,-0.019,-0.007,73.8,green,236,TRUE
496,1660198752.398,5328,1989,750,2.81,-1.263,1.599,89.7,red,236,TRUE
497,1660198752.489,3489,6634,3348,1.198,-1.234,0.336,88.8,blue,236,TRUE
498,1660198752.581,-1482,4553,882,3.462,-0.037,-0.024,86.2,yellow,236,TRUE
499,1660198752.669,-441,4604,2526,3.102,-0.019,-0.007,73.8,green,236,TRUE
500,1660198753.148,5316,1996,750,2.784,-1.27,1.581,87.7,red,236,TRUE
501,1660198753.237,3519,6666,3348,1.208,-1.217,0.274,89.8,blue,236,TRUE
502,1660198753.337,-1500,4537,882,3.462,-0.037,-0.024,93.5,yellow,236,TRUE
503,1660198753.431,-441,4604,2526,3.102,-0.019,-0.007,73.8,green,236,TRUE
504,1660198753.895,5325,2019,750,2.495,-1.309,1.8,88.8,red,236,TRUE
505,1660198753.984,3551,6676,3348,1.121,-1.217,0.156,90.2,blue,236,TRUE
506,1660198754.076,-1487,4540,882,3.462,-0.037,-0.024,87.8,yellow,236,TRUE
507,1660198754.165,-441,4604,2526,3.102,-0.017,-0.007,73.8,green,236,TRUE
508,1660198754.646,5330,2040,750,2.363,-1.337,1.76,85.7,red,236,TRUE
509,1660198754.733,3574,6690,3348,1.113,-1.235,0.124,89.2,blue,236,TRUE
510,1660198754.836,-1472,4531,882,3.462,-0.037,-0.024,90.7,yellow,236,TRUE
511,1660198754.928,-441,4604,2526,3.102,-0.019,-0.009,73.6,green,236,TRUE
512,1660198755.391,5353,2082,750,2.329,-1.341,1.813,89.0,red,236,TRUE
513,1660198755.481,3571,6680,3348,1.957,-1.193,0.266,88.8,blue,236,TRUE
514,1660198755.574,-1470,4542,882,3.462,-0.037,-0.024,85.8,yellow,236,TRUE
515,1660198755.66,-441,4604,2526,3.097,-0.036,0.019,73.8,green,236,TRUE
516,1660198756.141,5355,2136,750,2.33,-1.34,1.825,87.2,red,236,TRUE
517,1660198756.229,3571,6650,3348,1.878,-1.206,0.064,89.1,blue,236,TRUE
518,1660198756.332,-1490,4544,882,3.462,-0.037,-0.024,90.7,yellow,236,TRUE
519,1660198756.424,-441,4604,2526,3.097,-0.036,0.017,74.8,green,236,TRUE
520,1660198756.888,5367,2178,750,2.327,-1.343,1.793,88.6,red,236,TRUE
521,1660198756.978,3575,6605,3348,1.861,-1.225,0.005,88.8,blue,236,TRUE
522,1660198757.07,-1490,4544,882,3.462,-0.037,-0.024,86.8,yellow,236,TRUE
523,1660198757.157,-441,4604,2526,3.097,-0.036,0.017,73.8,green,236,TRUE
524,1660198757.638,5361,2220,750,2.346,-1.34,1.835,86.8,red,236,TRUE
525,1660198757.727,3576,6575,3348,2.176,-1.208,-0.022,88.4,blue,236,TRUE
526,1660198757.816,-1457,4553,882,3.462,-0.037,-0.024,88.8,yellow,236,TRUE
527,1660198757.906,-441,4604,2526,3.097,-0.036,0.017,73.8,green,236,TRUE
528,1660198758.355,5370,2293,750,2.306,-1.314,2.163,88.8,red,236,TRUE
529,1660198758.444,3583,6471,3348,2.459,-1.33,0.251,89.0,blue,236,TRUE
530,1660198758.537,-1462,4551,882,3.462,-0.037,-0.024,87.1,yellow,236,TRUE
531,1660198758.625,-441,4604,2526,3.097,-0.036,0.017,72.8,green,236,TRUE
532,1660198759.103,5388,2319,750,2.762,-1.299,1.93,89.7,red,236,TRUE
533,1660198759.194,3560,6260,3348,2.592,-1.298,0.01,87.7,blue,236,TRUE
534,1660198759.283,-1463,4553,882,3.462,-0.037,-0.024,88.8,yellow,236,TRUE
535,1660198759.373,-441,4604,2526,3.097,-0.036,0.017,73.8,green,236,TRUE
536,1660198759.834,5446,2340,750,2.563,-1.338,1.997,90.7,red,236,TRUE
537,1660198759.926,3540,5971,3348,2.439,-1.249,0.127,88.8,blue,236,TRUE
538,1660198760.016,-1453,4568,882,3.462,-0.037,-0.024,88.8,yellow,236,TRUE
539,1660198760.107,-441,4604,2526,3.097,-0.036,0.017,72.8,green,236,TRUE
540,1660198760.57,5489,2362,750,2.315,-1.384,1.97,88.8,red,236,TRUE
541,1660198760.662,3509,5617,3348,2.654,-1.286,0.117,85.7,blue,236,TRUE
542,1660198760.749,-1467,4571,882,3.462,-0.037,-0.024,88.3,yellow,236,TRUE
543,1660198760.841,-441,4604,2526,3.097,-0.036,0.017,70.8,green,236,TRUE
544,1660198761.3,5511,2392,750,2.378,-1.373,1.984,90.4,red,236,TRUE
545,1660198761.392,3466,5231,3348,2.843,-1.203,0.169,88.8,blue,236,TRUE
546,1660198761.481,-1477,4576,882,3.462,-0.037,-0.024,88.8,yellow,236,TRUE
547,1660198761.574,-441,4604,2526,3.097,-0.036,0.017,70.8,green,236,TRUE
548,1660198762.035,5522,2400,750,2.651,-1.337,1.885,88.8,red,236,TRUE
549,1660198762.126,3401,4810,3348,2.524,-1.245,0.409,87.8,blue,236,TRUE
550,1660198762.215,-1488,4577,882,3.462,-0.037,-0.024,88.7,yellow,236,TRUE
551,1660198762.317,-441,4604,2526,3.097,-0.036,0.017,75.8,green,236,TRUE
552,1660198762.754,5510,2396,750,2.847,-1.313,1.889,89.8,red,236,TRUE
553,1660198762.844,3309,4370,3348,2.317,-1.266,0.072,88.8,blue,236,TRUE
554,1660198762.934,-1515,4570,882,3.462,-0.037,-0.024,88.9,yellow,236,TRUE
555,1660198763.025,-441,4604,2526,3.097,-0.036,0.017,72.8,green,236,TRUE
556,1660198763.517,5510,2401,750,2.838,-1.31,1.91,89.3,red,236,TRUE
557,1660198763.608,3217,3912,3348,2.413,-1.275,0.31,88.8,blue,236,TRUE
558,1660198763.7,-1533,4570,882,3.462,-0.037,-0.024,85.8,yellow,236,TRUE
559,1660198763.787,-441,4604,2526,3.097,-0.036,0.017,73.8,green,236,TRUE
560,1660198764.266,5503,2402,750,2.801,-1.318,1.86,88.9,red,236,TRUE
561,1660198764.356,3146,3468,3348,1.613,-1.366,0.105,88.8,blue,236,TRUE
562,1660198764.446,-1549,4562,882,3.462,-0.037,-0.024,88.8,yellow,236,TRUE
563,1660198764.539,-441,4604,2526,3.097,-0.036,0.017,71.2,green,236,TRUE
564,1660198765.045,5510,2370,750,2.859,-1.306,1.859,88.8,red,236,TRUE
565,1660198765.135,3098,3043,3348,1.52,-1.285,-0.179,88.8,blue,236,TRUE
566,1660198765.226,-1537,4568,882,3.462,-0.037,-0.024,86.8,yellow,236,TRUE
567,1660198765.314,-441,4604,2526,3.097,-0.036,0.017,73.8,green,236,TRUE
568,1660198765.793,5516,2355,750,2.884,-1.306,1.835,88.9,red,236,TRUE
569,1660198765.883,3050,2636,3348,1.501,-1.298,-0.173,88.8,blue,236,TRUE
570,1660198765.972,-1537,4578,882,3.462,-0.037,-0.024,89.5,yellow,236,TRUE
571,1660198766.065,-441,4604,2526,3.097,-0.036,0.017,71.8,green,236,TRUE
572,1660198766.572,5527,2353,750,2.784,-1.316,1.824,89.4,red,236,TRUE
573,1660198766.662,2981,2214,3348,1.563,-1.312,-0.092,88.8,blue,236,TRUE
574,1660198766.755,-1564,4572,882,3.462,-0.037,-0.024,85.8,yellow,236,TRUE
575,1660198766.841,-441,4604,2526,3.097,-0.036,0.017,73.8,green,236,TRUE
576,1660198767.321,5528,2359,750,2.431,-1.362,1.887,88.9,red,236,TRUE
577,1660198767.411,2912,1851,3348,1.611,-1.26,-0.131,88.6,blue,236,TRUE
578,1660198767.5,-1544,4567,882,3.462,-0.037,-0.024,88.8,yellow,236,TRUE
579,1660198767.593,-441,4604,2526,3.097,-0.036,0.017,70.8,green,236,TRUE
580,1660198768.069,5531,2364,750,2.524,-1.357,1.861,88.8,red,236,TRUE
581,1660198768.16,2828,1573,3348,2.078,-1.277,0.184,87.8,blue,236,TRUE
582,1660198768.249,-1548,4558,882,3.462,-0.037,-0.024,88.8,yellow,236,TRUE
583,1660198768.35,-441,4604,2526,3.097,-0.036,0.017,78.0,green,236,TRUE
584,1660198768.831,5503,2346,750,2.502,-1.359,1.841,91.7,red,236,TRUE
585,1660198768.922,2705,1320,3348,2.387,-1.296,0.295,88.8,blue,236,TRUE
586,1660198769.012,-1571,4544,882,3.462,-0.037,-0.024,88.8,yellow,236,TRUE
587,1660198769.103,-441,4604,2526,3.097,-0.036,0.017,72.8,green,236,TRUE
588,1660198769.596,5492,2333,750,2.482,-1.353,1.932,88.8,red,236,TRUE
589,1660198769.688,2601,1139,3348,2.254,-1.27,0.224,85.8,blue,236,TRUE
590,1660198769.775,-1545,4545,882,3.462,-0.037,-0.024,88.8,yellow,236,TRUE
591,1660198769.865,-441,4604,2526,3.097,-0.036,0.017,73.8,green,236,TRUE
592,1660198770.327,5489,2340,750,2.524,-1.361,1.847,90.7,red,236,TRUE
593,1660198770.418,2556,1038,3348,2.296,-1.27,0.267,88.8,blue,236,TRUE
594,1660198770.508,-1546,4546,882,3.462,-0.037,-0.024,88.8,yellow,236,TRUE
595,1660198770.601,-441,4604,2526,3.097,-0.036,0.017,70.9,green,236,TRUE
596,1660198771.063,5535,2353,750,2.2,-1.381,2.006,89.0,red,236,TRUE
597,1660198771.154,2523,1002,3348,1.902,-1.273,0.158,87.5,blue,236,TRUE
598,1660198771.242,-1530,4548,882,3.462,-0.037,-0.024,88.8,yellow,236,TRUE
599,1660198771.345,-441,4604,2526,3.097,-0.036,0.017,75.8,green,236,TRUE
600,1660198771.81,5565,2357,750,2.27,-1.374,2.016,88.8,red,236,TRUE
601,1660198771.9,2500,987,3348,2.065,-1.26,0.223,88.6,blue,236,TRUE
602,1660198771.99,-1523,4542,882,3.462,-0.037,-0.024,88.8,yellow,236,TRUE
603,1660198772.08,-441,4604,2526,3.097,-0.036,0.017,73.0,green,236,TRUE
604,1660198772.559,5582,2358,750,2.301,-1.382,1.958,88.8,red,236,TRUE
605,1660198772.65,2468,968,3348,2.509,-1.263,0.158,88.5,blue,236,TRUE
606,1660198772.741,-1515,4539,882,3.462,-0.037,-0.024,86.7,yellow,236,TRUE
607,1660198772.829,-441,4604,2526,3.097,-0.036,0.017,73.8,green,236,TRUE
608,1660198773.278,5616,2370,750,2.293,-1.38,1.981,88.7,red,236,TRUE
609,1660198773.368,2473,1009,3348,1.948,-1.218,0.014,89.2,blue,236,TRUE
610,1660198773.458,-1522,4534,882,3.462,-0.037,-0.024,88.3,yellow,236,TRUE
611,1660198773.55,-441,4604,2526,3.097,-0.036,0.017,70.5,green,236,TRUE
612,1660198774.026,5634,2401,750,2.31,-1.374,2.01,88.7,red,236,TRUE
613,1660198774.114,2449,1021,3348,1.088,-1.328,-0.313,89.8,blue,236,TRUE
614,1660198774.207,-1534,4529,882,3.462,-0.037,-0.024,86.8,yellow,236,TRUE
615,1660198774.295,-441,4604,2526,3.097,-0.036,0.017,73.8,green,236,TRUE
616,1660198774.744,5622,2417,750,2.658,-1.332,1.808,88.8,red,236,TRUE
617,1660198774.846,2460,1022,3348,0.764,-1.33,0.178,90.9,blue,236,TRUE
618,1660198774.938,-1533,4529,882,3.462,-0.037,-0.024,88.8,yellow,236,TRUE
619,1660198775.028,-441,4604,2526,3.097,-0.036,0.017,73.7,green,236,TRUE
620,1660198775.491,5583,2410,750,3.014,-1.294,1.734,88.7,red,236,TRUE
621,1660198775.581,2547,1103,3348,0.428,-1.272,-0.261,88.8,blue,236,TRUE
622,1660198775.674,-1525,4526,882,3.462,-0.037,-0.024,85.8,yellow,236,TRUE
623,1660198775.761,-441,4604,2526,3.097,-0.036,0.017,73.8,green,236,TRUE
624,1660198776.24,5523,2401,750,3.163,-1.321,1.622,87.8,red,236,TRUE
625,1660198776.329,2633,1207,3348,0.874,-1.306,0.346,88.7,blue,236,TRUE
626,1660198776.419,-1531,4525,882,3.462,-0.037,-0.024,88.8,yellow,236,TRUE
627,1660198776.509,-441,4604,2526,3.097,-0.036,0.017,73.8,green,236,TRUE
628,1660198777.003,5436,2405,750,2.967,-1.273,1.706,88.8,red,236,TRUE
629,1660198777.092,2744,1319,3348,0.772,-1.237,0.154,89.8,blue,236,TRUE
630,1660198777.184,-1531,4528,882,3.462,-0.037,-0.024,86.8,yellow,236,TRUE
631,1660198777.272,-441,4604,2526,3.097,-0.036,0.017,73.8,green,236,TRUE
632,1660198777.754,5331,2421,750,2.63,-1.383,1.806,85.8,red,236,TRUE
633,1660198777.841,2888,1490,3348,0.519,-1.273,0.116,88.8,blue,236,TRUE
634,1660198777.931,-1537,4531,882,3.462,-0.037,-0.024,89.8,yellow,236,TRUE
635,1660198778.021,-441,4604,2526,3.097,-0.036,0.017,73.8,green,236,TRUE
636,1660198778.499,5234,2428,750,2.46,-1.39,1.7,88.8,red,236,TRUE
637,1660198778.589,3027,1660,3348,0.361,-1.305,0.125,88.7,blue,236,TRUE
638,1660198778.682,-1560,4528,882,3.462,-0.037,-0.024,85.8,yellow,236,TRUE
639,1660198778.769,-441,4604,2526,3.097,-0.036,0.017,73.8,green,236,TRUE
640,1660198779.248,5144,2427,750,1.849,-1.395,1.873,87.8,red,236,TRUE
641,1660198779.337,3149,1811,3348,0.379,-1.3,0.123,88.7,blue,236,TRUE
642,1660198779.427,-1568,4529,882,3.462,-0.037,-0.024,89.2,yellow,236,TRUE
643,1660198779.517,-441,4604,2526,3.097,-0.036,0.017,73.8,green,236,TRUE
644,1660198779.996,5033,2419,750,1.501,-1.324,1.585,88.8,red,236,TRUE
645,1660198780.085,3216,1879,3348,0.399,-1.289,0.095,88.8,blue,236,TRUE
646,1660198780.176,-1596,4530,882,3.462,-0.037,-0.024,87.8,yellow,236,TRUE
647,1660198780.265,-441,4604,2526,3.097,-0.036,0.017,74.5,green,236,TRUE
648,1660198780.746,4956,2423,750,1.577,-1.32,1.65,85.8,red,236,TRUE
649,1660198780.833,3325,1964,3348,0.417,-1.29,0.143,88.7,blue,236,TRUE
650,1660198780.923,-1592,4540,882,3.462,-0.037,-0.024,88.7,yellow,236,TRUE
651,1660198781.013,-441,4604,2526,3.097,-0.036,0.017,73.8,green,236,TRUE
652,1660198781.492,4872,2423,750,1.528,-1.331,1.746,88.8,red,236,TRUE
653,1660198781.582,3454,2077,3348,0.411,-1.282,0.121,90.2,blue,236,TRUE
654,1660198781.676,-1597,4539,882,3.462,-0.037,-0.024,99.8,yellow,236,TRUE
655,1660198781.778,-441,4604,2526,3.097,-0.036,0.017,72.8,green,236,TRUE
656,1660198782.241,4781,2417,750,1.482,-1.34,1.729,87.8,red,236,TRUE
657,1660198782.33,3562,2118,3348,0.383,-1.301,-0.064,90.2,blue,236,TRUE
658,1660198782.421,-1587,4532,882,3.462,-0.037,-0.024,87.7,yellow,236,TRUE
659,1660198782.51,-441,4604,2526,3.097,-0.036,0.017,73.8,green,236,TRUE
660,1660198782.989,4682,2419,750,1.488,-1.341,1.756,88.8,red,236,TRUE
661,1660198783.078,3684,2174,3348,1.082,-1.298,0.451,89.2,blue,236,TRUE
662,1660198783.17,-1592,4530,882,3.462,-0.037,-0.024,87.8,yellow,236,TRUE
663,1660198783.258,-441,4604,2526,3.097,-0.036,0.017,73.8,green,236,TRUE
664,1660198783.74,4633,2417,750,1.508,-1.343,1.698,85.8,red,236,TRUE
665,1660198783.827,3780,2272,3348,1.142,-1.286,0.317,88.8,blue,236,TRUE
666,1660198783.917,-1607,4522,882,3.462,-0.037,-0.024,88.5,yellow,236,TRUE
667,1660198784.006,-441,4604,2526,3.097,-0.036,0.017,73.8,green,236,TRUE
668,1660198784.485,4611,2418,750,1.534,-1.347,1.657,88.9,red,236,TRUE
669,1660198784.575,3816,2291,3348,1.059,-1.297,0.289,88.8,blue,236,TRUE
670,1660198784.667,-1626,4519,882,3.462,-0.037,-0.024,87.0,yellow,236,TRUE
671,1660198784.755,-441,4604,2526,3.097,-0.036,0.017,73.8,green,236,TRUE
672,1660198785.235,4581,2422,750,1.529,-1.361,1.683,87.8,red,236,TRUE
673,1660198785.324,3800,2297,3348,1.047,-1.296,0.272,89.0,blue,236,TRUE
674,1660198785.414,-1635,4522,882,3.462,-0.037,-0.024,89.0,yellow,236,TRUE
675,1660198785.504,-441,4604,2526,3.097,-0.036,0.017,73.8,green,236,TRUE
676,1660198785.983,4586,2433,750,1.479,-1.364,1.679,88.8,red,236,TRUE
677,1660198786.073,3825,2333,3348,1.02,-1.275,0.233,88.6,blue,236,TRUE
678,1660198786.163,-1624,4516,882,3.462,-0.037,-0.024,87.4,yellow,236,TRUE
679,1660198786.252,-441,4604,2526,3.097,-0.036,0.017,73.8,green,236,TRUE
680,1660198786.733,4602,2432,750,1.488,-1.36,1.708,85.7,red,236,TRUE
681,1660198786.82,3851,2328,3348,0.93,-1.3,0.277,88.8,blue,236,TRUE
682,1660198786.91,-1617,4512,882,3.462,-0.037,-0.024,88.7,yellow,236,TRUE
683,1660198787.0,-441,4604,2526,3.097,-0.036,0.017,73.8,green,236,TRUE
684,1660198787.478,4610,2429,750,1.367,-1.37,1.716,88.7,red,236,TRUE
685,1660198787.568,3802,2285,3348,0.894,-1.284,0.225,88.7,blue,236,TRUE
686,1660198787.661,-1606,4508,882,3.462,-0.037,-0.024,85.8,yellow,236,TRUE
687,1660198787.747,-441,4604,2526,3.097,-0.036,0.017,73.8,green,236,TRUE
688,1660198788.212,4650,2434,750,1.217,-1.394,1.745,88.1,red,236,TRUE
689,1660198788.301,3769,2221,3348,0.9,-1.278,0.199,88.8,blue,236,TRUE
690,1660198788.391,-1597,4505,882,3.462,-0.037,-0.024,88.8,yellow,236,TRUE
691,1660198788.48,-441,4604,2526,3.097,-0.036,0.017,74.8,green,236,TRUE
692,1660198788.96,4698,2393,750,1.532,-1.366,1.657,89.6,red,236,TRUE
693,1660198789.051,3796,2212,3348,0.928,-1.302,0.245,88.8,blue,236,TRUE
694,1660198789.142,-1589,4505,882,3.462,-0.037,-0.024,87.8,yellow,236,TRUE
695,1660198789.231,-441,4604,2526,3.097,-0.036,0.017,72.8,green,236,TRUE
696,1660198789.712,4678,2385,750,1.839,-1.32,1.758,86.1,red,236,TRUE
697,1660198789.799,3793,2192,3348,0.886,-1.335,0.068,88.8,blue,236,TRUE
698,1660198789.889,-1590,4510,882,3.462,-0.037,-0.024,88.6,yellow,236,TRUE
699,1660198789.978,-441,4604,2526,3.097,-0.036,0.017,73.8,green,236,TRUE
700,1660198790.457,4678,2385,750,1.633,-1.336,1.758,89.7,red,236,TRUE
701,1660198790.547,3794,2202,3348,0.585,-1.333,-0.173,89.4,blue,236,TRUE
702,1660198790.64,-1604,4516,882,3.462,-0.037,-0.024,85.8,yellow,236,TRUE
703,1660198790.727,-441,4604,2526,3.097,-0.036,0.017,73.8,green,236,TRUE
704,1660198791.208,4693,2392,750,1.517,-1.348,1.754,86.8,red,236,TRUE
705,1660198791.296,3818,2207,3348,0.855,-1.284,0.161,89.2,blue,236,TRUE
706,1660198791.386,-1613,4517,882,3.462,-0.037,-0.024,89.1,yellow,236,TRUE
707,1660198791.476,-441,4604,2526,3.097,-0.036,0.017,73.8,green,236,TRUE
708,1660198791.956,4697,2392,750,1.466,-1.358,1.784,89.2,red,236,TRUE
709,1660198792.046,3819,2228,3348,1.124,-1.316,0.537,88.8,blue,236,TRUE
710,1660198792.138,-1618,4520,882,3.462,-0.037,-0.024,86.7,yellow,236,TRUE
711,1660198792.225,-441,4604,2526,3.096,-0.039,0.021,74.0,green,236,TRUE
712,1660198792.708,4692,2383,750,1.985,-1.306,1.919,85.8,red,236,TRUE
713,1660198792.794,3810,2216,3348,1.07,-1.34,0.424,88.7,blue,236,TRUE
714,1660198792.884,-1609,4523,882,3.462,-0.037,-0.024,88.7,yellow,236,TRUE
715,1660198792.974,-441,4604,2526,3.096,-0.036,0.02,73.8,green,236,TRUE
716,1660198794.416,4683,2411,750,1.501,-1.352,2.113,83.5,red,236,TRUE
717,1660198794.501,3817,2216,3348,1.18,-1.299,0.614,88.4,blue,236,TRUE
718,1660198794.594,-1606,4529,882,3.462,-0.037,-0.024,85.8,yellow,236,TRUE
719,1660198794.68,-441,4604,2526,3.098,-0.035,0.021,74.2,green,236,TRUE
720,1660198795.19,4724,2473,750,0.77,-1.344,1.816,88.8,red,236,TRUE
721,1660198795.281,3868,2219,3348,1.073,-1.336,0.529,87.8,blue,236,TRUE
722,1660198795.37,-1596,4538,882,3.462,-0.037,-0.024,88.8,yellow,236,TRUE
723,1660198795.459,-441,4604,2526,3.098,-0.035,0.021,73.8,green,236,TRUE
724,1660198795.938,4811,2545,750,1.022,-1.347,1.787,88.9,red,236,TRUE
725,1660198796.028,3862,2199,3348,0.994,-1.364,0.417,88.8,blue,236,TRUE
726,1660198796.119,-1592,4541,882,3.462,-0.037,-0.024,86.8,yellow,236,TRUE
727,1660198796.207,-441,4604,2526,3.098,-0.036,0.022,73.8,green,236,TRUE
728,1660198796.689,4881,2610,750,1.534,-1.361,1.734,85.8,red,236,TRUE
729,1660198796.776,3837,2200,3348,0.962,-1.358,0.322,88.8,blue,236,TRUE
730,1660198796.876,-1595,4540,882,3.462,-0.037,-0.024,92.8,yellow,236,TRUE
731,1660198796.969,-441,4604,2526,3.098,-0.036,0.022,75.3,green,236,TRUE
732,1660198797.435,4978,2663,750,1.897,-1.323,1.832,88.8,red,236,TRUE
733,1660198797.524,3951,2269,3348,0.913,-1.444,-0.189,89.8,blue,236,TRUE
734,1660198797.617,-1606,4542,882,3.462,-0.037,-0.024,85.8,yellow,236,TRUE
735,1660198797.704,-441,4604,2526,3.098,-0.036,0.022,73.8,green,236,TRUE
736,1660198798.184,5075,2708,750,1.851,-1.317,1.724,87.6,red,236,TRUE
737,1660198798.272,3992,2349,3348,1.214,-1.297,0.468,104.7,blue,236,TRUE
738,1660198798.377,-1612,4547,882,3.462,-0.037,-0.024,89.0,yellow,236,TRUE
739,1660198798.467,-441,4604,2526,3.098,-0.036,0.022,89.0,green,236,TRUE
740,1660198798.93,5106,2787,750,1.689,-1.333,1.489,90.2,red,236,TRUE
741,1660198799.02,4035,2398,3348,1.442,-1.365,0.956,90.0,blue,236,TRUE
742,1660198799.112,-1614,4546,882,3.462,-0.037,-0.024,87.8,yellow,236,TRUE
743,1660198799.201,-441,4604,2526,3.098,-0.036,0.022,73.8,green,236,TRUE
744,1660198799.68,5167,2816,750,1.583,-1.318,1.535,87.8,red,236,TRUE
745,1660198799.771,4089,2481,3348,1.173,-1.311,0.944,86.8,blue,236,TRUE
746,1660198799.859,-1620,4536,882,3.462,-0.037,-0.024,88.8,yellow,236,TRUE
747,1660198799.948,-441,4604,2526,3.098,-0.036,0.022,73.8,green,236,TRUE
748,1660198800.398,5226,2837,750,1.497,-1.338,1.383,89.0,red,236,TRUE
749,1660198800.488,4157,2512,3348,1.576,-1.257,0.483,88.8,blue,236,TRUE
750,1660198800.581,-1616,4536,882,3.462,-0.037,-0.024,85.7,yellow,236,TRUE
751,1660198800.667,-441,4604,2526,3.098,-0.036,0.022,73.8,green,236,TRUE
752,1660198801.146,5301,2863,750,1.479,-1.35,1.518,88.8,red,236,TRUE
753,1660198801.238,4174,2571,3348,1.462,-1.242,0.129,86.7,blue,236,TRUE
754,1660198801.326,-1611,4540,882,3.462,-0.037,-0.024,89.1,yellow,236,TRUE
755,1660198801.416,-441,4604,2526,3.098,-0.036,0.022,74.6,green,236,TRUE
756,1660198801.896,5412,2895,750,1.492,-1.356,1.66,93.7,red,236,TRUE
757,1660198801.99,4164,2605,3348,1.3,-1.352,0.037,93.7,blue,236,TRUE
758,1660198802.084,-1590,4537,882,3.462,-0.037,-0.024,93.7,yellow,236,TRUE
759,1660198802.178,-441,4604,2526,3.098,-0.036,0.022,78.1,green,236,TRUE
760,1660198802.678,5498,2943,750,1.346,-1.413,1.761,93.7,red,236,TRUE
761,1660198802.771,4181,2631,3348,1.553,-1.237,0.332,93.7,blue,236,TRUE
762,1660198802.865,-1600,4532,882,3.462,-0.037,-0.024,93.8,yellow,236,TRUE
763,1660198802.959,-441,4604,2526,3.098,-0.036,0.022,78.1,green,236,TRUE
764,1660198803.427,5585,2983,750,1.937,-1.257,1.544,93.7,red,236,TRUE
765,1660198803.521,4216,2659,3348,1.301,-1.259,0.256,93.7,blue,236,TRUE
766,1660198803.615,-1613,4531,882,3.462,-0.037,-0.024,93.7,yellow,236,TRUE
767,1660198803.709,-441,4604,2526,3.098,-0.036,0.022,78.1,green,236,TRUE
768,1660198804.208,5623,2984,750,1.968,-1.208,1.62,93.7,red,236,TRUE
769,1660198804.302,4249,2682,3348,1.229,-1.277,0.148,93.7,blue,236,TRUE
770,1660198804.396,-1641,4487,882,3.462,-0.037,-0.024,93.7,yellow,236,TRUE
771,1660198804.49,-441,4604,2526,3.098,-0.036,0.022,78.1,green,236,TRUE
772,1660198804.989,5643,2946,750,1.982,-1.262,1.402,93.7,red,236,TRUE
773,1660198805.083,4291,2714,3348,1.237,-1.293,0.236,93.7,blue,236,TRUE
774,1660198805.179,-1650,4494,882,3.462,-0.037,-0.024,87.8,yellow,236,TRUE
775,1660198805.268,-441,4604,2526,3.098,-0.036,0.022,73.7,green,236,TRUE
776,1660198805.734,5658,2930,750,1.825,-1.335,1.535,85.9,red,236,TRUE
777,1660198805.821,4315,2725,3348,1.511,-1.227,0.386,88.8,blue,236,TRUE
778,1660198805.914,-1619,4503,882,3.462,-0.037,-0.024,85.8,yellow,236,TRUE
779,1660198806.001,-441,4604,2526,3.098,-0.036,0.022,73.8,green,236,TRUE
780,1660198806.48,5635,2933,750,2.082,-1.318,1.605,89.0,red,236,TRUE
781,1660198806.57,4281,2716,3348,1.242,-1.28,0.304,88.8,blue,236,TRUE
782,1660198806.662,-1595,4495,882,3.462,-0.037,-0.024,85.8,yellow,236,TRUE
783,1660198806.749,-441,4604,2526,3.098,-0.036,0.022,73.8,green,236,TRUE
784,1660198807.229,5562,2909,750,2.076,-1.376,1.609,87.8,red,236,TRUE
785,1660198807.318,4280,2727,3348,1.208,-1.309,0.31,88.8,blue,236,TRUE
786,1660198807.407,-1577,4488,882,3.462,-0.037,-0.024,88.8,yellow,236,TRUE
787,1660198807.497,-441,4604,2526,3.098,-0.036,0.022,73.8,green,236,TRUE
788,1660198807.946,5609,2902,750,1.914,-1.372,1.612,89.0,red,236,TRUE
789,1660198808.036,4273,2733,3348,1.193,-1.306,0.267,88.8,blue,236,TRUE
790,1660198808.127,-1570,4487,882,3.462,-0.037,-0.024,87.7,yellow,236,TRUE
791,1660198808.216,-441,4604,2526,3.098,-0.036,0.022,73.8,green,236,TRUE
792,1660198808.697,5648,2914,750,1.58,-1.306,1.64,86.8,red,236,TRUE
793,1660198808.787,4266,2710,3348,1.209,-1.314,0.232,86.8,blue,236,TRUE
794,1660198808.874,-1576,4489,882,3.462,-0.037,-0.024,88.8,yellow,236,TRUE
795,1660198808.964,-441,4604,2526,3.098,-0.036,0.022,73.8,green,236,TRUE
796,1660198809.428,5671,2930,750,1.392,-1.277,1.377,88.9,red,236,TRUE
797,1660198809.518,4260,2698,3348,1.193,-1.34,0.024,88.8,blue,236,TRUE
798,1660198809.61,-1556,4491,882,3.462,-0.037,-0.024,86.8,yellow,236,TRUE
799,1660198809.697,-441,4604,2526,3.098,-0.036,0.022,73.8,green,236,TRUE
800,1660198810.206,5642,2924,750,1.389,-1.278,1.554,88.8,red,236,TRUE
801,1660198810.297,4252,2703,3348,1.356,-1.311,0.503,88.7,blue,236,TRUE
802,1660198810.386,-1563,4493,882,3.462,-0.037,-0.024,88.8,yellow,236,TRUE
803,1660198810.475,-441,4604,2526,3.098,-0.036,0.022,73.8,green,236,TRUE
804,1660198810.954,5650,2951,750,0.733,-1.326,2.16,88.5,red,236,TRUE
805,1660198811.042,4294,2750,3348,1.265,-1.227,0.592,89.8,blue,236,TRUE
806,1660198811.134,-1576,4494,882,3.462,-0.037,-0.024,87.8,yellow,236,TRUE
807,1660198811.223,-441,4604,2526,3.098,-0.036,0.022,73.8,green,236,TRUE
808,1660198811.732,5692,2951,750,0.215,-1.321,-2.805,88.8,red,236,TRUE
809,1660198811.824,4305,2777,3348,1.326,-1.22,0.523,85.8,blue,236,TRUE
810,1660198811.911,-1576,4493,882,3.462,-0.037,-0.024,88.8,yellow,236,TRUE
811,1660198812.001,-441,4604,2526,3.098,-0.036,0.022,73.8,green,236,TRUE
812,1660198812.48,5691,2924,750,6.257,-1.167,-2.476,88.8,red,236,TRUE
813,1660198812.569,4298,2788,3348,1.371,-1.268,0.46,89.1,blue,236,TRUE
814,1660198812.661,-1546,4492,882,3.462,-0.037,-0.024,86.7,yellow,236,TRUE
815,1660198812.749,-441,4604,2526,3.098,-0.036,0.022,73.8,green,236,TRUE
816,1660198813.23,5743,2896,750,0.357,-1.332,-2.889,86.8,red,236,TRUE
817,1660198813.318,4291,2804,3348,1.321,-1.275,0.453,88.8,blue,236,TRUE
818,1660198813.42,-1514,4526,882,3.462,-0.037,-0.024,90.8,yellow,236,TRUE
819,1660198813.512,-441,4604,2526,3.098,-0.036,0.022,73.8,green,236,TRUE
820,1660198813.976,5735,2890,750,0.832,-1.364,1.828,88.8,red,236,TRUE
821,1660198814.066,4277,2823,3348,1.208,-1.305,0.549,88.8,blue,236,TRUE
822,1660198814.156,-1504,4515,882,3.462,-0.037,-0.024,87.8,yellow,236,TRUE
823,1660198814.245,-441,4604,2526,3.098,-0.036,0.022,73.8,green,236,TRUE
824,1660198814.695,5751,2871,750,0.797,-1.367,1.858,87.8,red,236,TRUE
825,1660198814.786,4328,2873,3348,1.152,-1.272,0.406,86.8,blue,236,TRUE
826,1660198814.873,-1532,4509,882,3.462,-0.037,-0.024,88.8,yellow,236,TRUE
827,1660198814.963,-441,4604,2526,3.098,-0.036,0.022,73.6,green,236,TRUE
828,1660198815.424,5783,2855,750,0.974,-1.34,2.188,92.7,red,236,TRUE
829,1660198815.517,4382,2896,3348,1.458,-1.29,0.148,88.5,blue,236,TRUE
830,1660198815.61,-1527,4514,882,3.462,-0.037,-0.024,85.8,yellow,236,TRUE
