,timestamp,x,y,z,yaw,roll,pitch,latency,student,session,success
0,1660605076.847,340,-720,3350,5.114,-1.332,0.856,93.8,blue,237,TRUE
1,1660605078.098,3464,-2838,882,1.325,1.264,-0.61,78.1,yellow,237,TRUE
2,1660605078.176,692,-1803,750,1.242,0.912,2.691,93.7,red,237,TRUE
3,1660605079.537,400,-519,3350,3.479,-1.436,0.515,78.2,blue,237,TRUE
4,1660605081.883,721,-1499,750,1.604,0.683,2.857,93.8,red,237,TRUE
5,1660605083.4,2998,-2822,2526,4.921,-0.901,-0.204,78.1,green,237,TRUE
6,1660605084.572,925,-1050,750,2.258,0.916,2.762,93.7,red,237,TRUE
7,1660605087.246,3474,-2835,882,1.333,1.237,-0.56,93.8,yellow,237,TRUE
8,1660605087.34,1126,-509,750,0.325,0.885,2.781,93.7,red,237,TRUE
9,1660605087.763,754,316,3349,6.01,-1.209,0.406,94.9,blue,237,TRUE
10,1660605090.155,1357,16,750,0.278,0.898,2.769,93.7,red,237,TRUE
11,1660605091.562,962,626,3349,4.084,-1.378,0.966,93.8,blue,237,TRUE
12,1660605091.655,2982,-2808,2526,4.912,-0.88,-0.226,94.0,green,237,TRUE
13,1660605091.749,3397,-2808,882,1.213,1.425,-0.777,78.0,yellow,237,TRUE
14,1660605091.827,1566,549,750,0.374,0.909,2.794,93.8,red,237,TRUE
15,1660605093.204,1103,884,3349,4.056,-1.381,0.988,93.7,blue,237,TRUE
16,1660605094.453,3401,-2803,882,1.22,1.368,-0.554,93.6,yellow,237,TRUE
17,1660605094.547,1785,1083,750,0.214,0.942,2.681,93.8,red,237,TRUE
18,1660605094.939,1227,1107,3349,4.034,-1.385,0.975,93.7,blue,237,TRUE
19,1660605097.299,1982,1637,750,0.344,0.904,2.784,93.7,red,237,TRUE
20,1660605097.644,1330,1274,3349,4.046,-1.372,0.923,94.1,blue,237,TRUE
21,1660605099.958,2173,2192,750,0.361,0.905,2.785,93.8,red,237,TRUE
22,1660605100.35,1709,1548,3349,4.04,-1.364,0.852,93.6,blue,237,TRUE
23,1660605102.65,2343,2658,750,0.367,0.909,2.786,93.7,red,237,TRUE
24,1660605103.057,1864,1956,3349,4.032,-1.362,0.836,93.8,blue,237,TRUE
25,1660605103.151,2968,-2787,2526,5.011,-1.081,-0.083,93.4,green,237,TRUE
26,1660605103.26,3420,-2792,882,1.258,1.306,-0.512,93.7,yellow,237,TRUE
27,1660605103.354,2443,3003,750,0.373,0.906,2.789,93.7,red,237,TRUE
28,1660605106.091,2524,3257,750,5.78,0.829,2.739,93.8,red,237,TRUE
29,1660605106.497,2006,2535,3349,4.05,-1.379,0.831,93.7,blue,237,TRUE
30,1660605107.67,3426,-2783,882,1.278,1.245,-0.491,93.4,yellow,237,TRUE
31,1660605107.763,2670,3477,750,5.532,0.81,2.686,94.0,red,237,TRUE
32,1660605109.373,3502,-2756,882,1.281,1.24,-0.508,93.7,yellow,237,TRUE
33,1660605109.466,2819,3686,750,5.899,0.902,2.69,93.7,red,237,TRUE
34,1660605110.826,2290,3081,3348,4.14,-1.281,0.575,94.0,blue,237,TRUE
35,1660605110.983,3488,-2756,882,1.277,1.238,-0.506,95.0,yellow,237,TRUE
36,1660605111.093,2926,3807,750,2.994,0.771,2.789,94.1,red,237,TRUE
37,1660605111.484,2411,3187,3348,3.505,-1.236,0.284,93.7,blue,237,TRUE
38,1660605111.578,3527,-2746,882,1.278,1.241,-0.501,93.8,yellow,237,TRUE
39,1660605111.671,3011,3798,750,4.074,0.832,2.757,93.7,red,237,TRUE
40,1660605112.078,2430,3273,3348,3.315,-1.297,0.252,93.8,blue,237,TRUE
41,1660605112.171,3474,-2710,882,1.276,1.247,-0.505,93.6,yellow,237,TRUE
42,1660605112.265,3078,3769,750,4.847,0.818,2.899,93.5,red,237,TRUE
43,1660605112.64,2433,3262,3348,3.089,-1.352,0.371,95.2,blue,237,TRUE
44,1660605112.798,3404,-2693,882,1.273,1.248,-0.504,109.4,yellow,237,TRUE
45,1660605112.907,3124,3657,750,5.337,0.908,2.824,93.8,red,237,TRUE
46,1660605114.328,2398,3207,3348,3.727,-1.282,0.602,94.0,blue,237,TRUE
47,1660605115.611,3097,3551,750,0.767,0.825,2.781,93.8,red,237,TRUE
48,1660605115.986,2413,3177,3348,4.869,-1.281,0.517,93.8,blue,237,TRUE
49,1660605117.282,3101,3416,750,0.646,0.828,2.785,93.8,red,237,TRUE
50,1660605118.658,2437,3184,3348,3.906,-1.379,0.973,94.1,blue,237,TRUE
51,1660605119.955,3143,3279,750,2.405,0.822,2.848,93.8,red,237,TRUE
52,1660605121.456,3238,3134,750,1.91,0.821,2.633,93.7,red,237,TRUE
53,1660605121.8,2468,3138,3348,3.902,-1.328,0.699,93.5,blue,237,TRUE
54,1660605121.909,3304,3009,750,1.937,0.821,2.63,93.7,red,237,TRUE
55,1660605122.315,2497,3171,3348,3.815,-1.354,0.815,93.7,blue,237,TRUE
56,1660605122.424,3408,2905,750,1.921,0.818,2.619,94.1,red,237,TRUE
57,1660605122.785,2522,3146,3348,3.814,-1.36,0.884,93.7,blue,237,TRUE
58,1660605125.163,3500,2773,750,1.513,0.861,2.635,94.1,red,237,TRUE
59,1660605125.554,2542,3055,3348,3.819,-1.358,0.877,93.7,blue,237,TRUE
60,1660605127.87,3497,2610,750,0.981,0.906,2.719,93.8,red,237,TRUE
61,1660605128.261,2556,3010,3348,3.185,-1.278,0.273,93.7,blue,237,TRUE
62,1660605129.511,3380,-2696,882,1.252,1.252,-0.478,78.1,yellow,237,TRUE
63,1660605129.589,3363,2461,750,1.025,0.892,2.811,93.8,red,237,TRUE
64,1660605129.964,2568,2986,3348,3.46,-1.239,0.467,93.7,blue,237,TRUE
65,1660605130.137,3337,-2693,882,1.252,1.227,-0.47,78.2,yellow,237,TRUE
66,1660605130.23,3266,2360,750,1.46,0.96,2.814,93.9,red,237,TRUE
67,1660605130.605,2569,2922,3348,3.786,-1.298,0.722,93.7,blue,237,TRUE
68,1660605130.699,3294,-2694,882,1.247,1.222,-0.445,93.8,yellow,237,TRUE
69,1660605130.793,3128,2303,750,1.684,0.827,2.897,78.1,red,237,TRUE
70,1660605131.168,2566,2954,3348,3.794,-1.38,1.257,93.8,blue,237,TRUE
71,1660605132.387,3116,2286,750,3.37,0.91,2.674,93.7,red,237,TRUE
72,1660605132.873,3334,-2723,882,1.236,1.226,-0.47,93.7,yellow,237,TRUE
73,1660605132.967,3210,2289,750,3.026,0.894,2.713,93.8,red,237,TRUE
74,1660605133.357,2611,3114,3348,3.832,-1.37,1.381,93.8,blue,237,TRUE
75,1660605133.451,3329,-2742,882,1.235,1.235,-0.471,93.8,yellow,237,TRUE
76,1660605133.545,3293,2322,750,2.599,0.856,2.539,93.7,red,237,TRUE
77,1660605133.92,2630,3104,3348,3.834,-1.369,1.313,93.8,blue,237,TRUE
78,1660605134.014,3329,-2753,882,1.236,1.246,-0.493,93.7,yellow,237,TRUE
79,1660605134.123,3337,2347,750,2.703,0.857,2.538,93.7,red,237,TRUE
80,1660605134.482,2649,3172,3348,3.829,-1.368,1.343,93.8,blue,237,TRUE
81,1660605134.592,2910,-2776,2526,4.986,-1.028,-0.187,78.1,green,237,TRUE
82,1660605134.67,3352,-2759,882,1.229,1.214,-0.447,93.7,yellow,237,TRUE
83,1660605135.138,2684,3183,3348,3.82,-1.369,1.334,93.7,blue,237,TRUE
84,1660605135.248,2890,-2759,2526,4.987,-1.022,-0.18,78.2,green,237,TRUE
85,1660605135.326,3349,-2777,882,1.225,1.238,-0.439,78.0,yellow,237,TRUE
86,1660605135.404,3288,2483,750,1.451,0.954,2.8,93.5,red,237,TRUE
87,1660605136.922,2915,-2769,2526,5.027,-1.067,-0.11,94.0,green,237,TRUE
88,1660605138.158,3174,2599,750,5.766,0.858,2.803,93.7,red,237,TRUE
89,1660605138.533,2700,3219,3348,3.818,-1.371,1.113,93.8,blue,237,TRUE
90,1660605139.736,3356,-2777,882,1.245,1.239,-0.525,93.8,yellow,237,TRUE
91,1660605139.829,3078,2726,750,5.616,0.902,2.781,93.7,red,237,TRUE
92,1660605140.235,2729,3238,3348,3.817,-1.382,1.321,94.1,blue,237,TRUE
93,1660605141.456,3351,-2782,882,1.25,1.236,-0.497,93.8,yellow,237,TRUE
94,1660605141.549,3076,2882,750,5.605,0.92,2.777,93.6,red,237,TRUE
95,1660605141.924,2733,3309,3348,3.826,-1.38,1.292,93.7,blue,237,TRUE
96,1660605143.176,3375,-2785,882,1.26,1.252,-0.514,93.8,yellow,237,TRUE
97,1660605143.269,3036,2964,750,5.575,0.916,2.777,93.8,red,237,TRUE
98,1660605144.786,3383,-2803,882,1.244,1.258,-0.49,78.2,yellow,237,TRUE
99,1660605144.864,2993,3029,750,5.538,0.922,2.778,93.6,red,237,TRUE
100,1660605145.256,2764,3431,3348,3.809,-1.386,1.332,94.1,blue,237,TRUE
101,1660605145.35,3387,-2805,882,1.232,1.26,-0.489,78.0,yellow,237,TRUE
102,1660605145.428,3032,3121,750,5.513,0.917,2.778,93.9,red,237,TRUE
103,1660605145.772,2778,3436,3348,3.812,-1.384,1.287,93.8,blue,237,TRUE
104,1660605145.866,3387,-2805,882,1.228,1.266,-0.499,78.0,yellow,237,TRUE
105,1660605145.944,2993,3224,750,5.466,0.839,2.802,93.7,red,237,TRUE
106,1660605146.334,2809,3354,3348,3.814,-1.382,1.277,93.7,blue,237,TRUE
107,1660605147.601,3436,-2814,882,1.22,1.268,-0.472,78.0,yellow,237,TRUE
108,1660605147.679,2890,3351,750,5.604,0.831,2.803,93.7,red,237,TRUE
109,1660605148.072,2807,3378,3348,3.811,-1.38,1.234,93.6,blue,237,TRUE
110,1660605150.416,2758,3435,750,5.627,0.947,2.764,93.7,red,237,TRUE
111,1660605152.074,3483,-2818,882,1.239,1.272,-0.537,78.2,yellow,237,TRUE
112,1660605152.152,2621,3543,750,5.576,0.939,2.769,93.4,red,237,TRUE
113,1660605152.527,2785,3427,3348,3.816,-1.379,1.194,93.8,blue,237,TRUE
114,1660605152.684,3479,-2811,882,1.232,1.288,-0.563,78.4,yellow,237,TRUE
115,1660605152.762,2528,3659,750,5.576,0.938,2.769,93.8,red,237,TRUE
116,1660605153.153,2768,3433,3348,3.812,-1.384,1.259,93.6,blue,237,TRUE
117,1660605153.278,3474,-2797,882,1.232,1.264,-0.506,95.1,yellow,237,TRUE
118,1660605153.373,2408,3626,750,5.575,0.938,2.769,93.7,red,237,TRUE
119,1660605153.764,2770,3443,3348,3.82,-1.383,1.245,93.7,blue,237,TRUE
120,1660605153.857,3475,-2794,882,1.247,1.249,-0.492,93.8,yellow,237,TRUE
121,1660605153.951,2407,3620,750,5.573,0.936,2.77,93.4,red,237,TRUE
122,1660605154.341,2747,3465,3348,3.812,-1.31,0.632,94.8,blue,237,TRUE
123,1660605155.57,3478,-2786,882,1.236,1.238,-0.47,93.8,yellow,237,TRUE
124,1660605155.664,2398,3650,750,5.583,0.94,2.77,93.6,red,237,TRUE
125,1660605156.056,2734,3468,3348,3.874,-1.355,0.854,93.8,blue,237,TRUE
126,1660605156.15,2820,-2734,2526,4.945,-1.013,-0.129,78.0,green,237,TRUE
127,1660605156.228,3469,-2770,882,1.235,1.229,-0.461,78.1,yellow,237,TRUE
128,1660605156.322,2405,3696,750,5.582,0.938,2.771,93.8,red,237,TRUE
129,1660605156.681,2725,3440,3348,3.874,-1.353,0.863,93.8,blue,237,TRUE
130,1660605156.775,2801,-2749,2526,4.933,-1.029,-0.153,93.7,green,237,TRUE
131,1660605156.869,3484,-2771,882,1.235,1.23,-0.46,93.8,yellow,237,TRUE
132,1660605156.962,2475,3786,750,5.58,0.939,2.77,78.0,red,237,TRUE
133,1660605157.337,2718,3452,3348,3.875,-1.353,0.865,94.1,blue,237,TRUE
134,1660605159.56,2505,3815,750,5.584,0.941,2.769,93.8,red,237,TRUE
135,1660605159.982,2713,3461,3348,3.875,-1.358,0.84,93.7,blue,237,TRUE
136,1660605160.076,2791,-2749,2526,4.938,-1.03,-0.149,95.0,green,237,TRUE
137,1660605160.171,3500,-2766,882,1.25,1.202,-0.484,94.1,yellow,237,TRUE
138,1660605160.265,2491,3818,750,5.584,0.942,2.769,93.6,red,237,TRUE
139,1660605160.749,2788,-2754,2526,4.877,-1.108,-0.25,109.3,green,237,TRUE
140,1660605160.858,3477,-2764,882,1.268,1.205,-0.389,93.8,yellow,237,TRUE
141,1660605160.952,2455,3839,750,5.587,0.942,2.77,93.7,red,237,TRUE
142,1660605162.342,2693,3446,3348,3.868,-1.364,0.862,94.1,blue,237,TRUE
143,1660605162.436,2785,-2767,2526,4.927,-0.789,-0.128,109.3,green,237,TRUE
144,1660605162.545,3460,-2748,882,1.283,1.172,-0.44,93.7,yellow,237,TRUE
145,1660605162.639,2454,3813,750,5.58,0.946,2.769,95.3,red,237,TRUE
146,1660605163.016,2676,3435,3348,3.87,-1.331,0.697,93.7,blue,237,TRUE
147,1660605163.109,2808,-2760,2526,4.982,-0.697,-0.104,93.8,green,237,TRUE
148,1660605163.203,3438,-2731,882,1.276,1.172,-0.441,78.1,yellow,237,TRUE
149,1660605163.297,2511,3827,750,5.572,0.947,2.767,78.1,red,237,TRUE
150,1660605163.656,2677,3430,3348,3.922,-1.204,0.372,94.0,blue,237,TRUE
151,1660605163.75,2836,-2777,2526,4.9,-0.911,-0.166,109.0,green,237,TRUE
152,1660605163.859,3412,-2736,882,1.277,1.15,-0.423,94.1,yellow,237,TRUE
153,1660605163.953,2588,3847,750,5.562,0.945,2.769,93.7,red,237,TRUE
154,1660605164.359,2680,3415,3348,3.917,-1.269,0.477,93.9,blue,237,TRUE
155,1660605164.453,2832,-2784,2526,4.912,-0.906,-0.022,93.7,green,237,TRUE
156,1660605164.547,3380,-2736,882,1.275,1.146,-0.425,93.7,yellow,237,TRUE
157,1660605164.64,2604,3830,750,5.563,0.944,2.771,93.7,red,237,TRUE
158,1660605167.251,3391,-2740,882,1.272,1.129,-0.418,78.1,yellow,237,TRUE
159,1660605167.329,2612,3864,750,5.504,0.916,2.766,93.5,red,237,TRUE
160,1660605168.673,2675,3401,3348,4.559,-1.283,1.553,94.0,blue,237,TRUE
161,1660605169.831,3435,-2750,882,1.273,1.144,-0.439,93.7,yellow,237,TRUE
162,1660605169.925,2626,3871,750,6.133,0.873,2.789,93.8,red,237,TRUE
163,1660605170.331,2761,3488,3348,5.292,-1.221,0.724,78.1,blue,237,TRUE
164,1660605170.424,2815,-2776,2526,4.947,-0.595,-0.017,94.0,green,237,TRUE
165,1660605170.519,3451,-2748,882,1.268,1.152,-0.434,93.7,yellow,237,TRUE
166,1660605170.612,2652,3882,750,0.529,0.797,2.83,93.7,red,237,TRUE
167,1660605171.036,2820,3633,3348,5.092,-1.232,0.419,93.4,blue,237,TRUE
168,1660605171.129,2811,-2772,2526,4.965,-0.46,0.032,94.1,green,237,TRUE
169,1660605171.223,3416,-2769,882,1.264,1.153,-0.43,77.8,yellow,237,TRUE
170,1660605171.317,2704,3939,750,1.367,0.86,2.653,93.8,red,237,TRUE
171,1660605171.676,2862,3837,3348,4.984,-1.235,0.442,93.7,blue,237,TRUE
172,1660605171.77,2799,-2772,2526,4.959,-0.403,0.037,93.7,green,237,TRUE
173,1660605171.864,3423,-2788,882,1.265,1.164,-0.44,93.5,yellow,237,TRUE
174,1660605171.957,2663,4064,750,1.443,0.83,2.823,94.0,red,237,TRUE
175,1660605172.348,2898,4081,3348,4.868,-1.257,0.417,79.6,blue,237,TRUE
176,1660605173.555,3423,-2788,882,1.263,1.15,-0.434,78.1,yellow,237,TRUE
177,1660605173.634,2694,4319,750,1.07,0.88,2.727,93.7,red,237,TRUE
178,1660605174.009,2898,4424,3348,3.626,-1.37,0.686,93.7,blue,237,TRUE
179,1660605174.102,2817,-2758,2526,4.908,-0.485,-0.023,93.7,green,237,TRUE
180,1660605174.196,3414,-2801,882,1.271,1.136,-0.434,93.8,yellow,237,TRUE
181,1660605174.29,2727,4549,750,0.949,0.874,2.784,78.0,red,237,TRUE
182,1660605174.633,2895,4779,3348,3.613,-1.385,0.841,93.8,blue,237,TRUE
183,1660605175.855,3433,-2808,882,1.284,1.143,-0.465,93.7,yellow,237,TRUE
184,1660605175.948,2744,4805,750,0.252,0.888,2.758,94.9,red,237,TRUE
185,1660605176.309,2903,5128,3348,3.592,-1.368,0.714,93.7,blue,237,TRUE
186,1660605177.514,3480,-2813,882,1.26,1.178,-0.455,78.0,yellow,237,TRUE
187,1660605177.592,2743,5067,750,0.167,0.915,2.765,93.7,red,237,TRUE
188,1660605177.968,2917,5463,3348,3.563,-1.362,0.717,93.8,blue,237,TRUE
189,1660605179.218,3508,-2815,882,1.266,1.139,-0.432,93.7,yellow,237,TRUE
190,1660605179.312,2700,5320,750,0.093,0.91,2.771,93.7,red,237,TRUE
191,1660605179.702,2899,5804,3348,3.562,-1.382,0.863,93.8,blue,237,TRUE
192,1660605179.812,2797,-2757,2526,4.886,-0.808,-0.075,125.0,green,237,TRUE
193,1660605179.937,3535,-2834,882,1.266,1.14,-0.432,78.0,yellow,237,TRUE
194,1660605180.015,2652,5551,750,0.085,0.914,2.774,93.5,red,237,TRUE
195,1660605180.436,2886,6138,3348,3.557,-1.379,0.845,78.1,blue,237,TRUE
196,1660605180.514,2817,-2751,2526,4.886,-0.761,-0.044,93.8,green,237,TRUE
197,1660605180.608,3529,-2843,882,1.256,1.142,-0.424,93.6,yellow,237,TRUE
198,1660605180.702,2665,5828,750,0.067,0.915,2.773,94.0,red,237,TRUE
199,1660605181.092,2894,6504,3348,3.556,-1.378,0.834,93.5,blue,237,TRUE
200,1660605183.42,2680,6100,750,0.065,0.912,2.779,93.5,red,237,TRUE
201,1660605183.795,2869,6823,3348,3.551,-1.372,0.807,93.8,blue,237,TRUE
202,1660605183.889,2813,-2737,2526,4.892,-0.37,0.075,93.7,green,237,TRUE
203,1660605183.983,3533,-2868,882,1.221,1.21,-0.515,93.7,yellow,237,TRUE
204,1660605184.076,2684,6371,750,0.073,0.91,2.777,93.6,red,237,TRUE
205,1660605184.467,2793,7051,3348,3.547,-1.371,0.797,93.5,blue,237,TRUE
206,1660605184.56,2822,-2737,2526,4.891,-0.515,0.057,94.0,green,237,TRUE
207,1660605184.654,3559,-2869,882,1.217,1.208,-0.494,93.8,yellow,237,TRUE
208,1660605184.748,2681,6615,750,0.093,0.95,2.763,93.7,red,237,TRUE
209,1660605185.123,2734,7245,3348,3.545,-1.369,0.779,93.8,blue,237,TRUE
210,1660605185.217,2885,-2743,2526,4.872,-0.591,0.052,78.1,green,237,TRUE
211,1660605185.295,3502,-2875,882,1.223,1.186,-0.407,99.2,yellow,237,TRUE
212,1660605185.396,2641,6804,750,0.129,0.984,2.761,81.8,red,237,TRUE
213,1660605186.774,2697,7370,3348,3.545,-1.373,0.803,93.6,blue,237,TRUE
214,1660605186.868,2922,-2758,2526,4.878,-0.593,0.044,93.7,green,237,TRUE
215,1660605186.961,3491,-2874,882,1.24,1.193,-0.417,93.7,yellow,237,TRUE
216,1660605187.055,2640,6892,750,0.124,0.975,2.765,109.2,red,237,TRUE
217,1660605187.43,2662,7416,3348,3.563,-1.358,0.73,93.7,blue,237,TRUE
218,1660605187.539,2948,-2758,2526,4.875,-0.571,0.04,78.1,green,237,TRUE
219,1660605187.618,3507,-2867,882,1.239,1.193,-0.427,93.7,yellow,237,TRUE
220,1660605187.711,2623,6918,750,0.128,0.971,2.77,93.7,red,237,TRUE
221,1660605188.102,2649,7419,3348,3.588,-1.326,0.583,93.8,blue,237,TRUE
222,1660605188.196,2993,-2770,2526,4.868,-0.595,0.034,93.6,green,237,TRUE
223,1660605189.367,2607,6955,750,0.146,0.964,2.772,93.8,red,237,TRUE
224,1660605189.758,2645,7431,3348,3.625,-1.333,0.649,93.7,blue,237,TRUE
225,1660605189.851,2999,-2770,2526,4.872,-0.502,0.133,93.8,green,237,TRUE
226,1660605191.023,2611,6953,750,0.143,0.965,2.769,93.4,red,237,TRUE
227,1660605191.523,3010,-2774,2526,4.854,-0.483,0.157,93.7,green,237,TRUE
228,1660605191.617,3537,-2836,882,1.181,1.14,2.838,93.7,yellow,237,TRUE
229,1660605191.71,2612,6958,750,0.134,0.953,2.774,93.8,red,237,TRUE
230,1660605192.085,2639,7483,3348,3.575,-1.353,0.754,93.8,blue,237,TRUE
231,1660605192.179,3084,-2796,2526,4.831,-0.445,0.122,93.7,green,237,TRUE
232,1660605192.273,3498,-2784,882,1.165,1.263,-3.084,93.8,yellow,237,TRUE
233,1660605193.741,2645,7475,3348,3.565,-1.36,0.8,78.4,blue,237,TRUE
234,1660605193.819,3077,-2819,2526,4.819,-0.451,0.043,93.7,green,237,TRUE
235,1660605194.022,2626,6967,750,0.242,0.88,2.772,93.8,red,237,TRUE
236,1660605194.382,2633,7488,3348,3.56,-1.366,0.816,93.8,blue,237,TRUE
237,1660605194.475,3097,-2818,2526,4.842,-0.399,0.07,78.2,green,237,TRUE
238,1660605195.631,2613,6970,750,0.314,0.851,2.777,93.7,red,237,TRUE
239,1660605196.022,2638,7497,3348,3.532,-1.345,0.705,93.8,blue,237,TRUE
240,1660605196.116,3080,-2805,2526,4.838,-0.412,0.094,93.7,green,237,TRUE
241,1660605196.209,3470,-2796,882,1.523,1.295,-0.573,93.6,yellow,237,TRUE
242,1660605196.303,2599,6976,750,0.331,0.85,2.776,93.7,red,237,TRUE
243,1660605197.677,2644,7501,3348,3.682,-1.295,0.524,94.0,blue,237,TRUE
244,1660605197.787,3100,-2819,2526,4.827,-0.386,0.058,93.7,green,237,TRUE
245,1660605197.881,3470,-2796,882,1.223,1.377,-0.608,78.3,yellow,237,TRUE
246,1660605197.959,2603,6978,750,0.332,0.851,2.777,93.8,red,237,TRUE
247,1660605200.677,2579,6972,750,0.084,0.925,2.782,93.5,red,237,TRUE
248,1660605201.052,2648,7497,3348,3.589,-1.344,0.737,93.7,blue,237,TRUE
249,1660605202.241,3425,-2861,882,1.358,1.324,-0.891,93.7,yellow,237,TRUE
250,1660605202.334,2552,6959,750,6.157,0.923,2.783,95.5,red,237,TRUE
251,1660605203.713,2639,7529,3348,3.688,-1.306,0.587,94.0,blue,237,TRUE
252,1660605203.807,3100,-2817,2526,4.771,-0.495,-0.033,93.7,green,237,TRUE
253,1660605204.979,2539,6931,750,6.103,0.901,2.781,94.9,red,237,TRUE
254,1660605206.527,3071,-2814,2526,4.754,-0.483,-0.025,93.7,green,237,TRUE
255,1660605207.714,2531,6911,750,6.169,0.904,2.779,79.6,red,237,TRUE
256,1660605209.137,2642,7530,3348,3.671,-1.287,0.506,95.6,blue,237,TRUE
257,1660605209.233,3033,-2796,2526,4.734,-0.482,-0.037,93.6,green,237,TRUE
258,1660605210.404,2513,6902,750,6.17,0.909,2.777,94.0,red,237,TRUE
259,1660605210.827,2618,7498,3348,3.612,-1.345,0.681,93.7,blue,237,TRUE
260,1660605210.921,3020,-2783,2526,4.73,-0.526,-0.038,109.4,green,237,TRUE
261,1660605211.062,3407,-2851,882,1.337,1.233,-0.61,78.1,yellow,237,TRUE
262,1660605211.562,2628,7445,3348,3.605,-1.349,0.684,93.7,blue,237,TRUE
263,1660605211.671,2979,-2781,2526,4.727,-0.525,-0.038,93.8,green,237,TRUE
264,1660605211.765,3414,-2835,882,1.347,1.205,-0.605,93.6,yellow,237,TRUE
265,1660605211.858,2538,6906,750,6.175,1.163,2.604,95.3,red,237,TRUE
266,1660605212.297,2612,7436,3348,3.613,-1.345,0.681,93.6,blue,237,TRUE
267,1660605213.517,3430,-2810,882,1.361,1.175,-0.613,93.7,yellow,237,TRUE
268,1660605213.611,2535,6911,750,5.921,1.094,2.667,93.8,red,237,TRUE
269,1660605215.016,2613,7463,3348,3.725,-1.249,0.463,93.7,blue,237,TRUE
270,1660605216.261,3385,-2805,882,1.346,1.184,-0.552,93.8,yellow,237,TRUE
271,1660605216.354,2519,6899,750,5.767,0.976,2.722,93.4,red,237,TRUE
272,1660605217.796,2625,7451,3348,3.628,-1.344,0.772,93.7,blue,237,TRUE
273,1660605219.08,2511,6895,750,5.893,0.999,2.714,93.8,red,237,TRUE
274,1660605219.455,2596,7448,3348,3.614,-1.361,0.898,93.7,blue,237,TRUE
275,1660605219.611,3404,-2787,882,1.346,1.235,-0.555,78.1,yellow,237,TRUE
276,1660605219.705,2542,6886,750,5.912,1.006,2.71,78.5,red,237,TRUE
277,1660605222.456,2496,6864,750,5.965,1.031,2.698,93.7,red,237,TRUE
278,1660605222.833,2575,7428,3348,3.592,-1.349,0.879,93.8,blue,237,TRUE
279,1660605224.145,2504,6873,750,5.756,0.958,2.741,93.7,red,237,TRUE
280,1660605224.52,2579,7450,3348,3.623,-1.333,0.777,93.7,blue,237,TRUE
281,1660605224.676,3398,-2802,882,1.409,1.189,-0.653,78.0,yellow,237,TRUE
282,1660605224.77,2538,6942,750,5.774,0.96,2.739,93.7,red,237,TRUE
283,1660605225.145,2574,7450,3348,3.622,-1.334,0.783,93.7,blue,237,TRUE
284,1660605226.396,2548,6960,750,5.881,0.964,2.741,93.7,red,237,TRUE
285,1660605226.818,2585,7431,3348,3.683,-1.174,0.268,93.8,blue,237,TRUE
286,1660605228.1,2566,6977,750,5.91,0.963,2.741,93.7,red,237,TRUE
287,1660605228.522,2588,7443,3348,3.623,-1.29,0.513,78.1,blue,237,TRUE
288,1660605229.756,2584,6971,750,5.912,0.962,2.743,93.8,red,237,TRUE
289,1660605230.146,2599,7445,3348,3.612,-1.34,0.689,93.7,blue,237,TRUE
290,1660605230.334,3435,-2811,882,1.381,1.199,-0.611,77.8,yellow,237,TRUE
291,1660605230.412,2588,6954,750,5.912,0.96,2.747,94.0,red,237,TRUE
292,1660605230.803,2630,7462,3348,3.615,-1.342,0.7,78.1,blue,237,TRUE
293,1660605232.023,2552,6938,750,5.928,0.954,2.757,93.7,red,237,TRUE
294,1660605232.413,2633,7446,3348,3.625,-1.336,0.712,93.7,blue,237,TRUE
295,1660605232.569,3471,-2884,882,1.4,1.19,-0.635,93.7,yellow,237,TRUE
296,1660605232.663,2535,6930,750,5.874,0.982,2.692,93.7,red,237,TRUE
297,1660605233.04,2645,7451,3348,3.635,-1.329,0.701,93.7,blue,237,TRUE
298,1660605233.258,2565,6915,750,0.251,0.86,2.762,78.1,red,237,TRUE
299,1660605233.618,2627,7415,3348,3.581,-1.289,0.483,93.7,blue,237,TRUE
300,1660605233.727,3482,-2877,882,1.368,1.193,-0.542,78.1,yellow,237,TRUE
301,1660605233.821,2577,6895,750,1.106,0.85,2.776,93.8,red,237,TRUE
302,1660605234.196,2641,7444,3348,3.315,-1.266,0.361,93.7,blue,237,TRUE
303,1660605234.367,3513,-2845,882,1.383,1.205,-0.6,77.9,yellow,237,TRUE
304,1660605234.445,2582,6893,750,1.854,0.94,2.7,94.0,red,237,TRUE
305,1660605234.867,2682,7411,3348,2.508,-1.226,0.188,93.9,blue,237,TRUE
306,1660605234.961,3498,-2826,882,1.382,1.202,-0.609,93.6,yellow,237,TRUE
307,1660605235.463,2766,7394,3348,1.71,-1.225,0.398,93.7,blue,237,TRUE
308,1660605235.556,3530,-2823,882,1.38,1.202,-0.602,93.7,yellow,237,TRUE
309,1660605235.65,2684,6791,750,3.955,0.872,2.89,93.7,red,237,TRUE
310,1660605236.042,2821,7317,3348,1.311,-1.299,0.531,93.7,blue,237,TRUE
311,1660605236.198,3551,-2825,882,1.389,1.2,-0.624,124.9,yellow,237,TRUE
312,1660605236.323,2722,6637,750,4.229,0.93,2.695,93.7,red,237,TRUE
313,1660605236.682,2919,7209,3348,1.341,-1.232,0.381,93.6,blue,237,TRUE
314,1660605237.918,2826,6506,750,3.653,0.953,2.69,93.7,red,237,TRUE
315,1660605238.34,3014,7112,3348,0.73,-1.293,0.459,93.7,blue,237,TRUE
316,1660605238.496,3562,-2829,882,1.382,1.194,-0.6,124.9,yellow,237,TRUE
317,1660605238.621,2925,6365,750,3.302,0.932,2.709,93.8,red,237,TRUE
318,1660605239.027,3112,6994,3348,0.8,-1.316,0.578,94.0,blue,237,TRUE
319,1660605240.277,3082,6280,750,2.886,0.798,2.742,93.7,red,237,TRUE
320,1660605240.653,3197,6882,3348,0.875,-1.302,0.568,93.8,blue,237,TRUE
321,1660605241.953,3202,6164,750,3.181,0.785,2.777,93.8,red,237,TRUE
322,1660605242.359,3263,6787,3348,0.838,-1.293,0.523,93.7,blue,237,TRUE
323,1660605242.515,3597,-2830,882,1.383,1.194,-0.599,109.2,yellow,237,TRUE
324,1660605242.625,3337,6049,750,3.251,0.793,2.785,93.7,red,237,TRUE
325,1660605243.954,3351,6712,3348,0.87,-1.32,0.642,93.7,blue,237,TRUE
326,1660605245.204,3493,5926,750,3.445,0.806,2.772,93.7,red,237,TRUE
327,1660605245.589,3420,6634,3348,0.899,-1.312,0.617,93.8,blue,237,TRUE
328,1660605246.887,3598,5819,750,3.571,0.792,2.789,93.7,red,237,TRUE
329,1660605247.293,3567,6526,3348,0.867,-1.312,0.603,95.4,blue,237,TRUE
330,1660605248.609,3726,5730,750,3.325,0.838,2.791,94.8,red,237,TRUE
331,1660605249.032,3657,6375,3348,0.837,-1.317,0.647,93.8,blue,237,TRUE
332,1660605249.251,3823,5617,750,3.292,0.854,2.787,93.7,red,237,TRUE
333,1660605249.641,3742,6319,3348,0.826,-1.329,0.704,93.7,blue,237,TRUE
334,1660605249.75,3923,5547,750,3.328,0.872,2.788,93.8,red,237,TRUE
335,1660605251.111,3809,6230,3348,0.821,-1.332,0.661,93.7,blue,237,TRUE
336,1660605251.329,4038,5499,750,3.265,0.877,2.783,93.7,red,237,TRUE
337,1660605252.971,4123,5457,750,3.294,0.876,2.786,93.4,red,237,TRUE
338,1660605253.377,3816,6208,3348,0.804,-1.328,0.673,93.7,blue,237,TRUE
339,1660605253.502,4148,5485,750,3.301,0.88,2.786,93.8,red,237,TRUE
340,1660605253.862,3809,6201,3348,0.806,-1.328,0.673,93.8,blue,237,TRUE
341,1660605254.002,4171,5490,750,3.303,0.884,2.786,94.1,red,237,TRUE
342,1660605255.376,3801,6194,3348,0.805,-1.336,0.718,94.0,blue,237,TRUE
343,1660605255.597,4157,5486,750,3.31,0.872,2.79,93.7,red,237,TRUE
344,1660605256.003,3804,6191,3348,0.804,-1.333,0.709,93.6,blue,237,TRUE
345,1660605257.535,3826,6176,3348,0.802,-1.328,0.695,94.0,blue,237,TRUE
346,1660605258.835,4174,5471,750,3.289,0.846,2.795,93.7,red,237,TRUE
347,1660605260.225,3828,6164,3348,0.809,-1.322,0.642,94.1,blue,237,TRUE
348,1660605261.446,4183,5508,750,3.296,0.846,2.795,93.8,red,237,TRUE
349,1660605261.82,3835,6138,3348,0.837,-1.282,0.507,93.7,blue,237,TRUE
350,1660605261.992,3578,-2841,882,1.425,1.093,-0.627,78.1,yellow,237,TRUE
351,1660605262.07,4205,5559,750,3.298,0.851,2.793,93.7,red,237,TRUE
352,1660605262.478,3834,6139,3348,0.841,-1.307,0.586,94.0,blue,237,TRUE
353,1660605262.587,3625,-2839,882,1.479,1.181,-0.529,78.2,yellow,237,TRUE
354,1660605262.666,4228,5574,750,3.303,0.856,2.788,93.7,red,237,TRUE
355,1660605263.089,3862,6151,3348,0.824,-1.299,0.574,93.8,blue,237,TRUE
356,1660605264.338,4234,5552,750,3.308,0.86,2.788,78.1,red,237,TRUE
357,1660605264.713,3848,6166,3348,0.822,-1.302,0.613,93.7,blue,237,TRUE
358,1660605266.011,4245,5559,750,3.266,0.86,2.786,93.5,red,237,TRUE
359,1660605267.761,4223,5532,750,3.224,0.86,2.802,95.4,red,237,TRUE
360,1660605268.184,3829,6176,3348,0.838,-1.307,0.596,93.7,blue,237,TRUE
361,1660605268.403,4271,5574,750,3.19,0.873,2.784,93.7,red,237,TRUE
362,1660605271.185,4270,5560,750,3.146,0.946,2.779,93.7,red,237,TRUE
363,1660605272.638,3875,6234,3348,0.839,-1.296,0.608,93.7,blue,237,TRUE
364,1660605273.887,4265,5568,750,3.185,0.958,2.762,93.8,red,237,TRUE
365,1660605274.278,3907,6272,3348,0.845,-1.29,0.651,93.7,blue,237,TRUE
366,1660605274.372,2973,-2751,2526,4.488,-0.575,-0.052,109.5,green,237,TRUE
367,1660605274.481,4243,5570,750,3.187,0.936,2.776,93.6,red,237,TRUE
368,1660605275.854,3921,6295,3348,0.843,-1.292,0.64,93.7,blue,237,TRUE
369,1660605277.167,4245,5611,750,3.181,0.923,2.788,93.8,red,237,TRUE
370,1660605277.557,3923,6291,3348,0.876,-1.287,0.595,93.4,blue,237,TRUE
371,1660605278.885,4223,5610,750,3.178,0.92,2.791,93.7,red,237,TRUE
372,1660605280.306,3932,6307,3348,0.793,-1.348,0.352,94.0,blue,237,TRUE
373,1660605281.619,4199,5582,750,3.173,0.917,2.787,93.7,red,237,TRUE
374,1660605282.962,3931,6347,3348,0.794,-1.34,0.329,93.9,blue,237,TRUE
375,1660605283.071,3014,-2766,2526,4.493,-0.569,-0.072,78.2,green,237,TRUE
376,1660605283.228,4174,5538,750,3.181,0.921,2.787,93.5,red,237,TRUE
377,1660605283.712,3018,-2765,2526,4.496,-0.562,-0.074,78.3,green,237,TRUE
378,1660605283.806,4167,5528,750,3.179,0.92,2.785,93.9,red,237,TRUE
379,1660605284.196,3940,6349,3348,0.922,-1.268,0.599,93.6,blue,237,TRUE
380,1660605284.29,3036,-2777,2526,4.496,-0.562,-0.072,93.6,green,237,TRUE
381,1660605284.384,4161,5539,750,3.182,0.92,2.785,93.6,red,237,TRUE
382,1660605284.79,3920,6343,3348,0.845,-1.302,0.694,78.2,blue,237,TRUE
383,1660605284.868,3049,-2773,2526,4.495,-0.563,-0.07,125.0,green,237,TRUE
384,1660605285.056,4147,5530,750,3.182,0.913,2.787,93.7,red,237,TRUE
385,1660605285.446,3901,6323,3348,0.845,-1.31,0.724,78.1,blue,237,TRUE
386,1660605286.696,4163,5566,750,3.183,0.914,2.787,93.4,red,237,TRUE
387,1660605287.07,3898,6322,3348,0.913,-1.247,0.501,93.8,blue,237,TRUE
388,1660605287.164,3063,-2781,2526,4.497,-0.563,-0.072,93.7,green,237,TRUE
389,1660605287.258,4125,5546,750,3.228,0.921,2.787,93.9,red,237,TRUE
390,1660605288.648,3922,6293,3348,0.892,-1.292,0.612,93.7,blue,237,TRUE
391,1660605289.914,3598,-2822,882,1.391,1.185,-0.52,93.7,yellow,237,TRUE
392,1660605290.008,4142,5551,750,3.209,0.949,2.755,93.6,red,237,TRUE
393,1660605290.414,3908,6246,3348,0.893,-1.308,0.685,93.5,blue,237,TRUE
394,1660605292.71,4136,5541,750,3.226,0.894,2.791,93.6,red,237,TRUE
395,1660605293.1,3892,6186,3348,0.903,-1.3,0.644,93.9,blue,237,TRUE
396,1660605293.194,3081,-2788,2526,4.506,-0.554,-0.071,93.6,green,237,TRUE
397,1660605294.46,4131,5509,750,3.24,0.893,2.793,93.6,red,237,TRUE
398,1660605294.881,3904,6149,3348,0.911,-1.294,0.625,93.5,blue,237,TRUE
399,1660605297.272,4124,5492,750,3.226,0.885,2.795,93.5,red,237,TRUE
400,1660605297.693,3921,6137,3348,0.917,-1.289,0.622,93.5,blue,237,TRUE
401,1660605298.99,4120,5484,750,3.242,0.882,2.801,93.5,red,237,TRUE
402,1660605299.396,3928,6104,3348,0.902,-1.285,0.64,93.8,blue,237,TRUE
403,1660605300.708,4120,5465,750,3.257,0.879,2.811,94.0,red,237,TRUE
404,1660605301.083,3956,6044,3348,0.905,-1.298,0.66,93.7,blue,237,TRUE
405,1660605301.255,4112,5460,750,3.253,0.875,2.813,93.6,red,237,TRUE
406,1660605301.661,3990,6018,3348,0.906,-1.298,0.646,94.1,blue,237,TRUE
407,1660605301.786,4091,5439,750,3.26,0.878,2.814,93.7,red,237,TRUE
408,1660605302.161,3953,6025,3348,0.901,-1.299,0.641,93.7,blue,237,TRUE
409,1660605302.348,4090,5443,750,3.257,0.885,2.805,93.7,red,237,TRUE
410,1660605303.707,3976,6018,3348,0.903,-1.296,0.641,93.9,blue,237,TRUE
411,1660605303.942,4088,5395,750,3.248,0.888,2.802,93.7,red,237,TRUE
412,1660605305.589,4071,5376,750,3.252,0.887,2.805,93.7,red,237,TRUE
413,1660605305.979,4035,5895,3348,0.902,-1.297,0.631,93.7,blue,237,TRUE
414,1660605306.073,4052,5362,750,3.252,0.887,2.805,94.0,red,237,TRUE
415,1660605308.82,4032,5345,750,3.254,0.878,2.81,93.8,red,237,TRUE
416,1660605310.242,3980,5883,3348,0.897,-1.296,0.615,93.7,blue,237,TRUE
417,1660605310.336,3087,-2769,2526,4.516,-0.56,-0.071,93.5,green,237,TRUE
418,1660605310.492,4035,5358,750,3.269,0.88,2.808,93.7,red,237,TRUE
419,1660605313.179,4037,5361,750,3.488,0.873,2.843,93.7,red,237,TRUE
420,1660605313.538,3921,5923,3348,0.925,-1.286,0.602,93.8,blue,237,TRUE
421,1660605313.632,3062,-2777,2526,4.518,-0.56,-0.076,93.9,green,237,TRUE
422,1660605314.038,3906,5951,3348,1.074,-1.259,0.669,93.8,blue,237,TRUE
423,1660605314.132,3071,-2776,2526,4.518,-0.557,-0.076,109.1,green,237,TRUE
424,1660605314.241,4110,5337,750,3.723,0.928,2.875,94.0,red,237,TRUE
425,1660605314.538,3887,5968,3348,1.167,-1.242,0.555,94.1,blue,237,TRUE
426,1660605314.632,3072,-2775,2526,4.518,-0.557,-0.075,93.7,green,237,TRUE
427,1660605314.788,4109,5331,750,4.126,0.964,2.773,93.6,red,237,TRUE
428,1660605316.162,3828,5948,3348,2.181,-1.278,0.621,94.0,blue,237,TRUE
429,1660605317.366,3609,-2848,882,1.367,1.203,-0.471,78.0,yellow,237,TRUE
430,1660605317.443,4057,5190,750,5.404,0.966,2.75,93.9,red,237,TRUE
431,1660605319.052,3590,-2870,882,1.332,1.282,-0.642,78.1,yellow,237,TRUE
432,1660605319.13,4003,4962,750,5.155,0.98,2.723,93.7,red,237,TRUE
433,1660605319.521,3726,5589,3348,1.989,-1.253,0.501,93.7,blue,237,TRUE
434,1660605319.615,3079,-2771,2526,4.572,-0.662,-0.022,93.7,green,237,TRUE
435,1660605320.838,4013,4662,750,4.045,0.973,2.63,93.8,red,237,TRUE
436,1660605321.198,3727,5301,3348,1.197,-1.31,0.802,93.7,blue,237,TRUE
437,1660605322.369,3565,-2871,882,1.334,1.237,-0.44,93.8,yellow,237,TRUE
438,1660605322.463,4011,4405,750,3.397,0.929,2.725,93.4,red,237,TRUE
439,1660605322.838,3678,5063,3348,1.093,-1.337,0.932,93.7,blue,237,TRUE
440,1660605322.932,3069,-2779,2526,4.571,-0.528,-0.073,78.2,green,237,TRUE
441,1660605323.025,3520,-2886,882,1.337,1.228,-0.457,78.3,yellow,237,TRUE
442,1660605323.104,4016,4120,750,3.509,0.896,2.762,93.5,red,237,TRUE
443,1660605323.463,3674,4765,3348,1.175,-1.288,0.726,93.9,blue,237,TRUE
444,1660605323.557,3062,-2790,2526,4.571,-0.528,-0.073,93.6,green,237,TRUE
445,1660605323.65,3494,-2891,882,1.342,1.216,-0.481,78.3,yellow,237,TRUE
446,1660605323.729,4032,3829,750,3.518,0.879,2.759,93.8,red,237,TRUE
447,1660605324.103,3734,4453,3348,1.212,-1.276,0.71,93.7,blue,237,TRUE
448,1660605324.197,3059,-2797,2526,4.571,-0.526,-0.073,93.8,green,237,TRUE
449,1660605324.291,3467,-2907,882,1.34,1.215,-0.477,78.0,yellow,237,TRUE
450,1660605324.369,4031,3550,750,3.508,0.877,2.763,93.8,red,237,TRUE
451,1660605324.853,3052,-2803,2526,4.571,-0.525,-0.073,93.6,green,237,TRUE
452,1660605326.025,4029,3262,750,3.509,0.878,2.769,93.8,red,237,TRUE
453,1660605326.403,3812,3849,3348,1.209,-1.297,0.784,93.9,blue,237,TRUE
454,1660605326.512,3042,-2799,2526,4.572,-0.531,-0.073,93.9,green,237,TRUE
455,1660605326.606,3422,-2922,882,1.336,1.196,-0.459,78.1,yellow,237,TRUE
456,1660605326.684,4024,2979,750,3.509,0.878,2.769,93.5,red,237,TRUE
457,1660605327.075,3853,3518,3348,1.198,-1.294,0.754,94.1,blue,237,TRUE
458,1660605327.169,3047,-2818,2526,4.572,-0.529,-0.073,109.1,green,237,TRUE
459,1660605327.278,3436,-2943,882,1.333,1.206,-0.47,93.6,yellow,237,TRUE
460,1660605327.371,4031,2700,750,3.509,0.878,2.769,93.9,red,237,TRUE
461,1660605327.746,3883,3177,3348,1.192,-1.285,0.68,93.9,blue,237,TRUE
462,1660605327.84,3054,-2829,2526,4.572,-0.528,-0.074,93.5,green,237,TRUE
463,1660605329.09,3948,2431,750,3.507,0.877,2.771,93.9,red,237,TRUE
464,1660605329.466,3940,2816,3348,1.09,-1.332,0.865,93.8,blue,237,TRUE
465,1660605329.575,3047,-2840,2526,4.574,-0.532,-0.074,93.4,green,237,TRUE
466,1660605329.669,3440,-2976,882,1.342,1.196,-0.48,78.4,yellow,237,TRUE
467,1660605329.747,3949,2154,750,3.51,0.878,2.772,93.7,red,237,TRUE
468,1660605330.153,4008,2549,3348,1.15,-1.288,0.634,93.8,blue,237,TRUE
469,1660605331.358,3488,-3019,882,1.346,1.206,-0.525,78.1,yellow,237,TRUE
470,1660605331.859,4110,2367,3348,1.142,-1.299,0.663,93.8,blue,237,TRUE
471,1660605333.093,3488,-3019,882,1.344,1.216,-0.55,78.4,yellow,237,TRUE
472,1660605333.171,4026,1897,750,3.39,0.795,2.806,95.3,red,237,TRUE
473,1660605333.579,4173,2269,3348,1.121,-1.322,0.718,93.8,blue,237,TRUE
474,1660605334.799,3427,-3012,882,1.286,1.248,-0.466,78.1,yellow,237,TRUE
475,1660605336.247,4150,2257,3348,1.157,-1.302,0.682,94.1,blue,237,TRUE
476,1660605336.357,3025,-2836,2526,4.565,-0.542,-0.053,93.7,green,237,TRUE
477,1660605336.45,3404,-3025,882,1.324,1.154,-0.455,93.7,yellow,237,TRUE
478,1660605336.544,3967,1902,750,3.452,0.856,2.824,93.8,red,237,TRUE
479,1660605337.967,4210,2264,3348,1.16,-1.307,0.683,94.0,blue,237,TRUE
480,1660605338.061,3038,-2840,2526,4.564,-0.553,-0.058,109.4,green,237,TRUE
481,1660605338.186,3413,-3024,882,1.328,1.166,-0.46,93.6,yellow,237,TRUE
482,1660605338.28,3942,1894,750,3.444,0.858,2.821,93.7,red,237,TRUE
483,1660605338.625,4209,2264,3348,1.141,-1.316,0.69,95.4,blue,237,TRUE
484,1660605339.798,3446,-3008,882,1.324,1.151,-0.449,93.7,yellow,237,TRUE
485,1660605339.892,3919,1897,750,3.47,0.88,2.791,93.8,red,237,TRUE
486,1660605341.317,4193,2267,3348,1.162,-1.298,0.658,95.1,blue,237,TRUE
487,1660605341.412,3034,-2841,2526,4.571,-0.555,-0.056,93.9,green,237,TRUE
488,1660605341.506,3519,-3016,882,1.321,1.154,-0.424,93.5,yellow,237,TRUE
489,1660605341.615,3903,1890,750,3.419,0.853,2.807,93.7,red,237,TRUE
490,1660605343.023,4200,2244,3348,1.164,-1.3,0.663,93.7,blue,237,TRUE
491,1660605343.116,3057,-2834,2526,4.573,-0.564,-0.059,93.7,green,237,TRUE
492,1660605343.21,3567,-2991,882,1.317,1.162,-0.424,93.8,yellow,237,TRUE
493,1660605343.304,3888,1875,750,3.4,0.851,2.806,93.6,red,237,TRUE
494,1660605344.725,4176,2256,3348,1.163,-1.3,0.663,94.1,blue,237,TRUE
495,1660605344.819,3069,-2820,2526,4.567,-0.596,-0.057,124.9,green,237,TRUE
496,1660605344.944,3479,-3016,882,1.295,1.198,-0.889,78.1,yellow,237,TRUE
497,1660605345.022,3875,1860,750,3.404,0.85,2.809,93.7,red,237,TRUE
498,1660605345.381,4178,2266,3348,1.163,-1.3,0.665,94.9,blue,237,TRUE
499,1660605345.476,3066,-2820,2526,4.564,-0.553,-0.06,109.7,green,237,TRUE
500,1660605346.679,3857,1848,750,3.414,0.85,2.81,93.8,red,237,TRUE
501,1660605348.148,3048,-2806,2526,4.566,-0.525,-0.061,109.7,green,237,TRUE
502,1660605348.257,3447,-3018,882,1.248,1.178,-0.636,78.0,yellow,237,TRUE
503,1660605348.335,3843,1847,750,3.446,0.863,2.814,93.5,red,237,TRUE
504,1660605348.695,4117,2288,3348,1.164,-1.297,0.659,93.8,blue,237,TRUE
505,1660605349.93,3532,-3037,882,1.223,1.173,-0.417,93.8,yellow,237,TRUE
506,1660605350.024,3831,1839,750,3.449,0.862,2.818,93.7,red,237,TRUE
507,1660605350.4,4104,2284,3348,1.157,-1.3,0.648,93.5,blue,237,TRUE
508,1660605351.621,3476,-3036,882,1.234,1.185,-0.461,78.0,yellow,237,TRUE
509,1660605351.699,3824,1881,750,3.449,0.862,2.818,93.8,red,237,TRUE
510,1660605353.121,4092,2301,3348,1.146,-1.311,0.661,94.1,blue,237,TRUE
511,1660605354.342,3434,-3024,882,1.192,1.19,-0.395,78.1,yellow,237,TRUE
512,1660605354.42,3836,1878,750,3.46,0.863,2.812,93.7,red,237,TRUE
513,1660605356.001,3440,-3014,882,1.222,1.199,-0.429,78.1,yellow,237,TRUE
514,1660605356.079,3855,1870,750,3.518,0.894,2.796,93.7,red,237,TRUE
515,1660605356.471,4131,2297,3348,1.136,-1.319,0.668,93.8,blue,237,TRUE
516,1660605356.581,3442,-3019,882,1.213,1.18,-0.396,77.8,yellow,237,TRUE
517,1660605356.658,3860,1888,750,3.418,0.897,2.698,94.1,red,237,TRUE
518,1660605357.034,4128,2304,3348,1.134,-1.319,0.664,93.7,blue,237,TRUE
519,1660605357.143,3442,-3019,882,1.229,1.179,-0.428,78.3,yellow,237,TRUE
520,1660605357.237,3864,1893,750,3.651,0.972,2.722,93.8,red,237,TRUE
521,1660605357.596,4144,2317,3348,1.138,-1.321,0.67,93.7,blue,237,TRUE
522,1660605357.705,3056,-2798,2526,4.568,-0.495,-0.059,111.4,green,237,TRUE
523,1660605357.816,3448,-3017,882,1.225,1.155,-0.429,93.6,yellow,237,TRUE
524,1660605357.91,3853,1883,750,3.775,0.957,2.82,93.7,red,237,TRUE
525,1660605358.301,4144,2298,3348,1.132,-1.319,0.649,93.8,blue,237,TRUE
526,1660605358.394,3068,-2791,2526,4.571,-0.5,-0.058,78.1,green,237,TRUE
527,1660605358.472,3415,-2997,882,1.209,1.178,-0.433,93.7,yellow,237,TRUE
528,1660605358.566,3870,1885,750,3.46,0.912,2.716,93.8,red,237,TRUE
529,1660605358.925,4142,2292,3348,1.151,-1.309,0.625,93.7,blue,237,TRUE
530,1660605360.146,3384,-2972,882,1.218,1.173,-0.412,93.8,yellow,237,TRUE
531,1660605360.239,3879,1893,750,3.578,0.917,2.776,93.7,red,237,TRUE
532,1660605361.647,4124,2277,3348,1.17,-1.305,0.665,93.6,blue,237,TRUE
533,1660605361.741,3067,-2777,2526,4.56,-0.502,-0.057,109.4,green,237,TRUE
534,1660605361.85,3324,-2983,882,1.217,1.186,-0.435,93.7,yellow,237,TRUE
535,1660605361.944,3896,1901,750,3.607,0.902,2.784,93.7,red,237,TRUE
536,1660605363.49,3080,-2770,2526,4.56,-0.472,-0.061,93.7,green,237,TRUE
537,1660605364.727,3917,1910,750,3.6,0.899,2.783,93.7,red,237,TRUE
538,1660605366.28,3096,-2767,2526,4.555,-0.483,-0.061,93.7,green,237,TRUE
539,1660605367.437,3933,1913,750,3.611,0.901,2.785,93.7,red,237,TRUE
540,1660605367.797,4078,2336,3348,1.178,-1.301,0.668,78.0,blue,237,TRUE
541,1660605368.985,3316,-2981,882,1.221,1.165,-0.358,93.4,yellow,237,TRUE
542,1660605369.079,3945,1922,750,3.61,0.899,2.786,94.0,red,237,TRUE
543,1660605369.501,4087,2335,3348,1.197,-1.299,0.682,93.7,blue,237,TRUE
544,1660605370.66,3406,-2954,882,1.22,1.169,-0.364,93.8,yellow,237,TRUE
545,1660605370.754,3959,1930,750,3.61,0.898,2.787,93.7,red,237,TRUE
546,1660605371.144,4093,2334,3348,1.203,-1.3,0.697,94.1,blue,237,TRUE
547,1660605372.331,3415,-2931,882,1.218,1.168,-0.356,78.1,yellow,237,TRUE
548,1660605372.41,3977,1935,750,3.608,0.897,2.787,93.8,red,237,TRUE
549,1660605372.817,4110,2323,3348,1.21,-1.297,0.709,93.8,blue,237,TRUE
550,1660605372.927,3121,-2783,2526,4.56,-0.473,-0.063,93.7,green,237,TRUE
551,1660605373.02,3353,-2883,882,1.215,1.192,-0.371,93.7,yellow,237,TRUE
552,1660605373.505,4123,2353,3348,1.211,-1.296,0.71,78.1,blue,237,TRUE
553,1660605374.771,4006,1876,750,3.618,0.899,2.788,93.8,red,237,TRUE
554,1660605375.24,3110,-2790,2526,4.56,-0.472,-0.065,125.3,green,237,TRUE
555,1660605375.381,3378,-2876,882,1.194,1.189,-0.329,78.2,yellow,237,TRUE
556,1660605375.459,4035,1887,750,3.616,0.898,2.786,95.2,red,237,TRUE
557,1660605375.82,4069,2290,3348,1.229,-1.283,0.669,93.8,blue,237,TRUE
558,1660605375.913,3102,-2802,2526,4.557,-0.468,-0.058,124.9,green,237,TRUE
559,1660605376.038,3400,-2872,882,1.196,1.187,-0.339,93.7,yellow,237,TRUE
560,1660605376.132,4062,1906,750,3.616,0.9,2.784,93.7,red,237,TRUE
561,1660605376.491,4073,2282,3348,1.249,-1.292,0.711,93.7,blue,237,TRUE
562,1660605376.585,3104,-2807,2526,4.555,-0.478,-0.063,124.9,green,237,TRUE
563,1660605376.71,3399,-2837,882,1.196,1.192,-0.345,93.8,yellow,237,TRUE
564,1660605376.804,4068,1919,750,3.618,0.899,2.786,93.8,red,237,TRUE
565,1660605377.163,4095,2296,3348,1.239,-1.298,0.732,93.7,blue,237,TRUE
566,1660605377.257,3100,-2799,2526,4.555,-0.479,-0.062,109.4,green,237,TRUE
567,1660605377.382,3583,-2766,882,1.196,1.186,-0.341,78.1,yellow,237,TRUE
568,1660605377.46,4113,1928,750,3.617,0.898,2.786,93.6,red,237,TRUE
569,1660605377.819,4115,2303,3348,1.24,-1.292,0.701,94.0,blue,237,TRUE
570,1660605377.913,3146,-2816,2526,4.555,-0.483,-0.058,93.7,green,237,TRUE
571,1660605378.116,4118,1936,750,3.618,0.898,2.787,93.7,red,237,TRUE
572,1660605378.475,4156,2320,3348,1.215,-1.292,0.68,93.6,blue,237,TRUE
573,1660605379.711,3505,-2794,882,1.2,1.18,-0.348,93.7,yellow,237,TRUE
574,1660605379.805,4115,1934,750,3.644,0.918,2.779,93.8,red,237,TRUE
575,1660605380.179,4215,2283,3348,1.173,-1.307,0.665,94.1,blue,237,TRUE
576,1660605381.401,3520,-2801,882,1.2,1.181,-0.348,77.7,yellow,237,TRUE
577,1660605381.479,4132,1928,750,3.745,0.961,2.781,94.0,red,237,TRUE
578,1660605381.87,4195,2271,3348,1.174,-1.299,0.646,93.8,blue,237,TRUE
579,1660605383.104,3515,-2807,882,1.2,1.27,-0.453,93.7,yellow,237,TRUE
580,1660605383.197,4144,1920,750,3.839,0.926,2.798,93.8,red,237,TRUE
581,1660605383.572,4193,2280,3348,1.354,-1.265,0.492,95.3,blue,237,TRUE
582,1660605383.73,3521,-2788,882,1.212,1.26,-0.469,93.7,yellow,237,TRUE
583,1660605383.824,4196,1913,750,3.663,0.956,2.798,93.7,red,237,TRUE
584,1660605384.183,4194,2273,3348,1.235,-1.287,0.456,93.5,blue,237,TRUE
585,1660605385.341,4162,1934,750,2.187,0.923,2.703,95.5,red,237,TRUE
586,1660605385.733,4151,2332,3348,2.556,-1.276,0.996,93.7,blue,237,TRUE
587,1660605385.889,3522,-2801,882,1.221,1.252,-0.496,78.1,yellow,237,TRUE
588,1660605385.967,4117,2023,750,1.444,0.866,2.668,93.8,red,237,TRUE
589,1660605387.344,4091,2450,3348,4.181,-1.228,0.523,93.7,blue,237,TRUE
590,1660605387.5,3537,-2802,882,1.221,1.253,-0.499,93.7,yellow,237,TRUE
591,1660605387.594,4051,2109,750,1.368,0.893,2.734,93.8,red,237,TRUE
592,1660605387.953,4031,2625,3348,4.47,-1.268,0.365,93.7,blue,237,TRUE
593,1660605388.047,3573,-2813,882,1.221,1.254,-0.502,93.8,yellow,237,TRUE
594,1660605388.14,3937,2198,750,1.402,0.922,2.715,93.7,red,237,TRUE
595,1660605388.546,3944,2785,3348,4.527,-1.288,0.519,93.6,blue,237,TRUE
596,1660605388.64,3588,-2828,882,1.222,1.259,-0.509,93.8,yellow,237,TRUE
597,1660605388.734,3833,2310,750,0.995,0.846,2.819,93.7,red,237,TRUE
598,1660605389.093,3843,2928,3348,4.346,-1.28,0.476,93.7,blue,237,TRUE
599,1660605389.249,3602,-2817,882,1.222,1.262,-0.514,93.8,yellow,237,TRUE
600,1660605389.359,3729,2424,750,0.79,0.728,2.813,93.4,red,237,TRUE
601,1660605389.718,3724,3074,3348,4.176,-1.178,0.368,94.1,blue,237,TRUE
602,1660605389.812,3618,-2801,882,1.222,1.262,-0.514,78.0,yellow,237,TRUE
603,1660605389.89,3583,2560,750,1.506,0.717,2.79,93.7,red,237,TRUE
604,1660605390.233,3604,3221,3348,3.618,-1.227,0.559,93.8,blue,237,TRUE
605,1660605390.343,3576,-2800,882,1.221,1.257,-0.505,78.0,yellow,237,TRUE
606,1660605390.436,3479,2673,750,0.74,0.723,2.789,95.5,red,237,TRUE
607,1660605390.813,3488,3345,3348,3.528,-1.257,0.53,93.6,blue,237,TRUE
608,1660605390.969,3417,-2876,882,1.22,1.248,-0.492,94.1,yellow,237,TRUE
609,1660605391.063,3370,2795,750,0.719,0.731,2.787,93.7,red,237,TRUE
610,1660605392.501,3351,3492,3348,3.639,-1.27,0.548,94.1,blue,237,TRUE
611,1660605392.642,3159,-2828,2526,4.545,-0.493,-0.058,78.1,green,237,TRUE
612,1660605392.72,3506,-2842,882,1.224,1.254,-0.499,93.5,yellow,237,TRUE
613,1660605392.814,3227,2939,750,1.428,0.863,2.858,94.0,red,237,TRUE
614,1660605393.173,3260,3630,3348,3.855,-1.259,0.906,95.3,blue,237,TRUE
615,1660605393.269,3121,-2810,2526,4.542,-0.492,-0.058,93.7,green,237,TRUE
616,1660605393.362,3496,-2831,882,1.228,1.249,-0.514,93.8,yellow,237,TRUE
617,1660605393.472,3110,3108,750,1.199,0.855,2.781,94.0,red,237,TRUE
618,1660605394.862,3165,3845,3348,4.725,-1.296,0.641,94.1,blue,237,TRUE
619,1660605394.956,3121,-2810,2526,4.54,-0.491,-0.055,78.1,green,237,TRUE
620,1660605395.034,3491,-2842,882,1.278,1.22,-0.557,93.7,yellow,237,TRUE
621,1660605395.128,2975,3309,750,1.335,0.93,2.718,93.7,red,237,TRUE
622,1660605396.53,3083,4067,3348,4.321,-1.294,0.695,94.9,blue,237,TRUE
623,1660605396.625,3121,-2810,2526,4.561,-0.565,-0.057,78.1,green,237,TRUE
624,1660605396.703,3480,-2846,882,1.258,1.232,-0.535,78.1,yellow,237,TRUE
625,1660605396.781,2900,3483,750,1.174,0.894,2.73,94.1,red,237,TRUE
626,1660605399.378,3494,-2854,882,1.261,1.234,-0.542,78.1,yellow,237,TRUE
627,1660605399.456,2922,3536,750,4.054,0.816,2.769,93.8,red,237,TRUE
628,1660605399.784,3098,4107,3348,1.501,-1.271,0.509,93.8,blue,237,TRUE
629,1660605401.021,3487,-2843,882,1.259,1.227,-0.535,93.8,yellow,237,TRUE
630,1660605401.115,3015,3502,750,3.739,0.79,2.811,93.6,red,237,TRUE
631,1660605401.522,3242,4043,3348,1.576,-1.259,0.407,94.1,blue,237,TRUE
632,1660605402.758,3469,-2839,882,1.259,1.225,-0.528,78.1,yellow,237,TRUE
633,1660605402.836,3180,3465,750,4.564,0.711,2.794,93.8,red,237,TRUE
634,1660605403.226,3431,3936,3348,2.287,-1.311,0.704,93.8,blue,237,TRUE
635,1660605403.383,3451,-2832,882,1.257,1.223,-0.521,78.1,yellow,237,TRUE
636,1660605403.461,3328,3387,750,4.478,0.641,2.704,93.8,red,237,TRUE
637,1660605403.82,3626,3800,3348,2.287,-1.31,0.583,94.0,blue,237,TRUE
638,1660605403.914,3435,-2829,882,1.252,1.22,-0.508,93.7,yellow,237,TRUE
639,1660605404.007,3468,3340,750,2.991,0.756,2.712,94.8,red,237,TRUE
640,1660605404.353,3819,3719,3348,2.305,-1.321,0.736,78.0,blue,237,TRUE
641,1660605404.462,3408,-2836,882,1.259,1.191,-0.505,93.7,yellow,237,TRUE
642,1660605404.571,3605,3276,750,3.157,0.867,2.661,93.7,red,237,TRUE
643,1660605404.962,4018,3593,3348,2.302,-1.316,0.76,93.5,blue,237,TRUE
644,1660605405.118,3389,-2842,882,1.252,1.194,-0.499,93.4,yellow,237,TRUE
645,1660605405.211,3721,3227,750,3.182,0.834,2.689,94.0,red,237,TRUE
646,1660605405.588,4225,3458,3348,2.305,-1.312,0.748,93.7,blue,237,TRUE
647,1660605405.682,3367,-2835,882,1.252,1.204,-0.512,78.1,yellow,237,TRUE
648,1660605405.76,3848,3174,750,3.11,0.834,2.647,93.7,red,237,TRUE
649,1660605406.151,4418,3348,3348,2.299,-1.312,0.759,93.4,blue,237,TRUE
650,1660605406.244,3347,-2839,882,1.253,1.199,-0.502,93.8,yellow,237,TRUE
651,1660605406.338,4002,3112,750,3.266,0.873,2.724,93.8,red,237,TRUE
652,1660605407.822,3080,-2792,2526,4.478,-0.568,-0.076,109.3,green,237,TRUE
653,1660605409.026,4116,3016,750,4.967,0.805,2.834,93.5,red,237,TRUE
654,1660605409.433,4781,3093,3348,2.443,-1.268,0.44,93.7,blue,237,TRUE
655,1660605409.526,3069,-2787,2526,4.478,-0.577,-0.082,93.8,green,237,TRUE
656,1660605410.684,4178,2890,750,4.921,0.817,2.729,93.6,red,237,TRUE
657,1660605411.091,4988,2860,3348,2.066,-1.347,0.832,93.8,blue,237,TRUE
658,1660605412.247,3362,-2829,882,1.253,1.212,-0.504,93.7,yellow,237,TRUE
659,1660605412.341,4357,2776,750,3.119,0.861,2.69,93.8,red,237,TRUE
660,1660605412.716,5177,2635,3348,2.056,-1.293,0.771,93.7,blue,237,TRUE
661,1660605412.81,3052,-2785,2526,4.471,-0.542,-0.079,109.3,green,237,TRUE
662,1660605412.919,3350,-2817,882,1.254,1.208,-0.505,93.8,yellow,237,TRUE
663,1660605413.013,4460,2775,750,3.001,0.849,2.687,93.6,red,237,TRUE
664,1660605413.372,5309,2556,3348,2.071,-1.284,0.753,93.7,blue,237,TRUE
665,1660605413.466,3017,-2762,2526,4.463,-0.533,-0.079,93.6,green,237,TRUE
666,1660605413.575,3336,-2804,882,1.254,1.208,-0.504,93.8,yellow,237,TRUE
667,1660605413.669,4484,2792,750,2.929,0.732,2.676,93.7,red,237,TRUE
668,1660605414.044,5353,2515,3348,2.076,-1.275,0.719,93.7,blue,237,TRUE
669,1660605415.217,3389,-2816,882,1.254,1.213,-0.512,93.7,yellow,237,TRUE
670,1660605415.311,4411,2855,750,1.462,0.868,2.759,95.5,red,237,TRUE
671,1660605415.703,5329,2456,3348,2.128,-1.289,0.891,93.7,blue,237,TRUE
672,1660605415.797,2997,-2735,2526,4.452,-0.532,-0.08,109.3,green,237,TRUE
673,1660605415.906,3405,-2833,882,1.256,1.212,-0.514,93.7,yellow,237,TRUE
674,1660605416.0,4319,2964,750,1.185,0.848,2.712,93.8,red,237,TRUE
675,1660605416.359,5304,2431,3348,2.092,-1.29,0.853,93.7,blue,237,TRUE
676,1660605417.578,3459,-2860,882,1.256,1.221,-0.523,78.1,yellow,237,TRUE
677,1660605417.656,4214,3206,750,1.746,0.886,2.677,93.7,red,237,TRUE
678,1660605418.031,5299,2352,3348,2.088,-1.302,0.921,93.7,blue,237,TRUE
679,1660605418.124,2968,-2729,2526,4.449,-0.538,-0.076,93.7,green,237,TRUE
680,1660605418.218,3483,-2873,882,1.256,1.224,-0.526,93.8,yellow,237,TRUE
681,1660605418.312,4126,3440,750,2.272,0.897,2.776,93.7,red,237,TRUE
682,1660605418.702,5302,2318,3348,2.093,-1.296,0.905,94.0,blue,237,TRUE
683,1660605418.796,2978,-2725,2526,4.449,-0.547,-0.076,93.7,green,237,TRUE
684,1660605418.89,3502,-2886,882,1.256,1.22,-0.519,93.8,yellow,237,TRUE
685,1660605418.983,4070,3757,750,2.234,0.903,2.741,93.7,red,237,TRUE
686,1660605419.343,5296,2268,3348,2.11,-1.287,0.866,93.7,blue,237,TRUE
687,1660605419.546,3560,-2889,882,1.257,1.201,-0.502,78.2,yellow,237,TRUE
688,1660605419.624,4031,4059,750,2.818,0.827,2.761,93.7,red,237,TRUE
689,1660605419.968,5312,2218,3348,2.068,-1.297,0.956,93.7,blue,237,TRUE
690,1660605420.061,2950,-2698,2526,4.449,-0.548,-0.077,93.7,green,237,TRUE
691,1660605420.155,3572,-2879,882,1.257,1.198,-0.499,93.8,yellow,237,TRUE
692,1660605420.249,3962,4348,750,3.196,0.827,2.838,93.7,red,237,TRUE
693,1660605420.625,5407,2182,3348,2.029,-1.307,1.053,93.9,blue,237,TRUE
694,1660605420.719,3001,-2719,2526,4.448,-0.549,-0.076,78.1,green,237,TRUE
695,1660605420.797,3547,-2884,882,1.259,1.202,-0.505,93.8,yellow,237,TRUE
696,1660605420.891,3909,4655,750,3.293,0.842,2.886,93.7,red,237,TRUE
697,1660605421.313,5407,2160,3348,2.066,-1.307,1.046,93.7,blue,237,TRUE
698,1660605421.406,3017,-2732,2526,4.447,-0.551,-0.076,109.4,green,237,TRUE
699,1660605421.516,3563,-2896,882,1.259,1.201,-0.503,78.1,yellow,237,TRUE
700,1660605421.61,3904,4951,750,3.228,0.845,2.877,93.7,red,237,TRUE
701,1660605421.984,5406,2149,3348,2.032,-1.298,1.033,93.7,blue,237,TRUE
702,1660605423.218,3582,-2909,882,1.257,1.179,-0.478,93.8,yellow,237,TRUE
703,1660605423.312,3791,5243,750,3.277,0.841,2.879,93.8,red,237,TRUE
704,1660605423.702,5411,2127,3348,2.032,-1.305,1.023,94.1,blue,237,TRUE
705,1660605424.937,3604,-2915,882,1.253,1.192,-0.478,93.7,yellow,237,TRUE
706,1660605425.031,3671,5539,750,3.299,0.831,2.896,93.4,red,237,TRUE
707,1660605425.436,5389,2125,3348,2.542,-1.282,0.851,93.8,blue,237,TRUE
708,1660605426.68,3666,-2955,882,1.242,1.21,-0.467,78.0,yellow,237,TRUE
709,1660605426.758,3592,5851,750,3.224,0.786,2.877,93.8,red,237,TRUE
710,1660605427.306,3608,-2933,882,1.249,1.2,-0.479,78.1,yellow,237,TRUE
711,1660605427.385,3564,6104,750,3.203,0.778,2.85,93.7,red,237,TRUE
712,1660605427.775,5284,2247,3348,4.477,-1.282,0.723,93.8,blue,237,TRUE
713,1660605427.869,3567,-2920,882,1.25,1.197,-0.478,93.7,yellow,237,TRUE
714,1660605427.962,3570,6322,750,3.179,0.778,2.841,93.7,red,237,TRUE
715,1660605428.322,5187,2425,3348,4.484,-1.246,0.397,93.4,blue,237,TRUE
716,1660605428.415,3520,-2879,882,1.249,1.189,-0.47,94.0,yellow,237,TRUE
717,1660605428.509,3600,6368,750,3.228,0.78,2.846,93.7,red,237,TRUE
718,1660605428.886,5057,2590,3348,4.713,-1.284,0.507,93.7,blue,237,TRUE
719,1660605429.042,3516,-2871,882,1.242,1.187,-0.456,93.7,yellow,237,TRUE
720,1660605429.136,3627,6431,750,3.528,0.821,2.895,93.7,red,237,TRUE
721,1660605429.495,4883,2796,3348,4.766,-1.245,0.296,93.8,blue,237,TRUE
722,1660605429.604,3534,-2864,882,1.238,1.189,-0.461,93.7,yellow,237,TRUE
723,1660605429.713,3636,6405,750,3.42,0.815,2.841,93.8,red,237,TRUE
724,1660605431.216,3480,-2844,882,1.238,1.194,-0.456,78.0,yellow,237,TRUE
725,1660605431.294,3608,6424,750,3.215,0.805,2.79,95.3,red,237,TRUE
726,1660605431.718,4463,3526,3348,5.341,-1.228,0.244,78.1,blue,237,TRUE
727,1660605431.796,3520,-2838,882,1.24,1.196,-0.479,93.7,yellow,237,TRUE
728,1660605431.89,3617,6449,750,3.224,0.798,2.927,93.8,red,237,TRUE
729,1660605432.233,4249,4036,3348,5.332,-1.259,0.434,93.8,blue,237,TRUE
730,1660605432.327,3450,-2844,882,1.217,1.23,-0.494,78.0,yellow,237,TRUE
731,1660605432.405,3628,6482,750,2.659,0.769,2.796,93.7,red,237,TRUE
732,1660605432.796,4032,4548,3348,4.794,-1.256,0.524,93.6,blue,237,TRUE
733,1660605432.952,3425,-2830,882,1.218,1.238,-0.517,93.8,yellow,237,TRUE
734,1660605433.046,3619,6501,750,2.225,0.781,2.59,93.7,red,237,TRUE
735,1660605434.405,3731,5062,3348,3.763,-1.206,0.434,93.7,blue,237,TRUE
736,1660605434.561,3378,-2829,882,1.197,1.202,-0.4,78.1,yellow,237,TRUE
737,1660605434.655,3631,6552,750,2.041,0.776,2.526,93.6,red,237,TRUE
738,1660605435.123,3368,-2830,882,1.204,1.21,-0.444,93.7,yellow,237,TRUE
739,1660605435.232,3632,6569,750,2.001,0.818,2.535,93.8,red,237,TRUE
740,1660605435.578,2906,5837,3348,3.063,-1.251,0.592,93.8,blue,237,TRUE
741,1660605435.703,3315,-2803,882,1.208,1.218,-0.488,78.1,yellow,237,TRUE
742,1660605435.796,3614,6592,750,1.857,0.808,2.685,93.8,red,237,TRUE
743,1660605436.156,2558,6291,3348,2.546,-1.343,0.937,93.7,blue,237,TRUE
744,1660605437.39,3551,6660,750,0.346,0.663,2.654,93.7,red,237,TRUE
745,1660605437.796,2296,6625,3348,2.783,-1.282,1.601,93.7,blue,237,TRUE
746,1660605439.046,3443,6658,750,5.943,0.806,2.742,93.8,red,237,TRUE
747,1660605439.421,2051,6950,3348,2.477,-1.346,1.017,93.7,blue,237,TRUE
748,1660605440.672,3362,6683,750,2.077,0.658,2.692,93.7,red,237,TRUE
749,1660605441.033,1837,7247,3348,2.515,-1.31,0.988,93.8,blue,237,TRUE
750,1660605441.267,3279,6701,750,0.886,0.658,2.618,93.8,red,237,TRUE
751,1660605441.611,1661,7512,3348,2.491,-1.318,1.035,93.8,blue,237,TRUE
752,1660605441.751,3180,6732,750,0.869,0.666,2.604,93.5,red,237,TRUE
753,1660605442.095,1557,7727,3348,2.494,-1.318,1.028,93.8,blue,237,TRUE
754,1660605442.22,3098,6731,750,0.873,0.686,2.59,95.4,red,237,TRUE
755,1660605442.628,1395,7728,3348,2.495,-1.316,1.016,93.7,blue,237,TRUE
756,1660605443.957,3051,6820,750,1.608,0.383,2.901,93.7,red,237,TRUE
757,1660605444.363,1257,7699,3348,2.494,-1.31,0.988,93.7,blue,237,TRUE
758,1660605445.6,2967,6885,750,1.301,0.235,2.847,93.8,red,237,TRUE
759,1660605448.179,2891,6962,750,1.188,0.241,2.842,93.8,red,237,TRUE
760,1660605449.681,3017,-2722,2526,4.449,-0.599,-0.083,93.7,green,237,TRUE
761,1660605449.806,3296,-2793,882,1.193,1.22,-0.475,93.8,yellow,237,TRUE
762,1660605449.9,2805,7007,750,1.197,0.254,2.836,93.7,red,237,TRUE
763,1660605450.29,1206,7885,3348,2.667,-1.304,1.076,93.8,blue,237,TRUE
764,1660605450.384,3028,-2734,2526,4.453,-0.58,-0.076,79.6,green,237,TRUE
765,1660605450.463,3336,-2795,882,1.191,1.211,-0.454,93.7,yellow,237,TRUE
766,1660605450.557,2721,7092,750,1.197,0.253,2.837,93.7,red,237,TRUE
767,1660605451.916,1202,7886,3348,2.709,-1.318,1.253,93.7,blue,237,TRUE
768,1660605452.01,3038,-2731,2526,4.454,-0.59,-0.075,93.7,green,237,TRUE
769,1660605452.103,3354,-2802,882,1.2,1.204,-0.444,93.4,yellow,237,TRUE
770,1660605452.197,2642,7177,750,1.196,0.26,2.836,93.9,red,237,TRUE
771,1660605452.557,1204,7866,3348,2.743,-1.306,1.31,93.7,blue,237,TRUE
772,1660605453.728,3368,-2831,882,1.193,1.213,-0.459,93.8,yellow,237,TRUE
773,1660605453.822,2621,7216,750,1.198,0.26,2.835,93.7,red,237,TRUE
774,1660605454.212,1205,7856,3348,2.62,-1.263,0.824,93.8,blue,237,TRUE
775,1660605454.306,3021,-2715,2526,4.442,-0.6,-0.097,93.7,green,237,TRUE
776,1660605455.484,2651,7284,750,1.163,0.464,2.872,93.8,red,237,TRUE
777,1660605455.89,1211,7843,3348,2.614,-1.269,0.846,95.1,blue,237,TRUE
778,1660605455.985,3020,-2716,2526,4.439,-0.554,-0.089,78.2,green,237,TRUE
779,1660605457.141,2628,7251,750,5.796,0.91,2.79,93.7,red,237,TRUE
780,1660605457.503,1213,7836,3348,2.644,-1.244,0.781,94.1,blue,237,TRUE
781,1660605457.597,3032,-2728,2526,4.441,-0.559,-0.085,78.1,green,237,TRUE
782,1660605457.675,3344,-2821,882,1.198,1.223,-0.471,93.7,yellow,237,TRUE
783,1660605457.768,2658,7177,750,4.889,0.905,2.81,93.4,red,237,TRUE
784,1660605458.143,1204,7836,3348,2.746,-1.269,0.929,93.8,blue,237,TRUE
785,1660605458.237,3045,-2731,2526,4.442,-0.562,-0.086,93.7,green,237,TRUE
786,1660605458.331,3373,-2822,882,1.199,1.226,-0.482,95.4,yellow,237,TRUE
787,1660605458.441,2709,7036,750,4.775,0.781,2.842,94.1,red,237,TRUE
788,1660605458.801,1204,7855,3348,2.643,-1.299,0.916,93.7,blue,237,TRUE
789,1660605458.91,3047,-2739,2526,4.442,-0.563,-0.088,93.8,green,237,TRUE
790,1660605459.004,3351,-2825,882,1.196,1.229,-0.479,93.6,yellow,237,TRUE
791,1660605459.098,2830,6841,750,4.856,0.758,2.954,93.7,red,237,TRUE
792,1660605459.473,1207,7856,3348,2.378,-1.329,0.813,93.7,blue,237,TRUE
793,1660605459.566,3053,-2747,2526,4.443,-0.565,-0.089,93.8,green,237,TRUE
794,1660605459.66,3466,-2804,882,1.196,1.222,-0.464,93.7,yellow,237,TRUE
795,1660605459.754,2938,6486,750,4.431,0.89,2.718,93.7,red,237,TRUE
796,1660605460.13,1207,7861,3348,2.093,-1.403,0.965,93.7,blue,237,TRUE
797,1660605461.351,3502,-2797,882,1.217,1.21,-0.499,94.0,yellow,237,TRUE
798,1660605461.445,3165,6063,750,5.558,0.648,3.043,93.8,red,237,TRUE
799,1660605461.851,1286,7847,3348,0.901,-1.28,0.372,93.7,blue,237,TRUE
800,1660605464.21,3402,5645,750,5.505,0.692,2.757,93.8,red,237,TRUE
801,1660605465.68,1348,7815,3348,3.689,-1.217,0.661,94.0,blue,237,TRUE
802,1660605466.93,3481,-2811,882,1.238,1.196,-0.543,78.1,yellow,237,TRUE
803,1660605467.008,3624,5198,750,0.144,0.645,2.818,93.8,red,237,TRUE
804,1660605468.431,1340,7834,3348,3.356,-1.187,0.798,109.3,blue,237,TRUE
805,1660605469.667,3852,4746,750,0.394,0.644,2.813,93.7,red,237,TRUE
806,1660605470.057,1340,7830,3348,2.557,-1.295,1.655,93.4,blue,237,TRUE
807,1660605470.197,3027,-2744,2526,4.454,-0.659,-0.098,78.4,green,237,TRUE
808,1660605470.276,3504,-2807,882,1.241,1.198,-0.552,93.7,yellow,237,TRUE
809,1660605470.37,4079,4278,750,0.413,0.644,2.813,95.3,red,237,TRUE
810,1660605470.746,1340,7823,3348,2.546,-1.31,1.516,93.7,blue,237,TRUE
811,1660605470.84,3015,-2749,2526,4.454,-0.66,-0.098,95.5,green,237,TRUE
812,1660605470.951,3519,-2802,882,1.213,1.228,-0.526,93.7,yellow,237,TRUE
813,1660605471.044,4306,3827,750,0.422,0.641,2.814,93.5,red,237,TRUE
814,1660605472.421,1342,7812,3348,2.418,-1.314,1.178,93.6,blue,237,TRUE
815,1660605473.562,3468,-2827,882,1.264,1.208,-0.62,79.7,yellow,237,TRUE
816,1660605473.642,4500,3420,750,0.155,0.792,2.983,93.7,red,237,TRUE
817,1660605474.033,1344,7799,3348,1.674,-1.426,0.77,93.8,blue,237,TRUE
818,1660605475.174,3459,-2830,882,1.261,1.197,-0.596,93.6,yellow,237,TRUE
819,1660605475.268,4684,3100,750,0.163,0.491,2.604,93.7,red,237,TRUE
820,1660605475.676,1443,7847,3348,0.684,-1.312,0.38,93.7,blue,237,TRUE
821,1660605475.77,2966,-2769,2526,4.417,-0.493,-0.038,93.7,green,237,TRUE
822,1660605475.863,3427,-2829,882,1.245,1.189,-0.543,93.7,yellow,237,TRUE
823,1660605475.957,4805,2835,750,4.768,0.597,2.579,93.7,red,237,TRUE
824,1660605476.316,1573,7834,3348,1.062,-1.274,0.333,95.3,blue,237,TRUE
825,1660605476.412,2917,-2776,2526,4.414,-0.489,-0.04,93.8,green,237,TRUE
826,1660605476.521,3338,-2800,882,1.229,1.189,-0.485,78.0,yellow,237,TRUE
827,1660605476.599,4965,2656,750,4.513,0.828,2.695,93.8,red,237,TRUE
828,1660605476.974,1717,7782,3348,1.941,-1.417,0.211,93.7,blue,237,TRUE
829,1660605477.068,2924,-2783,2526,4.41,-0.489,-0.044,93.7,green,237,TRUE
830,1660605477.161,3339,-2814,882,1.246,1.187,-0.556,78.1,yellow,237,TRUE
831,1660605477.24,5067,2497,750,4.669,0.769,2.89,93.7,red,237,TRUE
832,1660605477.614,1848,7697,3348,2.774,-1.353,0.453,94.9,blue,237,TRUE
833,1660605478.834,3335,-2832,882,1.252,1.202,-0.648,93.8,yellow,237,TRUE
834,1660605478.928,5040,2491,750,0.753,0.8,2.618,93.7,red,237,TRUE
835,1660605479.397,2947,-2792,2526,4.428,-0.531,-0.073,93.7,green,237,TRUE
836,1660605479.506,3330,-2835,882,1.253,1.194,-0.642,93.8,yellow,237,TRUE
837,1660605479.6,4857,2609,750,1.06,0.868,2.725,93.8,red,237,TRUE
838,1660605479.99,1842,7627,3348,4.617,-1.281,0.604,93.5,blue,237,TRUE
839,1660605480.084,2955,-2794,2526,4.429,-0.537,-0.074,93.8,green,237,TRUE
840,1660605480.178,3360,-2894,882,1.248,1.179,-0.602,78.1,yellow,237,TRUE
