,timestamp,x,y,z,yaw,roll,pitch,latency,student,session,success
0,1660615650.525,2392,1345,3348,5.247,-1.42,1.124,93.7,blue,239,TRUE
1,1660615650.618,2701,-1971,2526,5.09,-1.409,-1.023,93.7,green,239,TRUE
2,1660615651.854,1413,406,750,6.001,-1.218,0.744,93.8,red,239,TRUE
3,1660615652.246,2588,1712,3348,5.236,-1.424,1.069,93.7,blue,239,TRUE
4,1660615654.574,1574,733,750,5.98,-1.214,0.695,93.7,red,239,TRUE
5,1660615654.966,2723,2066,3348,5.217,-1.425,1.095,93.7,blue,239,TRUE
6,1660615655.059,2520,-1947,2526,5.249,-1.407,-0.598,93.8,green,239,TRUE
7,1660615656.278,1740,1054,750,5.95,-1.228,0.693,95.2,red,239,TRUE
8,1660615656.686,2806,2306,3348,5.232,-1.422,1.072,93.6,blue,239,TRUE
9,1660615656.779,2433,-1932,2526,5.321,-1.404,-0.611,93.7,green,239,TRUE
10,1660615656.936,1846,1383,750,5.959,-1.223,0.699,93.7,red,239,TRUE
11,1660615657.296,2872,2524,3348,5.232,-1.424,1.077,93.7,blue,239,TRUE
12,1660615657.39,2305,-1894,2526,5.334,-1.413,-0.605,93.7,green,239,TRUE
13,1660615657.484,1957,1700,750,5.968,-1.22,0.712,93.7,red,239,TRUE
14,1660615657.86,2902,2703,3348,5.227,-1.422,1.078,93.8,blue,239,TRUE
15,1660615657.954,2172,-1850,2526,5.288,-1.397,-0.597,93.8,green,239,TRUE
16,1660615658.048,2055,1975,750,5.969,-1.22,0.716,93.6,red,239,TRUE
17,1660615659.455,2909,2836,3348,5.38,-1.308,0.836,93.5,blue,239,TRUE
18,1660615659.549,2117,-1844,2526,5.418,-1.469,-0.076,78.1,green,239,TRUE
19,1660615659.69,2095,2134,750,5.967,-1.215,0.648,93.7,red,239,TRUE
20,1660615662.131,2167,-1899,2526,5.549,-1.439,-0.49,79.7,green,239,TRUE
21,1660615662.227,3652,-2132,882,1.105,1.416,-2.378,78.1,yellow,239,TRUE
22,1660615662.305,2072,2177,750,5.976,-1.218,0.62,93.7,red,239,TRUE
23,1660615663.712,2870,3036,3348,4.908,-1.414,0.749,93.7,blue,239,TRUE
24,1660615663.806,2243,-1905,2526,5.538,-1.407,-0.491,93.7,green,239,TRUE
25,1660615664.009,2085,2206,750,6.061,-1.199,1.076,93.7,red,239,TRUE
26,1660615665.385,2842,3097,3348,4.914,-1.414,0.77,94.1,blue,239,TRUE
27,1660615665.479,2333,-1929,2526,5.077,-1.366,-0.961,78.0,green,239,TRUE
28,1660615665.572,3516,-2133,882,1.079,1.441,-2.427,78.3,yellow,239,TRUE
29,1660615666.059,2839,3141,3348,4.913,-1.416,0.753,93.7,blue,239,TRUE
30,1660615666.152,2319,-1944,2526,5.241,-1.427,-1.002,93.8,green,239,TRUE
31,1660615666.246,3516,-2133,882,1.237,1.395,-2.378,78.1,yellow,239,TRUE
32,1660615666.34,2064,2218,750,6.185,-1.222,1.149,93.7,red,239,TRUE
33,1660615667.778,2826,3179,3348,4.897,-1.422,0.782,109.3,blue,239,TRUE
34,1660615667.998,3516,-2133,882,1.148,1.498,-3.105,78.1,yellow,239,TRUE
35,1660615668.077,2023,2164,750,6.19,-1.19,0.894,93.7,red,239,TRUE
36,1660615670.546,2410,-2051,2526,5.231,-1.378,-1.033,93.7,green,239,TRUE
37,1660615671.704,2016,2151,750,5.993,-1.204,0.693,93.8,red,239,TRUE
38,1660615674.333,2425,-2055,2526,5.034,-1.39,-0.728,78.1,green,239,TRUE
39,1660615674.426,3369,-2135,882,1.032,1.443,-3.061,78.4,yellow,239,TRUE
40,1660615675.879,2794,3169,3348,4.995,-1.38,0.839,93.8,blue,239,TRUE
41,1660615675.973,2425,-2056,2526,5.216,-1.419,-0.773,78.2,green,239,TRUE
42,1660615677.178,1997,2192,750,5.984,-1.204,0.656,95.4,red,239,TRUE
43,1660615678.571,2769,3178,3348,4.694,-1.433,0.661,93.7,blue,239,TRUE
44,1660615678.665,2469,-2079,2526,5.187,-1.413,-0.737,77.8,green,239,TRUE
45,1660615679.868,2009,2191,750,5.86,-1.217,0.853,93.6,red,239,TRUE
46,1660615681.322,2469,-2090,2526,5.028,-1.433,-0.746,78.1,green,239,TRUE
47,1660615682.479,2095,2287,750,0.005,-1.164,0.944,93.8,red,239,TRUE
48,1660615682.87,2755,3393,3348,6.004,-1.31,0.555,93.7,blue,239,TRUE
49,1660615682.964,2502,-2122,2526,5.06,-1.419,-0.686,78.1,green,239,TRUE
50,1660615684.215,2138,2514,750,5.559,-1.302,0.973,93.8,red,239,TRUE
51,1660615685.591,2756,3730,3348,5.14,-1.408,0.842,93.7,blue,239,TRUE
52,1660615685.685,2484,-2120,2526,5.126,-1.39,-0.43,94.9,green,239,TRUE
53,1660615685.78,3232,-2143,882,1.598,1.502,-3.073,93.7,yellow,239,TRUE
54,1660615687.361,2468,-2101,2526,5.111,-1.441,-0.64,93.7,green,239,TRUE
55,1660615687.47,3118,-2145,882,1.628,1.493,-3.065,78.2,yellow,239,TRUE
56,1660615687.564,2133,3184,750,5.841,-1.213,0.673,95.3,red,239,TRUE
57,1660615687.877,2795,4114,3348,5.069,-1.392,0.945,94.0,blue,239,TRUE
58,1660615687.987,2464,-2107,2526,5.129,-1.445,-0.41,78.1,green,239,TRUE
59,1660615688.081,3011,-2134,882,1.642,1.5,-3.079,78.1,yellow,239,TRUE
60,1660615688.159,2134,3535,750,5.856,-1.213,0.709,93.7,red,239,TRUE
61,1660615689.598,2798,4450,3348,5.07,-1.385,0.915,93.6,blue,239,TRUE
62,1660615689.691,2464,-2107,2526,5.149,-1.388,-0.016,78.1,green,239,TRUE
63,1660615689.769,2901,-2132,882,1.612,1.485,-3.082,78.2,yellow,239,TRUE
64,1660615689.848,2169,3889,750,5.874,-1.189,0.685,93.7,red,239,TRUE
65,1660615692.228,2800,4751,3348,5.077,-1.391,0.989,93.7,blue,239,TRUE
66,1660615692.322,2464,-2107,2526,5.046,-1.403,-0.171,77.8,green,239,TRUE
67,1660615692.4,2785,-2141,882,1.35,1.503,-3.119,78.1,yellow,239,TRUE
68,1660615692.478,2188,4224,750,5.872,-1.182,0.711,93.7,red,239,TRUE
69,1660615693.901,2801,5077,3348,5.081,-1.389,0.973,93.7,blue,239,TRUE
70,1660615695.151,2592,-2141,882,1.473,1.454,-3.083,78.4,yellow,239,TRUE
71,1660615695.229,2217,4605,750,5.824,-1.212,0.6,93.7,red,239,TRUE
72,1660615697.808,2464,-2107,2526,5.12,-1.335,0.058,78.2,green,239,TRUE
73,1660615697.996,2224,4951,750,5.834,-1.194,0.633,93.7,red,239,TRUE
74,1660615699.497,2464,-2107,2526,5.079,-1.312,-0.021,78.1,green,239,TRUE
75,1660615700.654,2223,5221,750,5.862,-1.186,0.64,93.8,red,239,TRUE
76,1660615702.046,2758,5951,3348,4.842,-1.424,1.094,93.5,blue,239,TRUE
77,1660615702.139,2451,-2073,2526,4.743,-1.46,-0.089,95.6,green,239,TRUE
78,1660615703.736,2726,6298,3348,4.856,-1.421,1.104,93.7,blue,239,TRUE
79,1660615703.83,2492,-2081,2526,5.14,-1.457,-0.041,93.7,green,239,TRUE
80,1660615703.939,2425,-2080,882,1.549,1.506,-0.05,95.3,yellow,239,TRUE
81,1660615704.034,2241,5953,750,5.897,-1.168,0.648,93.7,red,239,TRUE
82,1660615705.394,2704,6589,3348,4.901,-1.421,1.078,94.0,blue,239,TRUE
83,1660615706.552,2425,-2080,882,1.088,1.439,-1.181,93.7,yellow,239,TRUE
84,1660615706.646,2153,6203,750,5.904,-1.164,0.628,95.3,red,239,TRUE
85,1660615707.022,2712,6878,3348,5.079,-1.389,0.914,93.7,blue,239,TRUE
86,1660615707.132,2492,-2081,2526,4.242,-1.391,-1.632,78.2,green,239,TRUE
87,1660615708.306,2118,6319,750,5.887,-1.18,0.676,93.8,red,239,TRUE
88,1660615708.681,2709,7030,3348,5.084,-1.39,0.999,93.8,blue,239,TRUE
89,1660615708.775,2269,-2012,2526,3.895,-1.355,-0.303,78.1,green,239,TRUE
90,1660615714.683,2247,6401,750,1.782,-1.226,0.457,93.7,red,239,TRUE
91,1660615716.137,2768,6898,3348,1.772,-1.42,0.766,93.8,blue,239,TRUE
92,1660615716.231,2269,-2012,2526,4.047,-1.34,-0.756,79.9,green,239,TRUE
93,1660615716.373,2357,6364,750,0.964,-1.203,0.636,93.7,red,239,TRUE
94,1660615716.764,2832,6790,3348,1.784,-1.404,0.914,93.6,blue,239,TRUE
95,1660615716.857,2269,-2012,2526,4.048,-1.341,-0.762,78.1,green,239,TRUE
96,1660615718.376,2906,6718,3348,1.734,-1.407,1.014,93.7,blue,239,TRUE
97,1660615720.642,2580,6296,750,0.952,-1.163,0.668,93.7,red,239,TRUE
98,1660615722.065,2976,6648,3348,1.725,-1.406,1.009,93.7,blue,239,TRUE
99,1660615722.159,2328,-2010,2526,0.127,-1.401,-0.016,95.3,green,239,TRUE
100,1660615722.395,2695,6263,750,0.897,-1.177,0.644,93.7,red,239,TRUE
101,1660615722.77,3112,6736,3348,1.732,-1.406,1.036,78.2,blue,239,TRUE
102,1660615722.848,2353,-1993,2526,0.115,-1.386,0.583,93.6,green,239,TRUE
103,1660615722.942,2456,-2061,882,1.156,1.437,-1.304,78.1,yellow,239,TRUE
104,1660615724.444,3150,6570,3348,1.732,-1.406,1.035,94.0,blue,239,TRUE
105,1660615724.663,2456,-2061,882,0.916,1.465,-3.037,78.4,yellow,239,TRUE
106,1660615724.741,2912,6244,750,0.851,-1.19,0.615,93.7,red,239,TRUE
107,1660615726.1,3226,6543,3348,1.76,-1.396,1.021,93.7,blue,239,TRUE
108,1660615726.194,2428,-1958,2526,5.656,-1.277,-0.386,93.6,green,239,TRUE
109,1660615727.383,3021,6193,750,0.848,-1.191,0.589,93.7,red,239,TRUE
110,1660615728.773,3310,6458,3348,1.746,-1.41,0.977,94.0,blue,239,TRUE
111,1660615728.867,2495,-1961,2526,5.673,-1.394,-0.062,78.1,green,239,TRUE
112,1660615730.101,3125,6133,750,0.877,-1.176,0.642,93.7,red,239,TRUE
113,1660615731.524,3413,6413,3348,1.734,-1.402,1.009,93.8,blue,239,TRUE
114,1660615731.618,2525,-1943,2526,5.684,-1.383,-0.131,93.7,green,239,TRUE
115,1660615732.869,3264,6112,750,0.873,-1.165,0.656,94.9,red,239,TRUE
116,1660615734.278,3473,6341,3348,1.696,-1.405,1.018,93.8,blue,239,TRUE
117,1660615734.372,2595,-1938,2526,5.683,-1.373,-0.165,78.2,green,239,TRUE
118,1660615734.512,3394,6094,750,0.881,-1.166,0.646,93.7,red,239,TRUE
119,1660615735.902,3533,6234,3348,1.691,-1.408,1.042,93.8,blue,239,TRUE
120,1660615735.996,2673,-1969,2526,5.728,-1.377,-0.135,93.7,green,239,TRUE
121,1660615736.168,3464,5925,750,0.861,-1.161,0.586,93.6,red,239,TRUE
122,1660615736.512,3585,6180,3348,1.693,-1.406,1.053,93.7,blue,239,TRUE
123,1660615736.605,2744,-1988,2526,5.703,-1.35,-0.103,93.8,green,239,TRUE
124,1660615736.715,3507,5939,750,0.857,-1.161,0.583,95.1,red,239,TRUE
125,1660615736.982,3587,6163,3348,1.694,-1.406,1.05,93.7,blue,239,TRUE
126,1660615737.075,2830,-2024,2526,5.707,-1.354,-0.128,93.7,green,239,TRUE
127,1660615737.184,3520,5932,750,0.856,-1.166,0.574,95.6,red,239,TRUE
128,1660615737.467,3594,6149,3348,1.69,-1.404,1.049,93.7,blue,239,TRUE
129,1660615737.561,2884,-2038,2526,5.631,-1.334,-0.002,93.5,green,239,TRUE
130,1660615738.813,3522,5921,750,0.856,-1.17,0.608,93.7,red,239,TRUE
131,1660615740.204,3597,6131,3348,1.701,-1.402,1.031,93.7,blue,239,TRUE
132,1660615740.298,3155,-2093,2526,5.435,-1.355,-0.418,95.4,green,239,TRUE
133,1660615740.393,2586,-2066,882,1.13,1.427,-1.417,78.1,yellow,239,TRUE
134,1660615740.472,3522,5911,750,0.873,-1.182,0.648,93.7,red,239,TRUE
135,1660615740.864,3602,6117,3348,1.694,-1.403,1.041,93.7,blue,239,TRUE
136,1660615740.957,3203,-2109,2526,5.544,-1.36,-0.513,93.7,green,239,TRUE
137,1660615741.051,2672,-2078,882,1.178,1.384,-1.23,93.7,yellow,239,TRUE
138,1660615741.145,3549,5944,750,0.873,-1.175,0.64,93.8,red,239,TRUE
139,1660615742.552,3603,6087,3348,1.704,-1.402,1.013,93.7,blue,239,TRUE
140,1660615742.646,3227,-2120,2526,5.391,-1.301,-0.783,93.7,green,239,TRUE
141,1660615743.911,3586,5931,750,0.87,-1.174,0.663,93.8,red,239,TRUE
142,1660615744.302,3612,6074,3348,1.696,-1.403,1.033,94.0,blue,239,TRUE
143,1660615744.411,3238,-2141,2526,5.324,-1.293,-0.939,78.2,green,239,TRUE
144,1660615744.489,2672,-2078,882,0.816,1.43,-0.832,78.0,yellow,239,TRUE
145,1660615744.567,3603,5951,750,0.864,-1.185,0.658,93.7,red,239,TRUE
146,1660615745.975,3623,6090,3348,1.696,-1.403,1.034,93.7,blue,239,TRUE
147,1660615746.069,3230,-2134,2526,5.306,-1.277,-0.485,93.7,green,239,TRUE
148,1660615746.178,2764,-2059,882,1.08,1.337,-1.138,79.6,yellow,239,TRUE
149,1660615746.257,3607,5970,750,0.857,-1.185,0.633,94.4,red,239,TRUE
150,1660615747.667,3632,6058,3348,1.726,-1.396,1.011,93.8,blue,239,TRUE
151,1660615747.761,3259,-2135,2526,5.438,-1.391,-0.561,109.3,green,239,TRUE
152,1660615749.012,3632,5986,750,0.864,-1.175,0.625,93.7,red,239,TRUE
153,1660615750.449,3626,6037,3348,1.991,-1.302,0.864,94.1,blue,239,TRUE
154,1660615752.764,3625,5928,750,1.979,-1.206,0.759,93.7,red,239,TRUE
155,1660615753.171,3554,5952,3348,3.198,-1.225,0.641,93.7,blue,239,TRUE
156,1660615754.327,2835,-2045,882,1.052,1.358,-0.986,78.1,yellow,239,TRUE
157,1660615754.405,3608,5810,750,2.685,-1.176,0.467,95.5,red,239,TRUE
158,1660615754.782,3514,5772,3348,2.559,-1.36,0.569,93.7,blue,239,TRUE
159,1660615754.876,3243,-2105,2526,5.346,-1.326,-0.697,93.7,green,239,TRUE
160,1660615754.97,2849,-2031,882,1.006,1.343,-1.041,78.1,yellow,239,TRUE
161,1660615755.048,3600,5688,750,2.57,-1.198,0.566,93.8,red,239,TRUE
162,1660615756.469,3503,5474,3348,2.347,-1.43,0.816,93.8,blue,239,TRUE
163,1660615756.563,3231,-2086,2526,5.356,-1.328,-0.712,93.8,green,239,TRUE
164,1660615756.657,3134,-1851,882,1.055,1.37,-1.016,78.0,yellow,239,TRUE
165,1660615756.735,3636,5465,750,2.398,-1.151,0.672,93.8,red,239,TRUE
166,1660615758.127,3496,5123,3348,2.163,-1.39,0.797,93.6,blue,239,TRUE
167,1660615758.22,3206,-2058,2526,5.305,-1.247,-0.935,93.4,green,239,TRUE
168,1660615758.314,3179,-1842,882,1.008,1.328,-0.977,78.4,yellow,239,TRUE
169,1660615758.392,3716,5217,750,2.049,-1.139,0.614,93.7,red,239,TRUE
170,1660615759.751,3487,4774,3348,2.064,-1.41,0.986,93.4,blue,239,TRUE
171,1660615759.845,3190,-2030,2526,5.348,-1.274,-0.857,94.0,green,239,TRUE
172,1660615759.939,3198,-1804,882,1.023,1.309,-0.963,78.1,yellow,239,TRUE
173,1660615760.017,3795,4949,750,1.97,-1.165,0.591,93.4,red,239,TRUE
174,1660615760.423,3488,4444,3348,2.04,-1.408,0.981,78.0,blue,239,TRUE
175,1660615760.501,3094,-1942,2526,5.339,-1.277,-0.833,77.8,green,239,TRUE
176,1660615761.721,3872,4690,750,1.911,-1.163,0.609,93.7,red,239,TRUE
177,1660615762.174,3494,4118,3348,2.023,-1.398,1.091,94.9,blue,239,TRUE
178,1660615762.269,3090,-1918,2526,5.316,-1.274,-0.803,94.1,green,239,TRUE
179,1660615763.458,3927,4369,750,1.881,-1.175,0.68,93.7,red,239,TRUE
180,1660615764.942,3075,-1900,2526,5.404,-1.26,-0.735,93.8,green,239,TRUE
181,1660615765.036,3499,-1637,882,1.007,1.35,-0.806,109.4,yellow,239,TRUE
182,1660615765.145,3987,4062,750,1.854,-1.172,0.666,93.6,red,239,TRUE
183,1660615765.52,3450,3468,3348,2.047,-1.401,1.042,93.8,blue,239,TRUE
184,1660615765.614,3041,-1868,2526,5.612,-1.404,-0.651,93.8,green,239,TRUE
185,1660615766.834,4031,3784,750,1.862,-1.168,0.671,93.7,red,239,TRUE
186,1660615768.257,3451,3096,3348,2.022,-1.403,1.037,95.3,blue,239,TRUE
187,1660615768.352,3049,-1859,2526,5.249,-1.391,-0.581,93.7,green,239,TRUE
188,1660615768.446,3499,-1637,882,1.01,1.347,-0.785,78.1,yellow,239,TRUE
189,1660615771.913,3419,2695,3348,2.165,-1.379,1.009,93.7,blue,239,TRUE
190,1660615772.117,3499,-1637,882,1.018,1.313,-0.708,77.9,yellow,239,TRUE
191,1660615772.195,4077,3491,750,1.884,-1.196,0.504,93.7,red,239,TRUE
192,1660615773.663,3435,2396,3348,2.129,-1.385,1.007,93.8,blue,239,TRUE
193,1660615773.757,3096,-1846,2526,5.405,-1.404,-0.068,93.7,green,239,TRUE
194,1660615773.85,3499,-1637,882,1.202,1.302,-0.753,78.1,yellow,239,TRUE
195,1660615773.929,4129,3184,750,1.972,-1.192,0.635,93.7,red,239,TRUE
196,1660615775.319,3504,2136,3348,2.141,-1.385,1.001,93.8,blue,239,TRUE
197,1660615775.413,3076,-1822,2526,5.522,-1.385,-0.085,93.6,green,239,TRUE
198,1660615776.584,4197,2921,750,1.973,-1.185,0.62,93.4,red,239,TRUE
199,1660615777.99,3567,1992,3348,2.127,-1.385,1.011,93.7,blue,239,TRUE
200,1660615778.084,3101,-1826,2526,5.536,-1.373,-0.073,93.9,green,239,TRUE
201,1660615779.334,4265,2725,750,1.984,-1.19,0.676,93.7,red,239,TRUE
202,1660615779.74,3547,1940,3348,2.691,-1.271,0.853,93.7,blue,239,TRUE
203,1660615779.834,3127,-1839,2526,5.728,-1.362,-0.406,93.8,green,239,TRUE
204,1660615781.068,4341,2573,750,2.075,-1.179,0.737,93.8,red,239,TRUE
205,1660615782.427,3570,1976,3348,1.606,-1.312,1.454,93.7,blue,239,TRUE
206,1660615782.52,3150,-1869,2526,5.596,-1.343,-0.068,93.5,green,239,TRUE
207,1660615782.692,4377,2528,750,2.074,-1.165,0.709,93.6,red,239,TRUE
208,1660615783.02,3588,2004,3348,1.055,-1.428,1.149,93.9,blue,239,TRUE
209,1660615783.114,3160,-1904,2526,5.463,-1.357,0.064,93.7,green,239,TRUE
210,1660615783.223,4359,2517,750,2.246,-1.176,0.671,93.7,red,239,TRUE
211,1660615784.754,3160,-1904,2526,4.626,-1.394,-0.641,78.2,green,239,TRUE
212,1660615785.973,4318,2564,750,2.826,-1.329,0.801,93.7,red,239,TRUE
213,1660615787.41,3510,2071,3348,0.389,-1.42,1.212,94.0,blue,239,TRUE
214,1660615787.504,3160,-1904,2526,4.449,-1.385,-0.65,78.1,green,239,TRUE
215,1660615788.738,4279,2557,750,2.846,-1.233,0.711,93.7,red,239,TRUE
216,1660615791.175,3538,2124,3348,6.149,-1.444,1.494,93.7,blue,239,TRUE
217,1660615791.268,3160,-1904,2526,5.164,-1.43,-0.041,77.8,green,239,TRUE
218,1660615791.471,4236,2556,750,2.849,-1.223,0.748,94.0,red,239,TRUE
219,1660615791.846,3509,2185,3348,6.046,-1.432,1.04,93.9,blue,239,TRUE
220,1660615791.94,3176,-1976,2526,4.586,-1.362,-0.589,78.2,green,239,TRUE
221,1660615792.034,3499,-1637,882,0.98,1.329,-0.887,77.9,yellow,239,TRUE
222,1660615792.487,3498,2275,3348,6.223,-1.424,0.84,93.9,blue,239,TRUE
223,1660615792.581,3150,-2001,2526,4.881,-1.388,-0.425,78.1,green,239,TRUE
224,1660615793.799,4154,2518,750,2.127,-1.319,0.65,93.4,red,239,TRUE
225,1660615794.19,3472,2427,3348,5.055,-1.32,0.67,93.7,blue,239,TRUE
226,1660615794.283,3150,-2001,2526,5.997,-1.438,0.027,77.9,green,239,TRUE
227,1660615795.502,4167,2535,750,2.532,-1.142,1.113,93.5,red,239,TRUE
228,1660615795.877,3390,2499,3348,4.427,-1.391,1.043,93.7,blue,239,TRUE
229,1660615798.22,4158,2511,750,2.157,-1.176,1.217,93.9,red,239,TRUE
230,1660615798.595,3206,2536,3348,5.101,-1.305,0.521,93.5,blue,239,TRUE
231,1660615798.688,3149,-2052,2526,5.294,-1.408,-0.46,109.6,green,239,TRUE
232,1660615798.876,4111,2479,750,2.292,-1.193,1.156,93.5,red,239,TRUE
233,1660615799.235,3024,2572,3348,5.893,-1.247,1.044,94.0,blue,239,TRUE
234,1660615800.469,4060,2420,750,1.104,-1.271,1.329,93.7,red,239,TRUE
235,1660615800.86,2879,2588,3348,5.623,-1.445,1.536,93.8,blue,239,TRUE
236,1660615800.953,3176,-2106,2526,5.234,-1.4,-0.056,93.6,green,239,TRUE
237,1660615801.047,4015,2366,750,1.11,-1.253,1.241,109.3,red,239,TRUE
238,1660615802.391,2650,2535,3348,5.379,-1.324,0.561,93.9,blue,239,TRUE
239,1660615803.625,3985,2263,750,1.275,-1.217,1.496,93.7,red,239,TRUE
240,1660615804.031,2445,2594,3348,5.489,-1.384,0.936,93.9,blue,239,TRUE
241,1660615804.125,3180,-2129,2526,5.397,-1.368,-0.316,93.5,green,239,TRUE
242,1660615804.218,4009,2150,750,0.936,-1.278,1.295,93.9,red,239,TRUE
243,1660615804.578,2332,2657,3348,5.649,-1.362,0.999,93.4,blue,239,TRUE
244,1660615805.827,4153,2046,750,0.586,-1.179,1.321,93.9,red,239,TRUE
245,1660615807.233,2144,2724,3348,5.471,-1.372,1.073,93.6,blue,239,TRUE
246,1660615808.467,4289,1976,750,0.167,-1.256,1.046,93.8,red,239,TRUE
247,1660615808.874,1973,2736,3348,5.442,-1.372,0.93,93.7,blue,239,TRUE
248,1660615810.154,4444,1949,750,0.299,-1.202,1.161,94.1,red,239,TRUE
249,1660615811.56,1808,2739,3348,6.181,-1.306,0.959,93.9,blue,239,TRUE
250,1660615811.701,3205,-2150,2526,5.129,-1.378,-0.235,93.8,green,239,TRUE
251,1660615811.857,4670,1957,750,0.057,-1.245,1.43,94.0,red,239,TRUE
252,1660615812.232,1649,2657,3348,0.998,-1.324,0.864,93.6,blue,239,TRUE
253,1660615812.326,3178,-2167,2526,5.152,-1.365,-0.218,125.2,green,239,TRUE
254,1660615812.482,4826,1890,750,0.251,-1.134,1.299,94.0,red,239,TRUE
255,1660615812.857,1576,2544,3348,1.467,-1.276,0.962,93.8,blue,239,TRUE
256,1660615814.153,5013,1718,750,5.917,-1.365,1.37,93.8,red,239,TRUE
257,1660615814.607,1595,2629,3348,5.403,-1.229,0.946,93.8,blue,239,TRUE
258,1660615814.7,3207,-2206,2526,5.091,-1.403,-0.632,93.8,green,239,TRUE
259,1660615814.794,5192,1595,750,5.917,-1.352,1.394,93.7,red,239,TRUE
260,1660615816.293,3188,-2217,2526,5.258,-1.403,-0.393,93.8,green,239,TRUE
261,1660615816.465,5409,1490,750,5.992,-1.336,1.289,93.7,red,239,TRUE
262,1660615818.871,1439,2906,3348,5.102,-1.174,1.319,93.4,blue,239,TRUE
263,1660615820.168,5654,1381,750,5.958,-1.432,0.496,93.7,red,239,TRUE
264,1660615820.543,1359,3084,3348,5.111,-1.169,1.307,93.5,blue,239,TRUE
265,1660615821.808,5814,1363,750,5.366,-1.425,0.946,93.9,red,239,TRUE
266,1660615823.23,1325,3297,3348,5.247,-1.132,1.256,93.7,blue,239,TRUE
267,1660615824.526,5979,1418,750,0.113,-1.299,1.199,93.5,red,239,TRUE
268,1660615825.947,1260,3400,3348,4.962,-1.216,1.089,93.9,blue,239,TRUE
269,1660615826.166,6093,1407,750,0.144,-1.242,1.118,93.7,red,239,TRUE
270,1660615827.603,1188,3480,3348,5.055,-1.128,1.187,93.7,blue,239,TRUE
271,1660615827.822,6117,1421,750,6.193,-1.222,1.369,93.9,red,239,TRUE
272,1660615828.166,1138,3556,3348,5.101,-1.127,1.153,93.7,blue,239,TRUE
273,1660615828.587,1075,3647,3348,5.07,-1.127,1.155,93.8,blue,239,TRUE
274,1660615828.681,6126,1401,750,6.138,-1.194,1.577,93.8,red,239,TRUE
275,1660615828.978,1010,3758,3348,5.115,-1.1,1.098,93.8,blue,239,TRUE
276,1660615829.197,6108,1370,750,6.013,-1.228,1.501,93.7,red,239,TRUE
277,1660615829.541,926,3938,3348,5.217,-1.102,1.1,93.5,blue,239,TRUE
278,1660615829.65,6097,1384,750,6.079,-1.218,1.216,94.0,red,239,TRUE
279,1660615829.947,804,4137,3348,5.203,-1.104,1.126,95.3,blue,239,TRUE
280,1660615830.089,6022,1479,750,6.094,-1.208,1.61,93.8,red,239,TRUE
281,1660615830.339,603,4145,3348,5.07,-1.14,1.118,93.9,blue,239,TRUE
282,1660615832.638,5975,1582,750,5.805,-1.31,1.337,93.8,red,239,TRUE
283,1660615833.983,666,4125,3348,2.241,-1.499,3.07,93.7,blue,239,TRUE
284,1660615834.077,3200,-2208,2526,5.346,-1.403,-0.001,93.7,green,239,TRUE
285,1660615834.187,3499,-1637,882,0.874,1.349,-1.193,78.1,yellow,239,TRUE
286,1660615834.265,5823,1638,750,4.291,-1.307,1.356,94.1,red,239,TRUE
287,1660615834.625,778,4081,3348,1.614,-1.325,0.658,93.4,blue,239,TRUE
288,1660615834.718,3200,-2208,2526,5.325,-1.394,0.019,78.4,green,239,TRUE
289,1660615834.797,3505,-1700,882,0.828,1.344,-1.125,78.1,yellow,239,TRUE
290,1660615836.235,909,4129,3348,0.084,-1.234,1.125,94.0,blue,239,TRUE
291,1660615836.329,3289,-2232,2526,5.322,-1.4,-0.01,109.4,green,239,TRUE
292,1660615836.439,3728,-1669,882,0.842,1.344,-1.103,78.0,yellow,239,TRUE
293,1660615836.517,5535,1751,750,0.108,-1.274,0.77,93.8,red,239,TRUE
294,1660615836.813,1025,4190,3348,0.072,-1.295,0.623,93.8,blue,239,TRUE
295,1660615836.907,3308,-2240,2526,5.407,-1.379,-0.179,93.7,green,239,TRUE
296,1660615838.079,5371,1778,750,0.831,-1.299,0.673,93.7,red,239,TRUE
297,1660615838.485,1154,4193,3348,3.11,-1.309,0.829,93.7,blue,239,TRUE
298,1660615838.579,3352,-2225,2526,5.722,-1.334,-0.669,93.8,green,239,TRUE
299,1660615838.688,3739,-1703,882,0.875,1.325,-1.059,78.1,yellow,239,TRUE
300,1660615838.766,5176,1798,750,0.496,-1.345,0.808,93.7,red,239,TRUE
301,1660615839.078,1241,4172,3348,3.428,-1.298,0.78,93.7,blue,239,TRUE
302,1660615840.236,3739,-1703,882,0.872,1.326,-1.009,78.0,yellow,239,TRUE
303,1660615840.705,1301,4151,3348,3.356,-1.36,1.235,93.7,blue,239,TRUE
304,1660615840.799,3397,-2233,2526,5.366,-1.301,-0.927,93.7,green,239,TRUE
305,1660615840.892,3739,-1703,882,0.886,1.334,-1.037,93.7,yellow,239,TRUE
306,1660615840.986,4803,2038,750,0.175,-1.312,1.032,93.7,red,239,TRUE
307,1660615842.237,1332,4126,3348,3.239,-1.395,1.045,93.7,blue,239,TRUE
308,1660615843.596,4675,2357,750,1.088,-1.276,0.857,93.8,red,239,TRUE
309,1660615843.925,1355,4090,3348,2.947,-1.368,1.16,93.7,blue,239,TRUE
310,1660615845.162,3889,-1656,882,0.899,1.335,-1.109,93.8,yellow,239,TRUE
311,1660615845.255,4485,2571,750,1.281,-1.235,0.879,93.4,red,239,TRUE
312,1660615846.585,1350,4033,3348,2.67,-1.458,3.06,93.8,blue,239,TRUE
313,1660615848.915,4313,2815,750,1.852,-1.4,1.115,93.8,red,239,TRUE
314,1660615849.307,1375,4011,3348,2.714,-1.427,1.237,93.7,blue,239,TRUE
315,1660615849.416,3384,-2236,2526,5.215,-1.408,-0.205,94.1,green,239,TRUE
316,1660615850.574,4217,2920,750,1.105,-1.34,0.897,93.7,red,239,TRUE
317,1660615850.933,1433,3997,3348,2.542,-1.441,0.759,93.8,blue,239,TRUE
318,1660615851.027,3378,-2245,2526,5.193,-1.371,-0.033,78.1,green,239,TRUE
319,1660615851.105,3889,-1656,882,0.839,1.407,-1.548,78.0,yellow,239,TRUE
320,1660615851.183,4139,3048,750,0.889,-1.328,1.006,95.2,red,239,TRUE
321,1660615851.544,1468,4004,3348,2.329,-1.422,1.323,93.7,blue,239,TRUE
322,1660615851.653,3429,-2265,2526,5.121,-1.372,-0.038,78.2,green,239,TRUE
323,1660615851.747,3986,-1637,882,0.848,1.406,-1.544,78.5,yellow,239,TRUE
324,1660615851.825,4002,3112,750,2.389,-1.272,1.205,78.0,red,239,TRUE
325,1660615852.169,1483,4023,3348,1.504,-1.326,0.411,93.7,blue,239,TRUE
326,1660615852.263,3461,-2285,2526,5.107,-1.359,-0.033,78.1,green,239,TRUE
327,1660615852.341,4094,-1643,882,0.842,1.407,-1.617,93.7,yellow,239,TRUE
328,1660615853.793,1495,3829,3348,3.579,-1.44,1.008,94.0,blue,239,TRUE
329,1660615856.138,4072,3130,750,0.083,-1.334,0.99,93.7,red,239,TRUE
330,1660615857.53,1476,3608,3348,0.749,-1.296,1.41,109.3,blue,239,TRUE
331,1660615857.639,3480,-2280,2526,5.329,-1.409,-0.425,93.5,green,239,TRUE
332,1660615858.844,4299,3140,750,5.969,-1.052,2.694,94.0,red,239,TRUE
333,1660615859.22,1580,3542,3348,0.173,-1.33,1.169,93.8,blue,239,TRUE
334,1660615860.454,4094,-1643,882,0.85,1.396,-0.699,78.1,yellow,239,TRUE
335,1660615860.533,4486,3143,750,6.048,-1.06,2.667,93.8,red,239,TRUE
336,1660615861.954,1608,3594,3348,3.481,-1.44,0.942,93.7,blue,239,TRUE
337,1660615862.048,3529,-2283,2526,4.983,-1.43,-1.029,95.4,green,239,TRUE
338,1660615862.143,4144,-1642,882,1.236,1.355,-1.151,93.8,yellow,239,TRUE
339,1660615862.237,4680,3124,750,6.039,-1.178,2.476,93.7,red,239,TRUE
340,1660615863.643,1770,3591,3348,2.83,-1.344,0.455,93.4,blue,239,TRUE
341,1660615864.88,4221,-1648,882,1.148,1.332,-1.071,93.8,yellow,239,TRUE
342,1660615864.974,4800,3054,750,4.781,-1.331,1.293,93.7,red,239,TRUE
343,1660615866.351,1808,3495,3348,5.084,-1.272,0.326,94.1,blue,239,TRUE
344,1660615866.445,3529,-2283,2526,4.987,-1.318,-0.031,78.0,green,239,TRUE
345,1660615867.602,4784,2998,750,0.592,-1.298,1.046,93.7,red,239,TRUE
346,1660615869.025,1831,3446,3348,5.432,-1.39,1.1,93.7,blue,239,TRUE
347,1660615871.37,4962,2803,750,1.881,-1.333,1.093,93.8,red,239,TRUE
348,1660615872.793,1877,3397,3348,5.373,-1.388,1.141,93.6,blue,239,TRUE
349,1660615872.887,3503,-2277,2526,5.222,-1.419,-0.043,93.8,green,239,TRUE
350,1660615874.044,5095,2596,750,2.218,-1.308,0.974,93.5,red,239,TRUE
351,1660615874.42,1898,3312,3348,5.223,-1.422,1.067,93.7,blue,239,TRUE
352,1660615874.514,3467,-2250,2526,4.901,-1.383,-1.049,93.7,green,239,TRUE
353,1660615874.623,4048,-1805,882,1.082,1.32,-1.175,79.5,yellow,239,TRUE
354,1660615874.703,5237,2402,750,2.411,-1.29,1.32,94.0,red,239,TRUE
355,1660615875.063,1877,3197,3348,5.294,-1.412,1.014,93.7,blue,239,TRUE
356,1660615876.22,4212,-1749,882,1.095,1.331,-1.209,78.1,yellow,239,TRUE
357,1660615876.298,5297,2328,750,2.771,-1.212,2.008,93.8,red,239,TRUE
358,1660615876.673,1850,3128,3348,5.716,-1.353,0.836,93.7,blue,239,TRUE
359,1660615876.767,3439,-2250,2526,5.044,-1.289,-0.803,93.8,green,239,TRUE
360,1660615876.876,4257,-1760,882,1.101,1.342,-1.272,78.0,yellow,239,TRUE
361,1660615876.954,5366,2227,750,2.842,-1.236,1.801,93.8,red,239,TRUE
362,1660615878.393,3437,-2256,2526,5.085,-1.308,-0.818,93.8,green,239,TRUE
363,1660615878.487,4259,-1749,882,1.103,1.348,-1.216,77.8,yellow,239,TRUE
364,1660615878.565,5468,2199,750,2.717,-1.332,1.479,94.1,red,239,TRUE
365,1660615878.94,1634,3075,3348,5.389,-1.383,1.069,93.8,blue,239,TRUE
366,1660615879.033,3422,-2249,2526,5.123,-1.306,-0.815,78.1,green,239,TRUE
367,1660615879.112,4269,-1710,882,1.102,1.34,-1.184,78.2,yellow,239,TRUE
368,1660615879.19,5452,2279,750,2.937,-1.264,2.013,95.3,red,239,TRUE
369,1660615879.551,1568,3150,3348,5.257,-1.41,0.669,93.7,blue,239,TRUE
370,1660615879.754,4335,-1573,882,1.167,1.322,-1.169,78.1,yellow,239,TRUE
371,1660615879.847,5387,2329,750,2.879,-1.26,1.982,93.6,red,239,TRUE
372,1660615880.191,1367,3132,3348,5.148,-1.434,0.8,94.1,blue,239,TRUE
373,1660615882.489,5352,2319,750,3.091,-1.175,1.865,93.7,red,239,TRUE
374,1660615882.895,1302,3003,3348,5.07,-1.394,0.938,94.0,blue,239,TRUE
375,1660615882.989,3364,-2208,2526,5.175,-1.417,-0.131,78.0,green,239,TRUE
376,1660615884.16,5322,2352,750,3.328,-1.16,1.803,95.3,red,239,TRUE
377,1660615884.537,1115,2953,3348,4.898,-1.446,1.272,93.7,blue,239,TRUE
378,1660615884.631,3341,-2194,2526,4.862,-1.389,-0.219,93.7,green,239,TRUE
379,1660615884.724,4335,-1573,882,1.023,1.393,-1.236,78.1,yellow,239,TRUE
380,1660615884.802,5368,2397,750,3.347,-1.166,1.751,93.7,red,239,TRUE
381,1660615885.146,1078,2990,3348,5.039,-1.384,1.25,93.8,blue,239,TRUE
382,1660615885.24,3285,-2180,2526,5.119,-1.422,-0.105,78.1,green,239,TRUE
383,1660615885.318,4329,-1529,882,1.208,1.373,-1.633,78.0,yellow,239,TRUE
384,1660615885.396,5535,2377,750,3.324,-1.203,1.342,93.8,red,239,TRUE
385,1660615885.74,1068,2974,3348,5.304,-1.404,1.233,93.4,blue,239,TRUE
386,1660615885.849,3244,-2184,2526,5.131,-1.432,-0.091,78.0,green,239,TRUE
387,1660615885.943,4248,-1546,882,1.189,1.381,-1.36,78.1,yellow,239,TRUE
388,1660615886.021,5500,2343,750,3.255,-1.229,1.115,93.7,red,239,TRUE
389,1660615886.38,1062,2996,3348,5.767,-1.29,1.182,93.7,blue,239,TRUE
390,1660615886.474,3201,-2175,2526,5.198,-1.428,-0.1,78.2,green,239,TRUE
391,1660615886.552,4248,-1546,882,1.036,1.397,-1.38,78.1,yellow,239,TRUE
392,1660615886.63,5524,2349,750,3.137,-1.216,1.192,79.9,red,239,TRUE
393,1660615886.976,1070,3021,3348,5.743,-1.358,0.905,93.7,blue,239,TRUE
394,1660615887.069,3192,-2175,2526,5.207,-1.431,-0.113,78.1,green,239,TRUE
395,1660615887.272,5535,2357,750,3.141,-1.242,1.202,93.8,red,239,TRUE
396,1660615887.616,1076,3074,3348,5.532,-1.439,0.94,93.7,blue,239,TRUE
397,1660615887.71,3174,-2196,2526,5.212,-1.416,-0.005,77.8,green,239,TRUE
398,1660615888.897,5514,2353,750,3.589,-1.271,1.148,93.7,red,239,TRUE
399,1660615889.383,3195,-2198,2526,5.215,-1.434,-0.093,78.1,green,239,TRUE
400,1660615889.461,4248,-1546,882,0.956,1.402,-1.19,62.5,yellow,239,TRUE
401,1660615889.523,5411,2391,750,4.225,-1.211,1.319,93.8,red,239,TRUE
402,1660615889.898,1036,3097,3348,5.317,-1.35,1.068,93.8,blue,239,TRUE
403,1660615890.008,3171,-2214,2526,5.162,-1.43,-0.075,78.2,green,239,TRUE
404,1660615891.163,5226,2338,750,3.266,-1.28,1.494,93.8,red,239,TRUE
405,1660615892.618,3132,-2208,2526,5.109,-1.403,0.007,78.1,green,239,TRUE
406,1660615892.696,4228,-1531,882,1.031,1.383,-1.214,93.8,yellow,239,TRUE
407,1660615892.79,5173,2211,750,1.179,-1.215,1.21,93.8,red,239,TRUE
408,1660615894.133,1013,3137,3348,5.277,-1.333,1.26,94.9,blue,239,TRUE
409,1660615894.228,3132,-2208,2526,5.191,-1.417,0.008,78.5,green,239,TRUE
410,1660615894.416,5202,2137,750,0.032,-1.345,0.999,93.7,red,239,TRUE
411,1660615894.775,1021,3120,3348,5.211,-1.341,1.204,93.8,blue,239,TRUE
412,1660615894.869,3172,-2198,2526,5.589,-1.429,-0.28,93.6,green,239,TRUE
413,1660615896.041,5216,2107,750,0.396,-1.274,1.412,93.8,red,239,TRUE
414,1660615896.417,1003,3119,3348,5.099,-1.356,0.698,93.7,blue,239,TRUE
415,1660615896.511,3179,-2195,2526,5.395,-1.422,-0.591,93.8,green,239,TRUE
416,1660615896.604,4228,-1531,882,0.604,1.43,-1.4,78.0,yellow,239,TRUE
417,1660615896.683,5235,2035,750,0.637,-1.239,1.261,93.7,red,239,TRUE
418,1660615897.057,997,3097,3348,5.128,-1.378,0.705,93.8,blue,239,TRUE
419,1660615897.151,3228,-2196,2526,5.223,-1.42,-0.668,78.1,green,239,TRUE
420,1660615898.37,5249,2023,750,6.248,-1.365,1.067,93.8,red,239,TRUE
421,1660615899.761,1018,3083,3348,5.502,-1.26,0.271,94.1,blue,239,TRUE
422,1660615899.855,3230,-2194,2526,5.313,-1.421,-0.525,95.5,green,239,TRUE
423,1660615899.951,4228,-1531,882,0.758,1.39,-1.263,78.0,yellow,239,TRUE
424,1660615900.045,5259,1983,750,0.038,-1.236,1.458,93.7,red,239,TRUE
425,1660615901.482,3275,-2194,2526,5.145,-1.329,-0.879,78.1,green,239,TRUE
426,1660615902.623,5294,1954,750,0.25,-1.188,1.362,94.0,red,239,TRUE
427,1660615904.045,1035,3083,3348,5.502,-1.26,0.274,93.7,blue,239,TRUE
428,1660615904.139,3287,-2192,2526,5.169,-1.457,-0.081,109.3,green,239,TRUE
429,1660615904.248,4228,-1531,882,1.226,1.33,-1.164,78.1,yellow,239,TRUE
430,1660615904.326,5251,1896,750,5.24,-1.422,2.185,95.3,red,239,TRUE
431,1660615905.64,1023,3077,3348,5.503,-1.261,0.275,93.7,blue,239,TRUE
432,1660615905.734,3304,-2191,2526,5.129,-1.424,-0.62,79.7,green,239,TRUE
433,1660615905.829,4228,-1531,882,1.227,1.332,-1.074,78.4,yellow,239,TRUE
434,1660615905.907,5123,1817,750,4.228,-1.38,1.074,93.8,red,239,TRUE
435,1660615906.313,1026,3052,3348,5.503,-1.261,0.276,93.7,blue,239,TRUE
436,1660615906.407,3311,-2183,2526,5.116,-1.429,-0.719,93.7,green,239,TRUE
437,1660615907.565,4956,1781,750,6.103,-1.287,1.283,93.8,red,239,TRUE
438,1660615908.91,1055,3076,3348,5.501,-1.261,0.278,93.7,blue,239,TRUE
439,1660615911.256,4910,1732,750,1.464,-1.401,0.927,93.7,red,239,TRUE
440,1660615911.662,1067,3054,3348,5.499,-1.262,0.281,93.7,blue,239,TRUE
441,1660615911.756,3367,-2182,2526,4.949,-1.338,-0.827,124.9,green,239,TRUE
442,1660615912.959,4993,1763,750,1.88,-1.355,1.295,93.7,red,239,TRUE
443,1660615913.318,1101,3031,3348,5.497,-1.262,0.285,93.7,blue,239,TRUE
444,1660615913.412,3377,-2170,2526,5.261,-1.342,-0.832,93.8,green,239,TRUE
445,1660615913.521,4370,-1344,882,1.239,1.341,-1.071,78.5,yellow,239,TRUE
446,1660615913.599,4954,1884,750,1.955,-1.334,1.347,93.7,red,239,TRUE
447,1660615913.945,1098,3008,3348,5.496,-1.261,0.284,93.8,blue,239,TRUE
448,1660615914.054,3416,-2155,2526,5.164,-1.396,-1.285,93.7,green,239,TRUE
449,1660615915.227,4850,1966,750,1.38,-1.367,1.541,95.3,red,239,TRUE
450,1660615916.634,1101,3010,3348,5.49,-1.259,0.295,95.6,blue,239,TRUE
451,1660615917.886,4565,-1188,882,1.288,1.322,-1.077,78.4,yellow,239,TRUE
452,1660615917.964,4708,2042,750,1.432,-1.292,0.984,93.8,red,239,TRUE
453,1660615918.339,1108,3013,3348,5.49,-1.259,0.293,93.7,blue,239,TRUE
454,1660615919.497,4760,-1014,882,1.285,1.321,-1.104,93.8,yellow,239,TRUE
455,1660615919.59,4557,2133,750,1.51,-1.247,1.999,93.7,red,239,TRUE
456,1660615919.965,1117,3010,3348,5.491,-1.259,0.291,93.8,blue,239,TRUE
457,1660615920.059,3457,-2155,2526,5.276,-1.34,-0.884,93.7,green,239,TRUE
458,1660615920.168,4760,-1014,882,1.31,1.311,-1.191,77.8,yellow,239,TRUE
459,1660615920.246,4417,2175,750,1.437,-1.319,1.89,94.0,red,239,TRUE
460,1660615920.732,3421,-2157,2526,5.28,-1.35,-0.877,95.4,green,239,TRUE
461,1660615920.828,4929,-861,882,1.258,1.309,-1.128,78.1,yellow,239,TRUE
462,1660615920.906,4278,2226,750,1.427,-1.32,1.896,93.7,red,239,TRUE
463,1660615922.329,3416,-2145,2526,5.228,-1.328,-0.868,93.7,green,239,TRUE
464,1660615922.423,4713,-956,882,1.198,1.335,-0.86,93.7,yellow,239,TRUE
465,1660615922.516,4113,2261,750,1.437,-1.34,1.245,93.8,red,239,TRUE
466,1660615922.876,1082,3007,3348,5.491,-1.257,0.289,93.8,blue,239,TRUE
467,1660615922.969,3401,-2138,2526,5.199,-1.331,-0.833,93.6,green,239,TRUE
468,1660615924.141,4009,2339,750,1.405,-1.36,1.206,93.7,red,239,TRUE
469,1660615925.657,3398,-2123,2526,5.217,-1.329,-0.922,93.7,green,239,TRUE
470,1660615925.751,4713,-956,882,1.013,1.362,-1.27,78.2,yellow,239,TRUE
471,1660615925.829,3987,2394,750,2.321,-1.248,1.01,93.7,red,239,TRUE
472,1660615927.268,3409,-2120,2526,5.957,-1.376,-0.328,93.8,green,239,TRUE
473,1660615928.472,4002,2363,750,1.721,-1.256,1.24,93.7,red,239,TRUE
474,1660615928.894,1060,2994,3348,5.49,-1.257,0.291,95.4,blue,239,TRUE
475,1660615930.053,4748,-980,882,2.088,1.337,-1.889,93.4,yellow,239,TRUE
476,1660615930.147,3993,2311,750,1.794,-1.222,1.276,94.1,red,239,TRUE
477,1660615930.506,1062,2997,3348,5.654,-1.305,0.167,93.6,blue,239,TRUE
478,1660615931.742,4560,-1214,882,2.434,1.037,-0.144,93.8,yellow,239,TRUE
479,1660615931.836,3983,2382,750,0.377,-1.35,1.191,93.6,red,239,TRUE
480,1660615932.226,1080,2977,3348,6.209,-1.261,0.303,93.8,blue,239,TRUE
481,1660615933.445,4595,-1280,882,2.265,0.929,-0.292,93.8,yellow,239,TRUE
482,1660615933.539,3998,2431,750,0.41,-1.282,1.505,93.6,red,239,TRUE
483,1660615934.916,1046,2881,3348,0.336,-1.248,0.427,93.7,blue,239,TRUE
484,1660615935.072,4394,-1518,882,2.226,0.952,-0.251,93.7,yellow,239,TRUE
485,1660615935.182,4085,2436,750,2.043,-1.228,0.897,93.7,red,239,TRUE
486,1660615935.541,1050,2861,3348,0.325,-1.246,0.4,93.7,blue,239,TRUE
487,1660615935.635,4408,-1596,882,2.225,0.949,-0.248,93.7,yellow,239,TRUE
488,1660615935.744,4207,2469,750,2.045,-1.293,0.759,95.0,red,239,TRUE
489,1660615937.2,4364,-1670,882,2.224,0.898,-0.217,93.7,yellow,239,TRUE
490,1660615937.309,4272,2500,750,3.796,-1.305,1.13,93.8,red,239,TRUE
491,1660615937.668,1047,2852,3348,0.32,-1.253,0.409,94.0,blue,239,TRUE
492,1660615937.778,4318,-1749,882,2.225,0.879,-0.218,93.5,yellow,239,TRUE
493,1660615937.871,4279,2532,750,4.229,-1.415,1.199,94.0,red,239,TRUE
494,1660615938.262,1044,2836,3348,0.319,-1.253,0.412,93.7,blue,239,TRUE
495,1660615938.356,4135,-2002,882,2.217,0.91,-0.213,93.8,yellow,239,TRUE
496,1660615938.449,4259,2533,750,3.61,-1.362,1.29,93.7,red,239,TRUE
497,1660615938.824,1043,2825,3348,0.314,-1.253,0.408,93.8,blue,239,TRUE
498,1660615938.981,3942,-2222,882,2.221,0.877,-0.178,78.1,yellow,239,TRUE
499,1660615939.059,4223,2528,750,3.479,-1.3,1.023,93.7,red,239,TRUE
500,1660615939.45,1054,2834,3348,0.316,-1.253,0.407,93.7,blue,239,TRUE
501,1660615939.638,4169,2486,750,3.529,-1.367,1.331,78.0,red,239,TRUE
502,1660615939.997,1045,2838,3348,0.309,-1.248,0.384,93.4,blue,239,TRUE
503,1660615940.091,3529,-2684,882,2.229,0.91,-0.217,93.7,yellow,239,TRUE
504,1660615940.2,4090,2465,750,4.328,-1.272,1.217,94.1,red,239,TRUE
505,1660615941.764,3377,-2222,2526,5.533,-0.96,-0.143,78.1,green,239,TRUE
506,1660615941.842,3617,-2713,882,2.23,0.888,-0.217,93.6,yellow,239,TRUE
507,1660615941.935,4043,2654,750,5.589,-1.254,1.253,93.9,red,239,TRUE
508,1660615943.265,1048,2841,3348,0.216,-1.268,0.369,93.6,blue,239,TRUE
509,1660615944.485,3585,-2751,882,2.23,0.865,-0.197,93.7,yellow,239,TRUE
510,1660615944.579,3859,2976,750,4.194,-1.31,1.325,93.7,red,239,TRUE
511,1660615945.001,1061,2827,3348,0.22,-1.27,0.363,93.6,blue,239,TRUE
512,1660615946.221,3569,-2747,882,2.229,0.899,-0.207,93.7,yellow,239,TRUE
513,1660615946.314,3660,3173,750,4.276,-1.237,1.186,93.5,red,239,TRUE
514,1660615946.659,1068,2804,3348,0.225,-1.27,0.359,93.8,blue,239,TRUE
515,1660615947.893,3571,-2749,882,2.23,0.899,-0.217,93.8,yellow,239,TRUE
516,1660615947.987,3411,3359,750,4.435,-1.213,1.016,93.7,red,239,TRUE
517,1660615948.331,1063,2807,3348,0.226,-1.271,0.358,93.8,blue,239,TRUE
518,1660615948.487,3587,-2750,882,2.231,0.9,-0.22,93.7,yellow,239,TRUE
519,1660615948.581,3104,3621,750,4.411,-1.203,0.976,93.8,red,239,TRUE
520,1660615948.878,1109,2894,3348,0.227,-1.271,0.357,93.7,blue,239,TRUE
521,1660615948.971,3585,-2742,882,2.23,0.901,-0.217,93.8,yellow,239,TRUE
522,1660615949.065,2778,3837,750,4.376,-1.254,0.938,93.6,red,239,TRUE
523,1660615949.362,1121,2901,3348,0.227,-1.271,0.357,95.0,blue,239,TRUE
524,1660615949.457,3593,-2742,882,2.206,0.9,-0.216,93.7,yellow,239,TRUE
525,1660615949.551,2505,4052,750,4.343,-1.268,0.973,109.4,red,239,TRUE
526,1660615949.957,1136,2891,3348,0.229,-1.271,0.361,93.7,blue,239,TRUE
527,1660615950.113,3599,-2739,882,2.198,0.894,-0.214,93.8,yellow,239,TRUE
528,1660615950.207,2291,4264,750,4.455,-1.276,1.089,93.7,red,239,TRUE
529,1660615951.724,3576,-2732,882,2.19,0.891,-0.213,93.7,yellow,239,TRUE
530,1660615951.833,2129,4492,750,2.709,-1.367,0.657,93.6,red,239,TRUE
531,1660615952.256,1151,2894,3348,0.232,-1.271,0.361,93.7,blue,239,TRUE
532,1660615952.381,3568,-2732,882,2.19,0.898,-0.216,93.8,yellow,239,TRUE
533,1660615952.475,2011,4712,750,2.861,-1.316,0.926,93.7,red,239,TRUE
534,1660615953.82,1165,2893,3348,0.236,-1.271,0.358,94.1,blue,239,TRUE
535,1660615953.976,3571,-2743,882,2.19,0.9,-0.217,93.7,yellow,239,TRUE
536,1660615954.07,1907,4924,750,2.777,-1.331,1.854,93.7,red,239,TRUE
537,1660615955.401,1185,2875,3348,0.238,-1.271,0.36,109.4,blue,239,TRUE
538,1660615955.572,3574,-2752,882,2.197,0.921,-0.231,93.7,yellow,239,TRUE
539,1660615956.026,1206,2857,3348,0.238,-1.27,0.36,93.7,blue,239,TRUE
540,1660615956.119,3577,-2761,882,2.198,0.927,-0.247,93.8,yellow,239,TRUE
541,1660615956.229,1916,4783,750,2.974,-1.318,1.157,93.7,red,239,TRUE
542,1660615956.588,1241,2854,3348,0.239,-1.27,0.359,93.7,blue,239,TRUE
543,1660615956.806,2072,4450,750,2.631,-1.248,1.458,93.9,red,239,TRUE
544,1660615957.15,1247,2848,3348,0.241,-1.27,0.361,93.7,blue,239,TRUE
545,1660615957.322,3687,-2818,882,2.202,0.936,-0.261,93.8,yellow,239,TRUE
546,1660615957.431,2286,4113,750,1.453,-1.239,1.277,93.7,red,239,TRUE
547,1660615957.808,1239,2834,3348,0.23,-1.266,0.349,93.7,blue,239,TRUE
548,1660615957.933,3660,-2829,882,2.202,0.935,-0.26,78.0,yellow,239,TRUE
549,1660615958.011,2573,3783,750,1.029,-1.424,1.073,93.6,red,239,TRUE
550,1660615958.448,1241,2845,3348,0.221,-1.266,0.343,93.8,blue,239,TRUE
551,1660615958.542,3647,-2832,882,2.201,0.932,-0.259,93.7,yellow,239,TRUE
552,1660615959.042,1242,2852,3348,0.237,-1.264,0.323,93.6,blue,239,TRUE
553,1660615959.198,3629,-2837,882,2.194,0.916,-0.241,95.0,yellow,239,TRUE
554,1660615959.309,3162,3069,750,6.238,-1.235,1.011,93.7,red,239,TRUE
555,1660615959.653,1234,2839,3348,0.228,-1.266,0.315,93.8,blue,239,TRUE
556,1660615959.762,3610,-2845,882,2.19,0.904,-0.22,93.7,yellow,239,TRUE
557,1660615959.871,3494,2774,750,6.123,-1.371,1.164,94.1,red,239,TRUE
558,1660615961.185,1237,2850,3348,0.233,-1.266,0.329,93.8,blue,239,TRUE
559,1660615961.357,3583,-2846,882,2.191,0.876,-0.224,94.0,yellow,239,TRUE
560,1660615961.466,3838,2467,750,6.172,-1.295,2.306,93.7,red,239,TRUE
561,1660615961.858,1236,2860,3348,0.241,-1.268,0.338,93.7,blue,239,TRUE
562,1660615961.983,3593,-2853,882,2.197,0.864,-0.226,93.7,yellow,239,TRUE
563,1660615962.077,4158,2169,750,6.196,-1.209,2.403,93.7,red,239,TRUE
564,1660615962.436,1238,2872,3348,0.243,-1.266,0.339,94.1,blue,239,TRUE
565,1660615962.53,3594,-2857,882,2.197,0.873,-0.228,93.7,yellow,239,TRUE
566,1660615962.624,4463,1898,750,6.174,-1.216,2.342,93.7,red,239,TRUE
567,1660615962.999,1236,2877,3348,0.245,-1.266,0.34,95.3,blue,239,TRUE
568,1660615963.156,3589,-2866,882,2.202,0.892,-0.25,93.7,yellow,239,TRUE
569,1660615963.25,4760,1641,750,6.151,-1.213,2.322,93.7,red,239,TRUE
570,1660615963.625,1238,2892,3348,0.245,-1.268,0.34,93.7,blue,239,TRUE
571,1660615963.859,5007,1617,750,6.16,-1.203,2.322,93.5,red,239,TRUE
572,1660615964.203,1237,2897,3348,0.244,-1.266,0.347,95.3,blue,239,TRUE
573,1660615964.314,3580,-2856,882,2.197,0.879,-0.244,93.7,yellow,239,TRUE
574,1660615964.423,5221,1582,750,6.164,-1.193,2.338,93.4,red,239,TRUE
575,1660615964.751,1237,2894,3348,0.275,-1.242,0.328,93.7,blue,239,TRUE
576,1660615964.923,3491,-2830,882,2.202,0.87,-0.232,78.0,yellow,239,TRUE
577,1660615965.001,5425,1642,750,6.133,-1.185,2.407,93.8,red,239,TRUE
578,1660615966.33,1262,2827,3348,1.973,-1.245,0.716,93.7,blue,239,TRUE
579,1660615966.486,3503,-2812,882,2.205,0.894,-0.238,93.5,yellow,239,TRUE
580,1660615966.58,5552,1648,750,6.102,-1.189,2.434,93.9,red,239,TRUE
581,1660615966.955,1369,2767,3348,1.385,-1.079,0.56,77.8,blue,239,TRUE
582,1660615967.033,3538,-2806,882,2.207,0.884,-0.237,95.7,yellow,239,TRUE
583,1660615967.129,5619,1672,750,6.106,-1.198,2.403,93.7,red,239,TRUE
584,1660615967.519,1506,2731,3348,0.773,-1.238,0.993,93.7,blue,239,TRUE
585,1660615967.613,3516,-2825,882,2.212,0.862,-0.235,93.7,yellow,239,TRUE
586,1660615968.097,1639,2761,3348,5.842,-1.225,0.802,94.0,blue,239,TRUE
587,1660615968.253,3524,-2828,882,2.219,0.816,-0.244,93.7,yellow,239,TRUE
588,1660615968.347,5689,1625,750,6.112,-1.21,2.438,93.7,red,239,TRUE
589,1660615968.708,1779,2836,3348,5.01,-1.357,0.764,109.3,blue,239,TRUE
590,1660615968.832,3529,-2821,882,2.218,0.815,-0.23,78.5,yellow,239,TRUE
591,1660615968.926,5691,1601,750,6.046,-1.287,2.251,93.7,red,239,TRUE
592,1660615969.396,3538,-2832,882,2.209,0.829,-0.257,94.0,yellow,239,TRUE
593,1660615969.506,5692,1615,750,6.207,-1.237,2.082,93.9,red,239,TRUE
594,1660615969.881,2020,2875,3348,4.821,-1.314,0.753,93.8,blue,239,TRUE
595,1660615970.037,3544,-2835,882,2.208,0.843,-0.259,93.7,yellow,239,TRUE
596,1660615970.13,5694,1602,750,6.22,-1.194,2.234,94.1,red,239,TRUE
597,1660615970.506,2147,2918,3348,4.838,-1.304,0.777,93.8,blue,239,TRUE
598,1660615970.599,3555,-2841,882,2.206,0.84,-0.259,93.7,yellow,239,TRUE
599,1660615970.693,5704,1631,750,6.232,-1.161,2.281,93.8,red,239,TRUE
600,1660615971.084,2276,2954,3348,4.837,-1.304,0.79,94.9,blue,239,TRUE
601,1660615971.179,3572,-2841,882,2.2,0.845,-0.253,94.0,yellow,239,TRUE
602,1660615971.273,5701,1631,750,6.233,-1.141,2.308,93.7,red,239,TRUE
603,1660615971.663,2411,2990,3348,4.844,-1.3,0.781,93.7,blue,239,TRUE
604,1660615971.819,3571,-2842,882,2.203,0.851,-0.256,93.4,yellow,239,TRUE
605,1660615971.929,5704,1655,750,6.185,-1.215,2.055,93.7,red,239,TRUE
606,1660615972.288,2558,3027,3348,4.854,-1.296,0.782,93.7,blue,239,TRUE
607,1660615972.397,3592,-2836,882,2.201,0.855,-0.262,78.3,yellow,239,TRUE
608,1660615972.491,5695,1683,750,6.156,-1.27,1.522,95.2,red,239,TRUE
609,1660615972.867,2706,3063,3348,4.856,-1.295,0.782,93.8,blue,239,TRUE
610,1660615972.994,3574,-2829,882,2.196,0.867,-0.267,93.8,yellow,239,TRUE
611,1660615973.088,5689,1603,750,6.265,-1.196,1.406,93.7,red,239,TRUE
612,1660615973.463,2826,3164,3348,4.856,-1.293,0.79,93.4,blue,239,TRUE
613,1660615973.619,3572,-2844,882,2.195,0.869,-0.269,93.7,yellow,239,TRUE
614,1660615973.712,5652,1620,750,4.941,-1.421,1.491,93.8,red,239,TRUE
615,1660615974.087,2855,3289,3348,4.862,-1.289,0.785,93.6,blue,239,TRUE
616,1660615974.181,3543,-2843,882,2.196,0.869,-0.269,93.8,yellow,239,TRUE
617,1660615974.275,5588,1596,750,4.394,-1.394,1.07,95.1,red,239,TRUE
618,1660615974.667,2839,3357,3348,4.881,-1.29,0.786,93.8,blue,239,TRUE
619,1660615974.76,3547,-2838,882,2.197,0.873,-0.268,93.7,yellow,239,TRUE
620,1660615974.87,5500,1635,750,4.175,-1.254,0.764,93.7,red,239,TRUE
621,1660615976.215,2832,3379,3348,4.863,-1.281,0.741,93.8,blue,239,TRUE
622,1660615976.324,3341,-2305,2526,5.571,-0.709,-0.049,78.1,green,239,TRUE
623,1660615976.417,3551,-2849,882,2.198,0.87,-0.265,94.1,yellow,239,TRUE
624,1660615976.512,5317,1685,750,1.134,-1.263,1.326,93.7,red,239,TRUE
625,1660615976.919,2831,3354,3348,4.939,-1.282,0.649,93.7,blue,239,TRUE
626,1660615977.029,3262,-2331,2526,5.571,-0.705,-0.049,93.8,green,239,TRUE
627,1660615977.122,3551,-2855,882,2.2,0.857,-0.253,93.7,yellow,239,TRUE
628,1660615977.216,5189,1698,750,1.096,-1.294,0.507,93.8,red,239,TRUE
629,1660615977.591,2844,3413,3348,5.008,-1.272,0.644,93.6,blue,239,TRUE
630,1660615977.685,3265,-2392,2526,5.571,-0.705,-0.049,78.1,green,239,TRUE
631,1660615977.763,3557,-2845,882,2.201,0.856,-0.253,93.8,yellow,239,TRUE
632,1660615977.857,5051,1720,750,1.37,-1.234,1.749,93.7,red,239,TRUE
633,1660615978.217,2852,3409,3348,5.173,-1.172,0.495,93.7,blue,239,TRUE
634,1660615978.311,3281,-2449,2526,5.571,-0.705,-0.049,93.7,green,239,TRUE
635,1660615978.405,3558,-2845,882,2.202,0.855,-0.249,93.8,yellow,239,TRUE
636,1660615978.514,4898,1751,750,1.439,-1.223,1.894,93.8,red,239,TRUE
637,1660615978.873,2887,3452,3348,5.509,-1.125,0.485,93.7,blue,239,TRUE
638,1660615978.982,3276,-2493,2526,5.579,-0.718,-0.039,78.1,green,239,TRUE
639,1660615979.061,3530,-2841,882,2.206,0.857,-0.244,94.0,yellow,239,TRUE
640,1660615979.155,4730,1739,750,1.672,-1.213,1.414,93.7,red,239,TRUE
641,1660615979.531,2889,3521,3348,5.116,-1.176,0.473,94.1,blue,239,TRUE
642,1660615979.625,3263,-2551,2526,5.579,-0.723,-0.039,109.3,green,239,TRUE
643,1660615979.734,3530,-2832,882,2.207,0.856,-0.244,93.7,yellow,239,TRUE
644,1660615979.828,4566,1749,750,1.325,-1.342,1.241,93.8,red,239,TRUE
645,1660615980.189,2862,3585,3348,4.518,-1.285,0.809,93.7,blue,239,TRUE
646,1660615980.282,3262,-2598,2526,5.579,-0.716,-0.039,93.8,green,239,TRUE
647,1660615980.376,3527,-2853,882,2.207,0.855,-0.249,93.8,yellow,239,TRUE
648,1660615980.486,4384,1732,750,1.318,-1.306,0.964,93.7,red,239,TRUE
649,1660615980.845,2813,3659,3348,4.564,-1.27,0.975,93.7,blue,239,TRUE
650,1660615980.954,3252,-2657,2526,5.577,-0.701,-0.036,78.3,green,239,TRUE
651,1660615981.048,3516,-2857,882,2.205,0.86,-0.244,93.7,yellow,239,TRUE
652,1660615981.141,4211,1723,750,1.273,-1.311,0.996,94.0,red,239,TRUE
653,1660615981.518,2780,3688,3348,4.697,-1.257,0.813,93.7,blue,239,TRUE
654,1660615981.612,3235,-2707,2526,5.577,-0.712,-0.036,78.1,green,239,TRUE
655,1660615981.69,3505,-2861,882,2.203,0.855,-0.24,93.7,yellow,239,TRUE
656,1660615981.784,4041,1780,750,1.19,-1.384,1.023,93.8,red,239,TRUE
657,1660615982.145,2759,3741,3348,4.764,-1.251,0.721,93.7,blue,239,TRUE
658,1660615982.238,3245,-2707,2526,5.575,-0.719,-0.04,93.8,green,239,TRUE
659,1660615982.332,3502,-2837,882,2.208,0.881,-0.253,93.6,yellow,239,TRUE
660,1660615982.426,3941,1823,750,1.553,-1.36,1.521,93.8,red,239,TRUE
661,1660615982.879,3284,-2695,2526,5.573,-0.7,-0.033,78.1,green,239,TRUE
662,1660615982.972,3498,-2831,882,2.21,0.882,-0.253,93.5,yellow,239,TRUE
663,1660615983.082,3866,1908,750,1.445,-1.238,1.187,93.7,red,239,TRUE
664,1660615983.442,2739,3908,3348,5.006,-1.276,0.651,94.0,blue,239,TRUE
665,1660615983.552,3310,-2707,2526,5.572,-0.71,-0.04,78.1,green,239,TRUE
666,1660615983.63,3498,-2812,882,2.21,0.88,-0.252,93.6,yellow,239,TRUE
667,1660615983.724,3870,1956,750,1.164,-1.302,1.093,93.7,red,239,TRUE
668,1660615984.099,2701,3985,3348,5.342,-1.337,0.985,93.7,blue,239,TRUE
669,1660615984.192,3301,-2704,2526,5.572,-0.704,-0.04,93.7,green,239,TRUE
670,1660615984.397,3897,2021,750,1.237,-1.302,1.203,93.4,red,239,TRUE
671,1660615984.883,3350,-2731,2526,5.572,-0.707,-0.04,93.7,green,239,TRUE
672,1660615984.977,3535,-2790,882,2.21,0.887,-0.255,93.7,yellow,239,TRUE
673,1660615985.086,3900,2072,750,1.257,-1.28,1.173,93.8,red,239,TRUE
674,1660615985.43,2513,4228,3348,5.077,-1.221,0.605,93.8,blue,239,TRUE
675,1660615985.539,3327,-2720,2526,5.571,-0.724,-0.04,78.1,green,239,TRUE
676,1660615985.617,3577,-2777,882,2.213,0.887,-0.265,93.8,yellow,239,TRUE
677,1660615985.711,3892,2086,750,1.237,-1.292,1.215,93.7,red,239,TRUE
678,1660615986.117,2419,4317,3348,5.12,-1.204,0.623,93.7,blue,239,TRUE
679,1660615986.211,3303,-2712,2526,5.571,-0.718,-0.04,78.0,green,239,TRUE
680,1660615986.289,3613,-2766,882,2.211,0.887,-0.265,93.0,yellow,239,TRUE
681,1660615986.382,3898,2135,750,0.757,-1.427,1.344,93.7,red,239,TRUE
682,1660615986.725,2300,4372,3348,5.188,-1.223,0.692,93.8,blue,239,TRUE
683,1660615987.961,3589,-2772,882,2.208,0.869,-0.267,93.8,yellow,239,TRUE
684,1660615988.055,3858,2272,750,5.643,-1.331,1.29,94.0,red,239,TRUE
685,1660615988.398,2196,4370,3348,4.034,-1.179,0.367,93.7,blue,239,TRUE
686,1660615989.605,3572,-2767,882,2.209,0.87,-0.266,93.7,yellow,239,TRUE
687,1660615989.698,3712,2528,750,4.656,-1.296,0.819,93.6,red,239,TRUE
688,1660615990.088,2068,4358,3348,4.037,-1.266,0.84,94.0,blue,239,TRUE
689,1660615991.309,3556,-2776,882,2.208,0.881,-0.277,93.7,yellow,239,TRUE
690,1660615991.402,3631,2720,750,2.338,-1.257,1.126,93.8,red,239,TRUE
691,1660615992.747,1956,4326,3348,4.056,-1.265,0.837,94.0,blue,239,TRUE
692,1660615992.904,3548,-2761,882,2.208,0.878,-0.275,93.7,yellow,239,TRUE
693,1660615992.997,3709,2788,750,1.776,-1.374,0.95,93.7,red,239,TRUE
694,1660615993.483,3534,-2763,882,2.206,0.882,-0.277,95.1,yellow,239,TRUE
695,1660615993.594,3833,2879,750,1.565,-1.251,0.975,94.0,red,239,TRUE
696,1660615993.939,1671,4400,3348,4.046,-1.283,0.747,93.5,blue,239,TRUE
697,1660615994.064,3533,-2759,882,2.206,0.886,-0.279,93.7,yellow,239,TRUE
698,1660615994.174,3923,2919,750,2.436,-1.136,2.128,93.8,red,239,TRUE
699,1660615994.519,1557,4378,3348,4.242,-1.216,0.798,94.9,blue,239,TRUE
700,1660615994.645,3305,-2719,2526,5.6,-0.692,-0.012,78.2,green,239,TRUE
701,1660615994.723,3518,-2774,882,2.205,0.887,-0.281,93.6,yellow,239,TRUE
702,1660615994.817,4026,2944,750,2.495,-1.072,2.211,93.7,red,239,TRUE
703,1660615995.176,1411,4342,3348,3.895,-1.273,0.694,93.7,blue,239,TRUE
704,1660615995.27,3318,-2725,2526,5.592,-0.696,-0.017,79.3,green,239,TRUE
705,1660615995.349,3508,-2779,882,2.207,0.886,-0.279,93.7,yellow,239,TRUE
706,1660615995.443,4111,2999,750,2.47,-1.077,2.142,93.7,red,239,TRUE
707,1660615997.022,3510,-2786,882,2.21,0.882,-0.266,95.3,yellow,239,TRUE
708,1660615997.117,4207,3001,750,2.474,-1.113,2.118,93.8,red,239,TRUE
709,1660615998.462,1405,4240,3348,4.395,-1.09,1.056,93.8,blue,239,TRUE
710,1660615999.682,3465,-2800,882,2.209,0.89,-0.273,93.8,yellow,239,TRUE
711,1660615999.776,4310,3024,750,2.318,-1.222,2.173,95.2,red,239,TRUE
712,1660616000.152,1502,4187,3348,4.685,-1.263,0.728,78.1,blue,239,TRUE
713,1660616001.359,3405,-2809,882,2.209,0.893,-0.275,93.7,yellow,239,TRUE
714,1660616001.452,4409,3050,750,2.557,-1.269,2.008,93.8,red,239,TRUE
715,1660616001.812,1591,4134,3348,4.811,-1.206,0.76,93.7,blue,239,TRUE
716,1660616001.968,3349,-2819,882,2.209,0.891,-0.274,93.7,yellow,239,TRUE
717,1660616002.077,4515,3063,750,2.579,-1.256,2.094,93.8,red,239,TRUE
718,1660616003.407,1672,4097,3348,4.873,-1.227,0.706,93.7,blue,239,TRUE
719,1660616003.672,4663,2987,750,3.746,-1.139,1.261,93.8,red,239,TRUE
720,1660616004.031,1769,4080,3348,4.843,-1.227,0.73,93.8,blue,239,TRUE
721,1660616004.156,3408,-2810,882,2.214,0.879,-0.269,93.5,yellow,239,TRUE
722,1660616004.25,4841,2841,750,4.199,-1.324,0.984,95.2,red,239,TRUE
723,1660616004.611,1912,4082,3348,4.835,-1.222,0.729,93.8,blue,239,TRUE
724,1660616004.704,3405,-2808,882,2.217,0.885,-0.277,93.7,yellow,239,TRUE
725,1660616004.798,4947,2712,750,3.619,-1.242,1.122,93.7,red,239,TRUE
726,1660616005.188,2050,4115,3348,4.82,-1.089,0.617,95.2,blue,239,TRUE
727,1660616005.299,3324,-2713,2526,5.634,-0.777,-0.077,109.3,green,239,TRUE
728,1660616005.408,3392,-2807,882,2.213,0.887,-0.281,93.7,yellow,239,TRUE
729,1660616005.502,4919,2665,750,2.126,-1.346,1.426,93.8,red,239,TRUE
730,1660616007.113,3387,-2807,882,2.196,0.884,-0.28,93.7,yellow,239,TRUE
731,1660616007.206,4762,2723,750,5.459,-1.275,1.133,93.8,red,239,TRUE
732,1660616007.566,2269,4293,3348,5.124,-1.24,0.604,93.7,blue,239,TRUE
733,1660616008.754,3380,-2808,882,2.174,0.882,-0.28,93.7,yellow,239,TRUE
734,1660616008.848,4490,2889,750,5.095,-1.287,0.886,93.7,red,239,TRUE
735,1660616009.223,2296,4404,3348,4.425,-1.326,0.825,93.8,blue,239,TRUE
736,1660616010.443,3392,-2812,882,2.174,0.884,-0.28,93.7,yellow,239,TRUE
737,1660616010.537,4237,3049,750,0.327,-1.396,1.333,93.8,red,239,TRUE
738,1660616010.898,2340,4509,3348,3.242,-1.406,1.185,93.7,blue,239,TRUE
739,1660616011.054,3395,-2812,882,2.174,0.882,-0.28,93.7,yellow,239,TRUE
740,1660616011.163,3977,3194,750,0.308,-1.275,0.854,94.1,red,239,TRUE
741,1660616011.632,3394,-2811,882,2.174,0.882,-0.28,93.8,yellow,239,TRUE
742,1660616011.726,3732,3359,750,6.07,-1.277,0.852,93.7,red,239,TRUE
743,1660616012.07,2252,4644,3348,3.291,-1.361,1.021,94.1,blue,239,TRUE
744,1660616012.196,3385,-2815,882,2.174,0.882,-0.28,93.7,yellow,239,TRUE
745,1660616012.305,3492,3538,750,6.184,-1.27,0.785,94.1,red,239,TRUE
746,1660616012.68,2159,4710,3348,3.44,-1.334,0.903,93.7,blue,239,TRUE
747,1660616012.836,3379,-2814,882,2.174,0.882,-0.281,93.6,yellow,239,TRUE
748,1660616012.93,3231,3719,750,6.147,-1.278,0.807,93.8,red,239,TRUE
749,1660616014.273,2065,4796,3348,3.228,-1.345,1.521,95.4,blue,239,TRUE
750,1660616014.431,3386,-2809,882,2.174,0.882,-0.28,93.7,yellow,239,TRUE
751,1660616014.525,3034,3892,750,5.051,-1.307,0.971,93.7,red,239,TRUE
752,1660616014.87,1968,4833,3348,3.427,-1.148,0.466,93.6,blue,239,TRUE
753,1660616015.073,2858,4025,750,4.576,-1.319,1.412,93.8,red,239,TRUE
754,1660616015.433,1892,4879,3348,3.551,-1.366,0.572,93.8,blue,239,TRUE
755,1660616015.526,3325,-2805,882,2.174,0.885,-0.281,93.7,yellow,239,TRUE
756,1660616015.636,2806,4063,750,3.448,-1.294,1.253,93.7,red,239,TRUE
757,1660616015.995,1781,4897,3348,3.931,-1.112,0.455,93.7,blue,239,TRUE
758,1660616016.151,3318,-2804,882,2.174,0.885,-0.281,94.0,yellow,239,TRUE
759,1660616016.26,2787,4104,750,3.031,-1.386,1.121,93.8,red,239,TRUE
760,1660616016.589,1641,4870,3348,3.876,-1.22,0.425,93.8,blue,239,TRUE
761,1660616016.682,3326,-2803,882,2.174,0.885,-0.281,93.6,yellow,239,TRUE
762,1660616016.776,2754,4139,750,2.772,-1.258,0.714,93.8,red,239,TRUE
763,1660616017.104,1460,4809,3348,3.623,-1.3,0.966,93.7,blue,239,TRUE
764,1660616017.229,3336,-2802,882,2.174,0.885,-0.281,93.7,yellow,239,TRUE
765,1660616017.338,2819,4031,750,2.271,-1.328,1.29,93.7,red,239,TRUE
766,1660616017.683,1349,4613,3348,3.6,-1.313,1.189,93.7,blue,239,TRUE
767,1660616017.84,3333,-2801,882,2.174,0.887,-0.283,93.8,yellow,239,TRUE
768,1660616017.933,3018,3836,750,2.302,-1.321,1.251,93.7,red,239,TRUE
769,1660616018.308,1265,4473,3348,3.618,-1.307,1.169,93.8,blue,239,TRUE
770,1660616018.402,3319,-2799,882,2.174,0.889,-0.284,93.7,yellow,239,TRUE
771,1660616018.496,3168,3628,750,2.304,-1.307,1.343,93.8,red,239,TRUE
772,1660616019.825,1200,4354,3348,3.59,-1.31,1.182,93.7,blue,239,TRUE
773,1660616019.981,3353,-2800,882,2.174,0.889,-0.256,93.7,yellow,239,TRUE
774,1660616020.434,1125,4276,3348,3.446,-1.336,1.08,93.7,blue,239,TRUE
775,1660616020.637,3283,3419,750,2.775,-1.213,1.945,93.5,red,239,TRUE
776,1660616020.966,1074,4178,3348,3.053,-1.274,0.717,93.7,blue,239,TRUE
777,1660616021.059,3373,-2797,882,2.178,0.887,-0.267,93.7,yellow,239,TRUE
778,1660616021.169,3380,3183,750,2.344,-1.218,1.671,93.5,red,239,TRUE
779,1660616021.528,1045,4077,3348,2.227,-1.175,0.483,94.9,blue,239,TRUE
780,1660616021.686,3395,-2797,882,2.184,0.886,-0.271,93.7,yellow,239,TRUE
781,1660616021.779,3461,2860,750,2.095,-1.241,1.571,93.7,red,239,TRUE
782,1660616022.139,1033,3977,3348,1.888,-1.263,0.42,93.8,blue,239,TRUE
783,1660616022.264,3399,-2802,882,2.184,0.878,-0.268,93.7,yellow,239,TRUE
784,1660616022.373,3633,2544,750,1.574,-1.261,1.525,93.8,red,239,TRUE
785,1660616022.732,1044,3925,3348,1.573,-1.216,0.551,93.7,blue,239,TRUE
786,1660616022.826,3405,-2805,882,2.184,0.88,-0.269,93.7,yellow,239,TRUE
787,1660616022.92,3811,2223,750,0.813,-1.285,1.26,95.2,red,239,TRUE
788,1660616023.312,1072,3896,3348,0.901,-1.244,0.384,93.9,blue,239,TRUE
789,1660616023.468,3434,-2809,882,2.185,0.889,-0.272,93.7,yellow,239,TRUE
790,1660616023.562,4010,1978,750,0.321,-1.342,0.983,93.8,red,239,TRUE
791,1660616023.921,1136,3939,3348,0.017,-1.318,0.446,93.7,blue,239,TRUE
792,1660616024.015,3458,-2814,882,2.185,0.886,-0.271,93.6,yellow,239,TRUE
793,1660616024.108,4202,1849,750,5.764,-1.428,1.864,93.8,red,239,TRUE
794,1660616024.485,1200,4043,3348,5.179,-1.187,0.377,93.8,blue,239,TRUE
795,1660616024.578,3474,-2810,882,2.183,0.885,-0.266,93.7,yellow,239,TRUE
796,1660616024.672,4373,1749,750,5.98,-1.373,1.329,93.8,red,239,TRUE
797,1660616025.032,1295,4165,3348,4.571,-1.324,0.718,93.7,blue,239,TRUE
798,1660616025.187,3491,-2813,882,2.182,0.884,-0.265,94.0,yellow,239,TRUE
799,1660616025.297,4548,1694,750,6.218,-1.276,1.301,93.8,red,239,TRUE
800,1660616025.688,1415,4264,3348,4.033,-1.244,0.71,95.2,blue,239,TRUE
801,1660616025.892,4685,1646,750,5.837,-1.432,2.269,93.8,red,239,TRUE
802,1660616026.251,1555,4342,3348,3.299,-1.146,0.445,93.6,blue,239,TRUE
803,1660616026.376,3523,-2809,882,2.183,0.889,-0.266,93.8,yellow,239,TRUE
804,1660616026.47,4816,1622,750,5.926,-1.307,3.036,93.7,red,239,TRUE
805,1660616026.829,1709,4395,3348,3.01,-1.281,0.539,93.8,blue,239,TRUE
806,1660616028.002,3504,-2809,882,2.183,0.888,-0.265,93.7,yellow,239,TRUE
807,1660616028.096,4965,1595,750,6.063,-1.318,2.771,93.4,red,239,TRUE
808,1660616028.457,1887,4383,3348,3.322,-1.232,0.659,93.7,blue,239,TRUE
809,1660616029.677,3513,-2812,882,2.186,0.881,-0.264,93.7,yellow,239,TRUE
810,1660616029.771,5155,1575,750,5.979,-1.398,2.387,95.4,red,239,TRUE
811,1660616031.164,2036,4387,3348,3.311,-1.197,0.675,94.0,blue,239,TRUE
812,1660616032.398,3521,-2811,882,2.185,0.886,-0.271,93.7,yellow,239,TRUE
813,1660616032.492,5369,1600,750,5.949,-1.392,2.839,95.4,red,239,TRUE
814,1660616032.884,2166,4381,3348,3.234,-1.211,0.662,93.8,blue,239,TRUE
815,1660616033.04,3523,-2815,882,2.185,0.891,-0.273,93.7,yellow,239,TRUE
816,1660616033.134,5576,1692,750,5.986,-1.394,2.799,93.8,red,239,TRUE
817,1660616034.526,2263,4379,3348,3.208,-1.242,0.761,93.7,blue,239,TRUE
818,1660616034.682,3527,-2815,882,2.181,0.892,-0.267,93.7,yellow,239,TRUE
819,1660616034.776,5717,1767,750,5.974,-1.377,2.494,93.7,red,239,TRUE
820,1660616035.135,2352,4344,3348,3.221,-1.245,0.757,93.8,blue,239,TRUE
821,1660616035.245,3527,-2832,882,2.182,0.888,-0.269,78.1,yellow,239,TRUE
822,1660616035.338,5772,1798,750,5.977,-1.334,2.868,93.7,red,239,TRUE
823,1660616035.698,2405,4300,3348,3.22,-1.25,0.766,93.8,blue,239,TRUE
824,1660616035.791,3525,-2830,882,2.183,0.891,-0.273,93.7,yellow,239,TRUE
825,1660616035.885,5814,1869,750,6.013,-1.342,2.805,93.4,red,239,TRUE
826,1660616036.229,2450,4218,3348,3.167,-1.227,0.617,93.7,blue,239,TRUE
827,1660616036.401,3521,-2829,882,2.183,0.89,-0.273,95.2,yellow,239,TRUE
828,1660616036.496,5799,1887,750,6.04,-1.316,2.966,93.6,red,239,TRUE
829,1660616036.857,2533,4092,3348,2.766,-1.273,0.636,93.7,blue,239,TRUE
830,1660616037.075,5826,1924,750,6.079,-1.313,2.98,93.4,red,239,TRUE
831,1660616037.45,2631,3969,3348,2.74,-1.271,0.642,95.3,blue,239,TRUE
832,1660616037.546,3572,-2849,882,2.183,0.889,-0.272,93.7,yellow,239,TRUE
833,1660616037.639,5862,1967,750,6.132,-1.301,2.968,93.8,red,239,TRUE
834,1660616038.0,2687,3877,3348,2.931,-1.244,0.647,78.0,blue,239,TRUE
