,timestamp,x,y,z,yaw,roll,pitch,latency,student,session,success
0,1660626592.981,2886,-1071,882,4.813,0.038,0.025,87.0,yellow,241,TRUE
1,1660626593.187,203,-1412,750,5.365,-1.41,-0.327,91.0,red,241,TRUE
2,1660626594.636,2891,-1073,882,4.813,0.038,0.025,88.0,yellow,241,TRUE
3,1660626594.822,459,-1186,750,0.963,-1.361,-1.895,83.2,red,241,TRUE
4,1660626596.35,2885,-1072,882,4.813,0.038,0.025,97.6,yellow,241,TRUE
5,1660626596.537,708,-1029,750,3.743,-1.407,-0.413,90.5,red,241,TRUE
6,1660626598.038,2889,-1075,882,4.813,0.038,0.025,98.8,yellow,241,TRUE
7,1660626598.231,941,-847,750,4.496,-1.38,-0.128,87.9,red,241,TRUE
8,1660626600.939,1105,-546,750,4.788,-1.463,0.065,94.8,red,241,TRUE
9,1660626603.445,2889,-1084,882,4.813,0.038,0.025,95.1,yellow,241,TRUE
10,1660626606.228,1534,3,750,4.536,-1.482,0.007,90.7,red,241,TRUE
11,1660626607.72,2889,-1082,882,4.813,0.038,0.025,82.8,yellow,241,TRUE
12,1660626607.907,1665,313,750,4.623,-1.456,-0.008,91.4,red,241,TRUE
13,1660626610.381,2885,-1073,882,4.813,0.038,0.025,95.4,yellow,241,TRUE
14,1660626610.577,1895,588,750,4.525,-1.457,-0.061,97.7,red,241,TRUE
15,1660626612.02,2881,-1068,882,4.813,0.038,0.025,84.4,yellow,241,TRUE
16,1660626612.199,2016,871,750,4.453,-1.432,-0.314,86.7,red,241,TRUE
17,1660626612.36,2505,-1142,2526,4.829,-0.049,-0.099,107.8,green,241,TRUE
18,1660626612.636,2886,-1070,882,4.813,0.038,0.025,87.1,yellow,241,TRUE
19,1660626612.827,2117,1147,750,4.452,-1.426,-0.248,91.6,red,241,TRUE
20,1660626612.948,2494,-1136,2526,4.829,-0.049,-0.099,108.1,green,241,TRUE
21,1660626613.224,2906,-1085,882,4.813,0.038,0.025,91.7,yellow,241,TRUE
22,1660626613.446,2238,1464,750,4.417,-1.418,-0.165,90.6,red,241,TRUE
23,1660626614.842,2897,-1074,882,4.813,0.038,0.025,98.3,yellow,241,TRUE
24,1660626615.03,2306,1591,750,4.372,-1.392,-0.243,91.2,red,241,TRUE
25,1660626616.68,2277,1625,750,4.37,-1.398,-0.249,86.9,red,241,TRUE
26,1660626618.122,2887,-1070,882,4.813,0.038,0.025,95.7,yellow,241,TRUE
27,1660626618.309,2283,1749,750,4.399,-1.386,-0.064,89.0,red,241,TRUE
28,1660626618.716,2878,-1053,882,4.813,0.038,0.025,89.2,yellow,241,TRUE
29,1660626618.908,2265,1795,750,4.38,-1.388,-0.113,92.1,red,241,TRUE
30,1660626619.197,2885,-1062,882,4.813,0.038,0.025,92.0,yellow,241,TRUE
31,1660626619.408,2303,1783,750,4.375,-1.384,-0.161,92.1,red,241,TRUE
32,1660626619.682,2888,-1066,882,4.813,0.038,0.025,89.4,yellow,241,TRUE
33,1660626619.863,2293,1750,750,4.396,-1.388,-0.183,88.6,red,241,TRUE
34,1660626620.237,2894,-1071,882,4.813,0.038,0.025,91.7,yellow,241,TRUE
35,1660626620.447,2327,1775,750,4.393,-1.39,-0.212,92.3,red,241,TRUE
36,1660626620.721,2953,-1123,882,4.813,0.038,0.025,90.7,yellow,241,TRUE
37,1660626620.931,2349,1784,750,4.393,-1.388,-0.213,91.7,red,241,TRUE
38,1660626622.256,2942,-1115,882,4.813,0.038,0.025,91.0,yellow,241,TRUE
39,1660626622.441,2362,1797,750,4.418,-1.407,-0.219,85.7,red,241,TRUE
40,1660626623.808,2937,-1110,882,4.813,0.038,0.025,90.1,yellow,241,TRUE
41,1660626626.407,2931,-1102,882,4.813,0.038,0.025,89.8,yellow,241,TRUE
42,1660626626.595,2406,1836,750,4.417,-1.4,-0.216,83.9,red,241,TRUE
43,1660626628.069,2918,-1088,882,4.813,0.038,0.025,91.3,yellow,241,TRUE
44,1660626628.662,2929,-1102,882,4.813,0.038,0.025,88.5,yellow,241,TRUE
45,1660626628.843,2424,1870,750,4.406,-1.405,-0.228,87.6,red,241,TRUE
46,1660626629.142,2922,-1090,882,4.813,0.038,0.025,89.4,yellow,241,TRUE
47,1660626629.323,2419,1857,750,4.409,-1.407,-0.209,89.6,red,241,TRUE
48,1660626629.639,2935,-1097,882,4.813,0.038,0.025,89.9,yellow,241,TRUE
49,1660626629.821,2424,1862,750,4.409,-1.41,-0.209,88.0,red,241,TRUE
50,1660626630.213,2945,-1110,882,4.813,0.038,0.025,88.2,yellow,241,TRUE
51,1660626630.42,2381,1816,750,4.468,-1.415,-0.183,90.7,red,241,TRUE
52,1660626630.693,2946,-1113,882,4.813,0.038,0.025,89.3,yellow,241,TRUE
53,1660626630.874,2382,1828,750,4.471,-1.409,-0.173,88.9,red,241,TRUE
54,1660626631.13,2946,-1115,882,4.813,0.038,0.025,89.4,yellow,241,TRUE
55,1660626631.337,2366,1823,750,4.479,-1.41,-0.22,91.2,red,241,TRUE
56,1660626631.746,2943,-1105,882,4.813,0.038,0.025,91.3,yellow,241,TRUE
57,1660626631.929,2370,1842,750,4.468,-1.404,-0.247,88.0,red,241,TRUE
58,1660626632.213,2874,-1040,882,4.813,0.038,0.025,92.9,yellow,241,TRUE
59,1660626632.425,2331,1784,750,4.459,-1.402,-0.219,92.9,red,241,TRUE
60,1660626632.699,2886,-1054,882,4.813,0.038,0.025,88.2,yellow,241,TRUE
61,1660626632.883,2316,1772,750,4.458,-1.408,-0.271,88.1,red,241,TRUE
62,1660626633.061,2483,-1166,2526,4.829,-0.049,-0.099,92.3,green,241,TRUE
63,1660626633.336,2886,-1056,882,4.813,0.038,0.025,88.0,yellow,241,TRUE
64,1660626633.53,2304,1765,750,4.478,-1.401,-0.317,91.7,red,241,TRUE
65,1660626634.957,2905,-1071,882,4.813,0.038,0.025,97.0,yellow,241,TRUE
66,1660626635.143,2295,1762,750,4.513,-1.407,-0.243,90.1,red,241,TRUE
67,1660626635.292,2526,-1163,2526,4.829,-0.049,-0.099,90.6,green,241,TRUE
68,1660626635.551,2908,-1074,882,4.813,0.038,0.025,91.2,yellow,241,TRUE
69,1660626635.733,2289,1753,750,4.533,-1.416,-0.279,89.3,red,241,TRUE
70,1660626637.116,2896,-1058,882,4.813,0.038,0.025,94.0,yellow,241,TRUE
71,1660626637.302,2283,1751,750,4.509,-1.422,-0.405,89.6,red,241,TRUE
72,1660626638.804,2897,-1053,882,4.813,0.038,0.025,94.7,yellow,241,TRUE
73,1660626638.991,2281,1756,750,4.528,-1.421,-0.243,89.6,red,241,TRUE
74,1660626640.475,2893,-1049,882,4.813,0.038,0.025,85.1,yellow,241,TRUE
75,1660626640.65,2277,1756,750,4.53,-1.434,-0.236,90.7,red,241,TRUE
76,1660626642.414,2292,1785,750,4.465,-1.415,-0.201,91.5,red,241,TRUE
77,1660626642.565,2535,-1168,2526,4.829,-0.049,-0.099,108.8,green,241,TRUE
78,1660626642.855,2893,-1013,882,4.813,0.038,0.025,90.0,yellow,241,TRUE
79,1660626643.035,2290,1792,750,4.458,-1.419,-0.26,90.7,red,241,TRUE
80,1660626643.13,2547,-1155,2526,4.829,-0.049,-0.099,132.7,green,241,TRUE
81,1660626643.471,2884,-994,882,4.813,0.038,0.025,93.0,yellow,241,TRUE
82,1660626643.654,2297,1794,750,4.496,-1.421,-0.267,89.1,red,241,TRUE
83,1660626645.089,2881,-993,882,4.813,0.038,0.025,83.2,yellow,241,TRUE
84,1660626645.263,2312,1808,750,4.564,-1.439,-0.257,90.1,red,241,TRUE
85,1660626647.771,2896,-1007,882,4.813,0.038,0.025,89.2,yellow,241,TRUE
86,1660626647.969,2337,1850,750,4.532,-1.443,-0.014,87.3,red,241,TRUE
87,1660626649.45,2892,-1008,882,4.813,0.038,0.025,84.9,yellow,241,TRUE
88,1660626649.628,2335,1852,750,4.518,-1.421,-0.031,90.3,red,241,TRUE
89,1660626650.008,2893,-1010,882,4.813,0.038,0.025,88.4,yellow,241,TRUE
90,1660626650.191,2337,1856,750,4.512,-1.418,-0.07,87.7,red,241,TRUE
91,1660626650.535,2878,-999,882,4.813,0.038,0.025,90.4,yellow,241,TRUE
92,1660626650.72,2338,1859,750,4.517,-1.428,-0.068,87.8,red,241,TRUE
93,1660626651.003,2898,-1021,882,4.813,0.038,0.025,90.0,yellow,241,TRUE
94,1660626651.186,2361,1870,750,4.489,-1.424,-0.074,86.6,red,241,TRUE
95,1660626652.571,2916,-1039,882,4.813,0.038,0.025,90.4,yellow,241,TRUE
96,1660626652.76,2355,1868,750,4.49,-1.42,-0.011,97.4,red,241,TRUE
97,1660626654.504,2342,1864,750,4.456,-1.414,-0.132,89.1,red,241,TRUE
98,1660626655.944,2916,-1019,882,4.813,0.038,0.025,95.4,yellow,241,TRUE
99,1660626656.133,2342,1865,750,4.428,-1.42,0.0,87.5,red,241,TRUE
100,1660626658.612,2905,-1042,882,4.813,0.038,0.025,97.2,yellow,241,TRUE
101,1660626658.807,2352,1872,750,4.448,-1.415,0.056,84.4,red,241,TRUE
102,1660626661.27,2892,-1031,882,4.813,0.038,0.025,94.9,yellow,241,TRUE
103,1660626661.462,2365,1885,750,4.458,-1.408,0.096,85.3,red,241,TRUE
104,1660626663.999,2881,-1025,882,4.813,0.038,0.025,97.5,yellow,241,TRUE
105,1660626664.197,2370,1893,750,4.439,-1.402,0.048,96.1,red,241,TRUE
106,1660626665.684,2882,-1031,882,4.813,0.038,0.025,87.7,yellow,241,TRUE
107,1660626665.876,2356,1917,750,4.847,-1.463,0.019,93.7,red,241,TRUE
108,1660626666.074,2531,-1142,2526,4.829,-0.049,-0.099,121.1,green,241,TRUE
109,1660626666.289,2880,-1031,882,4.813,0.038,0.025,85.7,yellow,241,TRUE
110,1660626666.494,2393,1993,750,5.108,-1.286,0.036,92.0,red,241,TRUE
111,1660626668.095,2422,2215,750,4.912,-1.37,-0.038,88.9,red,241,TRUE
112,1660626670.505,2925,-1028,882,4.813,0.038,0.025,94.8,yellow,241,TRUE
113,1660626670.699,2385,2526,750,4.632,-1.383,0.027,96.4,red,241,TRUE
114,1660626672.212,2935,-1039,882,4.813,0.038,0.025,92.9,yellow,241,TRUE
115,1660626672.408,2377,2853,750,4.357,-1.442,-0.336,93.9,red,241,TRUE
116,1660626672.816,2906,-1015,882,4.813,0.038,0.025,91.8,yellow,241,TRUE
117,1660626673.014,2369,3174,750,4.43,-1.452,-0.041,90.4,red,241,TRUE
118,1660626673.329,2893,-1009,882,4.813,0.038,0.025,91.4,yellow,241,TRUE
119,1660626673.525,2369,3504,750,4.422,-1.454,-0.037,90.7,red,241,TRUE
120,1660626673.826,2895,-1036,882,4.813,0.038,0.025,92.4,yellow,241,TRUE
121,1660626674.024,2379,3837,750,4.395,-1.454,-0.05,90.5,red,241,TRUE
122,1660626676.609,2898,-1041,882,4.813,0.038,0.025,97.7,yellow,241,TRUE
123,1660626676.808,2367,4161,750,4.609,-1.472,-0.032,94.5,red,241,TRUE
124,1660626679.399,2904,-1045,882,4.813,0.038,0.025,95.0,yellow,241,TRUE
125,1660626679.594,2378,4497,750,4.503,-1.475,-0.053,97.0,red,241,TRUE
126,1660626682.172,2905,-1046,882,4.813,0.038,0.025,86.2,yellow,241,TRUE
127,1660626682.366,2367,4820,750,4.559,-1.475,-0.014,88.8,red,241,TRUE
128,1660626682.709,2916,-1058,882,4.813,0.038,0.025,91.0,yellow,241,TRUE
129,1660626682.918,2371,5150,750,4.536,-1.478,-0.01,91.9,red,241,TRUE
130,1660626683.102,2914,-1053,882,4.813,0.038,0.025,87.4,yellow,241,TRUE
131,1660626683.28,2378,5450,750,4.528,-1.485,-0.011,90.5,red,241,TRUE
132,1660626683.508,2922,-1054,882,4.813,0.038,0.025,87.1,yellow,241,TRUE
133,1660626686.188,2892,-1063,882,4.813,0.038,0.025,96.5,yellow,241,TRUE
134,1660626686.376,2346,5718,750,4.496,-1.473,-0.028,91.9,red,241,TRUE
135,1660626686.542,2512,-1141,2526,4.829,-0.049,-0.099,124.2,green,241,TRUE
136,1660626686.761,2865,-1044,882,4.813,0.038,0.025,85.6,yellow,241,TRUE
137,1660626686.965,2317,5827,750,4.515,-1.476,-0.02,93.6,red,241,TRUE
138,1660626688.381,2875,-1048,882,4.813,0.038,0.025,94.7,yellow,241,TRUE
139,1660626688.566,2356,5852,750,4.514,-1.468,-0.017,90.4,red,241,TRUE
140,1660626690.031,2887,-1056,882,4.813,0.038,0.025,87.1,yellow,241,TRUE
141,1660626690.212,2343,5849,750,4.495,-1.472,-0.029,88.6,red,241,TRUE
142,1660626690.362,2504,-1128,2526,4.829,-0.049,-0.099,90.3,green,241,TRUE
143,1660626690.542,2891,-1059,882,4.813,0.038,0.025,89.6,yellow,241,TRUE
144,1660626690.723,2351,5856,750,4.539,-1.477,-0.037,90.1,red,241,TRUE
145,1660626692.131,2898,-1067,882,4.813,0.038,0.025,86.2,yellow,241,TRUE
146,1660626692.309,2363,5861,750,4.52,-1.454,-0.045,88.0,red,241,TRUE
147,1660626693.936,2366,5867,750,4.518,-1.472,-0.032,92.1,red,241,TRUE
148,1660626695.315,2877,-1054,882,4.813,0.038,0.025,87.5,yellow,241,TRUE
149,1660626695.551,2361,5861,750,4.556,-1.475,-0.027,90.4,red,241,TRUE
150,1660626695.881,2892,-1061,882,4.813,0.038,0.025,93.0,yellow,241,TRUE
151,1660626696.08,2335,5847,750,4.551,-1.48,-0.025,91.1,red,241,TRUE
152,1660626696.267,2882,-1053,882,4.813,0.038,0.025,84.8,yellow,241,TRUE
153,1660626696.457,2328,5842,750,4.533,-1.477,-0.02,91.9,red,241,TRUE
154,1660626696.759,2912,-1079,882,4.813,0.038,0.025,91.9,yellow,241,TRUE
155,1660626696.97,2317,5833,750,4.533,-1.466,-0.008,91.7,red,241,TRUE
156,1660626697.38,2914,-1083,882,4.813,0.038,0.025,91.5,yellow,241,TRUE
157,1660626697.561,2315,5830,750,4.52,-1.492,0.003,89.8,red,241,TRUE
158,1660626698.915,2923,-1086,882,4.813,0.038,0.025,92.4,yellow,241,TRUE
159,1660626699.105,2298,5825,750,4.607,-1.504,0.0,97.5,red,241,TRUE
160,1660626700.561,2930,-1089,882,4.813,0.038,0.025,92.8,yellow,241,TRUE
161,1660626700.756,2281,5816,750,4.591,-1.492,-0.007,93.7,red,241,TRUE
162,1660626702.252,2907,-1074,882,4.813,0.038,0.025,89.7,yellow,241,TRUE
163,1660626702.44,2256,5802,750,4.569,-1.5,-0.025,83.9,red,241,TRUE
164,1660626702.808,2897,-1062,882,4.813,0.038,0.025,94.2,yellow,241,TRUE
165,1660626703.019,2270,5810,750,4.575,-1.499,-0.019,92.1,red,241,TRUE
166,1660626703.214,2892,-1051,882,4.813,0.038,0.025,93.5,yellow,241,TRUE
167,1660626703.399,2266,5807,750,4.578,-1.501,-0.014,90.1,red,241,TRUE
168,1660626703.581,2877,-1038,882,4.813,0.038,0.025,88.8,yellow,241,TRUE
169,1660626703.762,2256,5805,750,4.568,-1.496,-0.02,89.6,red,241,TRUE
170,1660626704.153,2875,-1033,882,4.813,0.038,0.025,91.8,yellow,241,TRUE
171,1660626704.337,2254,5801,750,4.541,-1.476,-0.037,88.2,red,241,TRUE
172,1660626704.761,2275,5812,750,4.518,-1.47,-0.048,90.6,red,241,TRUE
173,1660626705.015,2798,-933,882,4.813,0.038,0.025,92.3,yellow,241,TRUE
174,1660626705.198,2303,5826,750,4.521,-1.479,-0.038,91.9,red,241,TRUE
175,1660626705.56,2800,-938,882,4.813,0.038,0.025,92.4,yellow,241,TRUE
176,1660626705.746,2327,5836,750,4.528,-1.487,-0.035,88.6,red,241,TRUE
177,1660626705.967,2772,-915,882,4.813,0.038,0.025,91.8,yellow,241,TRUE
178,1660626706.151,2333,5844,750,4.524,-1.49,-0.032,90.7,red,241,TRUE
179,1660626706.333,2761,-910,882,4.813,0.038,0.025,88.3,yellow,241,TRUE
180,1660626706.512,2311,5832,750,4.537,-1.499,-0.031,90.0,red,241,TRUE
181,1660626706.887,2758,-905,882,4.813,0.038,0.025,92.3,yellow,241,TRUE
182,1660626707.085,2303,5830,750,4.567,-1.501,-0.039,89.0,red,241,TRUE
183,1660626708.45,2301,5831,750,4.549,-1.481,-0.036,85.2,red,241,TRUE
184,1660626708.822,2756,-906,882,4.813,0.038,0.025,93.1,yellow,241,TRUE
185,1660626709.028,2334,5845,750,4.527,-1.477,-0.038,98.0,red,241,TRUE
186,1660626709.245,2770,-916,882,4.813,0.038,0.025,92.8,yellow,241,TRUE
187,1660626709.429,2345,5847,750,4.543,-1.485,-0.028,90.4,red,241,TRUE
188,1660626709.613,2781,-931,882,4.813,0.038,0.025,87.5,yellow,241,TRUE
189,1660626709.805,2332,5841,750,4.548,-1.492,-0.033,94.2,red,241,TRUE
190,1660626711.328,2799,-952,882,4.813,0.038,0.025,99.3,yellow,241,TRUE
191,1660626711.519,2336,5843,750,4.52,-1.486,-0.031,90.0,red,241,TRUE
192,1660626712.959,2825,-970,882,4.813,0.038,0.025,85.5,yellow,241,TRUE
193,1660626713.138,2344,5848,750,4.529,-1.478,-0.035,90.7,red,241,TRUE
194,1660626714.583,2836,-977,882,4.813,0.038,0.025,85.8,yellow,241,TRUE
195,1660626714.759,2341,5845,750,4.529,-1.476,-0.029,86.5,red,241,TRUE
196,1660626715.087,2914,-1087,882,4.813,0.038,0.025,104.5,yellow,241,TRUE
197,1660626715.284,2314,5833,750,4.535,-1.48,-0.04,88.9,red,241,TRUE
198,1660626715.477,2915,-1091,882,4.813,0.038,0.025,92.2,yellow,241,TRUE
199,1660626715.659,2285,5826,750,4.583,-1.498,-0.021,91.5,red,241,TRUE
200,1660626715.917,2912,-1086,882,4.813,0.038,0.025,91.1,yellow,241,TRUE
201,1660626716.116,2280,5820,750,4.646,-1.512,-0.033,90.7,red,241,TRUE
202,1660626716.42,2920,-1094,882,4.813,0.038,0.025,89.7,yellow,241,TRUE
203,1660626716.602,2298,5833,750,4.647,-1.517,-0.024,88.5,red,241,TRUE
204,1660626716.809,2923,-1094,882,4.813,0.038,0.025,91.2,yellow,241,TRUE
205,1660626717.021,2314,5839,750,4.611,-1.526,-0.019,91.5,red,241,TRUE
206,1660626717.277,2930,-1103,882,4.813,0.038,0.025,91.6,yellow,241,TRUE
207,1660626717.459,2317,5842,750,4.648,-1.532,-0.011,89.6,red,241,TRUE
208,1660626717.772,2927,-1103,882,4.813,0.038,0.025,92.6,yellow,241,TRUE
209,1660626717.983,2285,5831,750,4.629,-1.54,-0.019,91.8,red,241,TRUE
210,1660626718.18,2923,-1097,882,4.813,0.038,0.025,92.2,yellow,241,TRUE
211,1660626718.378,2255,5819,750,4.632,-1.552,-0.015,89.4,red,241,TRUE
212,1660626718.665,2914,-1084,882,4.813,0.038,0.025,89.9,yellow,241,TRUE
213,1660626718.843,2266,5827,750,4.623,-1.551,-0.017,90.6,red,241,TRUE
214,1660626720.371,2917,-1080,882,4.813,0.038,0.025,95.6,yellow,241,TRUE
215,1660626720.559,2233,5813,750,4.577,-1.523,-0.009,89.8,red,241,TRUE
216,1660626723.239,2207,5796,750,4.587,-1.517,-0.02,97.8,red,241,TRUE
217,1660626724.736,2860,-1032,882,4.813,0.038,0.025,94.4,yellow,241,TRUE
218,1660626724.933,2197,5795,750,4.536,-1.502,0.0,91.5,red,241,TRUE
219,1660626726.305,2862,-1033,882,4.813,0.038,0.025,88.9,yellow,241,TRUE
220,1660626726.493,2219,5807,750,4.505,-1.489,-0.003,96.1,red,241,TRUE
221,1660626726.891,2866,-1032,882,4.813,0.038,0.025,91.3,yellow,241,TRUE
222,1660626727.088,2244,5816,750,4.552,-1.479,0.01,89.7,red,241,TRUE
223,1660626727.37,2892,-1049,882,4.813,0.038,0.025,92.4,yellow,241,TRUE
224,1660626727.555,2245,5813,750,4.559,-1.472,0.019,91.3,red,241,TRUE
225,1660626728.907,2891,-1045,882,4.813,0.038,0.025,92.4,yellow,241,TRUE
226,1660626729.093,2171,5773,750,4.595,-1.446,0.256,85.6,red,241,TRUE
227,1660626730.565,2884,-1039,882,4.813,0.038,0.025,91.9,yellow,241,TRUE
228,1660626730.761,2206,5792,750,0.482,-1.413,-1.215,91.3,red,241,TRUE
229,1660626732.239,2879,-1039,882,4.813,0.038,0.025,90.2,yellow,241,TRUE
230,1660626732.428,2314,5779,750,0.022,-1.325,-0.029,96.1,red,241,TRUE
231,1660626732.613,2516,-1121,2526,4.829,-0.049,-0.099,90.5,green,241,TRUE
232,1660626732.856,2881,-1030,882,4.813,0.038,0.025,90.5,yellow,241,TRUE
233,1660626733.052,2429,5790,750,5.991,-1.419,-0.249,92.1,red,241,TRUE
234,1660626734.578,2534,5779,750,6.0,-1.439,0.045,90.4,red,241,TRUE
235,1660626734.732,2516,-1118,2526,4.829,-0.049,-0.099,133.2,green,241,TRUE
236,1660626734.983,2908,-1027,882,4.813,0.038,0.025,91.6,yellow,241,TRUE
237,1660626735.166,2606,5766,750,5.989,-1.414,-0.283,91.0,red,241,TRUE
238,1660626735.26,2515,-1118,2526,4.829,-0.049,-0.099,88.9,green,241,TRUE
239,1660626735.482,2908,-1019,882,4.813,0.038,0.025,91.3,yellow,241,TRUE
240,1660626735.664,2711,5759,750,5.973,-1.425,-0.122,90.5,red,241,TRUE
241,1660626736.083,2941,-1058,882,4.813,0.038,0.025,92.6,yellow,241,TRUE
242,1660626736.268,2803,5758,750,5.99,-1.427,-0.063,88.3,red,241,TRUE
243,1660626737.706,2933,-1049,882,4.813,0.038,0.025,96.5,yellow,241,TRUE
244,1660626737.907,2873,5748,750,5.886,-1.393,-0.313,93.2,red,241,TRUE
245,1660626739.363,2932,-1051,882,4.813,0.038,0.025,83.7,yellow,241,TRUE
246,1660626739.541,2937,5735,750,5.921,-1.409,-0.333,87.1,red,241,TRUE
247,1660626739.851,2934,-1055,882,4.813,0.038,0.025,92.2,yellow,241,TRUE
248,1660626740.05,3003,5712,750,5.929,-1.41,-0.332,91.4,red,241,TRUE
249,1660626740.259,2918,-1043,882,4.813,0.038,0.025,94.5,yellow,241,TRUE
250,1660626740.472,3074,5691,750,5.923,-1.412,-0.36,91.3,red,241,TRUE
251,1660626740.727,2911,-1044,882,4.813,0.038,0.025,92.4,yellow,241,TRUE
252,1660626740.938,3220,5709,750,5.923,-1.408,-0.364,91.3,red,241,TRUE
253,1660626741.255,2897,-1037,882,4.813,0.038,0.025,77.5,yellow,241,TRUE
254,1660626741.452,3259,5672,750,5.914,-1.402,-0.37,93.1,red,241,TRUE
255,1660626741.638,2885,-1024,882,4.813,0.038,0.025,87.3,yellow,241,TRUE
256,1660626741.818,3248,5662,750,5.9,-1.408,-0.379,89.8,red,241,TRUE
257,1660626742.134,2881,-1024,882,4.813,0.038,0.025,90.6,yellow,241,TRUE
258,1660626742.317,3237,5629,750,5.901,-1.403,-0.382,90.4,red,241,TRUE
259,1660626743.802,2857,-1034,882,4.813,0.038,0.025,96.4,yellow,241,TRUE
260,1660626744.003,3225,5634,750,5.919,-1.406,-0.345,91.9,red,241,TRUE
261,1660626745.463,2851,-1026,882,4.813,0.038,0.025,96.5,yellow,241,TRUE
262,1660626745.651,3223,5629,750,5.943,-1.424,-0.171,89.2,red,241,TRUE
263,1660626747.059,2836,-1024,882,4.813,0.038,0.025,83.8,yellow,241,TRUE
264,1660626747.235,3225,5623,750,5.985,-1.414,-0.029,88.2,red,241,TRUE
265,1660626747.429,2510,-1114,2526,4.829,-0.049,-0.099,90.6,green,241,TRUE
266,1660626747.69,2830,-1011,882,4.813,0.038,0.025,87.3,yellow,241,TRUE
267,1660626747.868,3230,5627,750,5.991,-1.427,-0.063,89.9,red,241,TRUE
268,1660626747.987,2529,-1108,2526,4.829,-0.049,-0.099,91.9,green,241,TRUE
269,1660626748.25,2836,-1019,882,4.813,0.038,0.025,87.9,yellow,241,TRUE
270,1660626748.441,3232,5627,750,5.991,-1.427,-0.033,93.0,red,241,TRUE
271,1660626749.884,2837,-1014,882,4.813,0.038,0.025,93.7,yellow,241,TRUE
272,1660626750.067,3243,5606,750,5.958,-1.419,0.031,90.5,red,241,TRUE
273,1660626751.489,2831,-1006,882,4.813,0.038,0.025,83.6,yellow,241,TRUE
274,1660626751.666,3244,5608,750,5.944,-1.412,-0.121,89.4,red,241,TRUE
275,1660626751.817,2521,-1100,2526,4.829,-0.049,-0.099,89.7,green,241,TRUE
276,1660626752.086,2832,-1006,882,4.813,0.038,0.025,90.3,yellow,241,TRUE
277,1660626752.27,3245,5618,750,5.938,-1.405,-0.085,87.3,red,241,TRUE
278,1660626752.37,2514,-1099,2526,4.829,-0.049,-0.099,92.4,green,241,TRUE
279,1660626752.644,2828,-997,882,4.813,0.038,0.025,91.3,yellow,241,TRUE
280,1660626752.828,3253,5614,750,5.945,-1.401,-0.067,88.0,red,241,TRUE
281,1660626752.93,2526,-1086,2526,4.829,-0.049,-0.099,92.8,green,241,TRUE
282,1660626753.219,2840,-997,882,4.813,0.038,0.025,89.5,yellow,241,TRUE
283,1660626753.399,3257,5609,750,5.938,-1.409,-0.067,89.9,red,241,TRUE
284,1660626754.826,2853,-1011,882,4.813,0.038,0.025,97.5,yellow,241,TRUE
285,1660626755.028,3258,5657,750,5.996,-1.41,-0.002,92.4,red,241,TRUE
286,1660626756.662,3256,5661,750,5.959,-1.416,-0.01,89.3,red,241,TRUE
287,1660626756.813,2527,-1089,2526,4.829,-0.049,-0.099,119.2,green,241,TRUE
288,1660626757.13,2869,-1026,882,4.813,0.038,0.025,88.7,yellow,241,TRUE
289,1660626757.312,3268,5663,750,5.961,-1.418,-0.014,90.1,red,241,TRUE
290,1660626758.743,2881,-1039,882,4.813,0.038,0.025,93.8,yellow,241,TRUE
291,1660626758.93,3281,5652,750,5.952,-1.406,-0.084,87.8,red,241,TRUE
292,1660626759.078,2531,-1090,2526,4.829,-0.049,-0.099,91.2,green,241,TRUE
293,1660626759.334,2875,-1033,882,4.813,0.038,0.025,90.9,yellow,241,TRUE
294,1660626759.544,3281,5644,750,5.945,-1.407,-0.13,92.3,red,241,TRUE
295,1660626760.911,2874,-1032,882,4.813,0.038,0.025,97.5,yellow,241,TRUE
296,1660626761.098,3271,5645,750,5.953,-1.4,-0.058,91.1,red,241,TRUE
297,1660626761.251,2527,-1087,2526,4.829,-0.049,-0.099,103.5,green,241,TRUE
298,1660626761.549,2871,-1028,882,4.813,0.038,0.025,91.7,yellow,241,TRUE
299,1660626761.731,3272,5643,750,5.942,-1.396,-0.007,91.5,red,241,TRUE
300,1660626761.829,2537,-1097,2526,4.829,-0.049,-0.099,114.6,green,241,TRUE
301,1660626762.125,2856,-1014,882,4.813,0.038,0.025,88.7,yellow,241,TRUE
302,1660626762.307,3267,5697,750,5.938,-1.388,-0.008,87.8,red,241,TRUE
303,1660626762.408,2540,-1099,2526,4.829,-0.049,-0.099,92.8,green,241,TRUE
304,1660626762.681,2862,-1017,882,4.813,0.038,0.025,90.5,yellow,241,TRUE
305,1660626762.862,3265,5703,750,5.928,-1.394,-0.071,88.6,red,241,TRUE
306,1660626763.011,2535,-1090,2526,4.829,-0.049,-0.099,92.2,green,241,TRUE
307,1660626763.272,2857,-1009,882,4.813,0.038,0.025,87.7,yellow,241,TRUE
308,1660626763.464,3273,5677,750,5.908,-1.391,-0.123,92.4,red,241,TRUE
309,1660626764.82,2859,-1012,882,4.813,0.038,0.025,94.2,yellow,241,TRUE
310,1660626765.006,3267,5682,750,5.91,-1.393,-0.147,90.4,red,241,TRUE
311,1660626765.156,2533,-1114,2526,4.829,-0.049,-0.099,90.8,green,241,TRUE
312,1660626765.426,2857,-1010,882,4.813,0.038,0.025,93.2,yellow,241,TRUE
313,1660626765.625,3267,5702,750,5.936,-1.402,-0.152,89.8,red,241,TRUE
314,1660626765.718,2545,-1120,2526,4.829,-0.049,-0.099,102.3,green,241,TRUE
315,1660626765.989,2849,-1003,882,4.813,0.038,0.025,88.2,yellow,241,TRUE
316,1660626766.17,3264,5683,750,5.92,-1.403,-0.139,89.5,red,241,TRUE
317,1660626767.533,2842,-999,882,4.813,0.038,0.025,98.1,yellow,241,TRUE
318,1660626767.723,3261,5721,750,5.945,-1.41,-0.033,87.9,red,241,TRUE
319,1660626767.87,2540,-1114,2526,4.829,-0.049,-0.099,107.8,green,241,TRUE
320,1660626768.145,2846,-1004,882,4.813,0.038,0.025,90.1,yellow,241,TRUE
321,1660626768.325,3258,5711,750,5.907,-1.405,-0.047,88.1,red,241,TRUE
322,1660626768.442,2539,-1113,2526,4.829,-0.049,-0.099,93.1,green,241,TRUE
323,1660626768.73,2836,-991,882,4.813,0.038,0.025,89.0,yellow,241,TRUE
324,1660626768.91,3251,5740,750,5.932,-1.413,-0.052,89.1,red,241,TRUE
325,1660626769.003,2541,-1117,2526,4.829,-0.049,-0.099,101.9,green,241,TRUE
326,1660626769.273,2842,-998,882,4.813,0.038,0.025,87.8,yellow,241,TRUE
327,1660626769.464,3243,5753,750,5.943,-1.417,-0.095,91.3,red,241,TRUE
328,1660626769.613,2532,-1134,2526,4.829,-0.049,-0.099,107.6,green,241,TRUE
329,1660626769.886,2847,-1004,882,4.813,0.038,0.025,89.2,yellow,241,TRUE
330,1660626770.068,3247,5743,750,5.956,-1.421,-0.059,88.4,red,241,TRUE
331,1660626770.159,2533,-1139,2526,4.829,-0.049,-0.099,102.3,green,241,TRUE
332,1660626770.455,2858,-1011,882,4.813,0.038,0.025,93.3,yellow,241,TRUE
333,1660626770.652,3254,5744,750,5.973,-1.418,-0.017,89.2,red,241,TRUE
334,1660626770.745,2542,-1144,2526,4.829,-0.049,-0.099,119.0,green,241,TRUE
335,1660626771.033,2868,-1025,882,4.813,0.038,0.025,86.6,yellow,241,TRUE
336,1660626771.211,3261,5702,750,5.955,-1.413,-0.072,91.4,red,241,TRUE
337,1660626771.361,2537,-1139,2526,4.829,-0.049,-0.099,93.6,green,241,TRUE
338,1660626771.636,2859,-1020,882,4.813,0.038,0.025,90.6,yellow,241,TRUE
339,1660626771.818,3274,5694,750,5.943,-1.408,-0.133,89.8,red,241,TRUE
340,1660626771.913,2538,-1141,2526,4.829,-0.049,-0.099,100.1,green,241,TRUE
341,1660626772.18,2858,-1022,882,4.813,0.038,0.025,89.5,yellow,241,TRUE
342,1660626772.363,3271,5739,750,5.976,-1.396,-0.048,88.6,red,241,TRUE
343,1660626773.772,2879,-1037,882,4.813,0.038,0.025,93.9,yellow,241,TRUE
344,1660626773.958,3271,5759,750,5.94,-1.333,0.04,90.0,red,241,TRUE
345,1660626775.386,2880,-1039,882,4.813,0.038,0.025,84.3,yellow,241,TRUE
346,1660626775.571,3274,5755,750,6.024,-1.358,0.067,98.7,red,241,TRUE
347,1660626777.066,2884,-1044,882,4.813,0.038,0.025,97.7,yellow,241,TRUE
348,1660626777.254,3265,5741,750,6.066,-1.377,0.069,91.5,red,241,TRUE
349,1660626777.649,2884,-1037,882,4.813,0.038,0.025,89.9,yellow,241,TRUE
350,1660626777.83,3263,5741,750,6.068,-1.379,0.124,88.1,red,241,TRUE
351,1660626778.101,2887,-1037,882,4.813,0.038,0.025,90.4,yellow,241,TRUE
352,1660626778.286,3264,5790,750,6.073,-1.376,0.163,88.9,red,241,TRUE
353,1660626778.585,2895,-1054,882,4.813,0.038,0.025,90.5,yellow,241,TRUE
354,1660626778.769,3262,5780,750,6.077,-1.38,0.187,87.0,red,241,TRUE
355,1660626778.945,2534,-1145,2526,4.829,-0.049,-0.099,91.4,green,241,TRUE
356,1660626779.203,2909,-1060,882,4.813,0.038,0.025,90.0,yellow,241,TRUE
357,1660626779.385,3272,5797,750,6.08,-1.391,0.199,88.8,red,241,TRUE
358,1660626780.84,2904,-1062,882,4.813,0.038,0.025,94.2,yellow,241,TRUE
359,1660626781.025,3276,5796,750,6.087,-1.412,0.117,87.5,red,241,TRUE
360,1660626781.173,2532,-1141,2526,4.829,-0.049,-0.099,107.1,green,241,TRUE
361,1660626781.473,2898,-1056,882,4.813,0.038,0.025,93.0,yellow,241,TRUE
362,1660626781.67,3287,5803,750,6.077,-1.413,0.051,89.5,red,241,TRUE
363,1660626783.008,2890,-1045,882,4.813,0.038,0.025,95.1,yellow,241,TRUE
364,1660626783.196,3283,5811,750,6.077,-1.405,-0.106,90.0,red,241,TRUE
365,1660626783.346,2538,-1147,2526,4.829,-0.049,-0.099,105.1,green,241,TRUE
366,1660626783.632,2901,-1049,882,4.813,0.038,0.025,90.7,yellow,241,TRUE
367,1660626783.817,3281,5809,750,6.075,-1.403,-0.124,85.3,red,241,TRUE
368,1660626783.904,2540,-1146,2526,4.829,-0.049,-0.099,105.0,green,241,TRUE
369,1660626784.191,2908,-1055,882,4.813,0.038,0.025,90.4,yellow,241,TRUE
370,1660626784.372,3288,5819,750,6.054,-1.398,-0.093,91.1,red,241,TRUE
371,1660626784.491,2553,-1129,2526,4.829,-0.049,-0.099,107.8,green,241,TRUE
372,1660626784.814,2919,-1067,882,4.813,0.038,0.025,87.0,yellow,241,TRUE
373,1660626784.992,3291,5847,750,6.056,-1.404,-0.014,87.9,red,241,TRUE
374,1660626786.418,2942,-1088,882,4.813,0.038,0.025,95.4,yellow,241,TRUE
375,1660626786.603,3293,5833,750,6.0,-1.404,0.014,90.5,red,241,TRUE
376,1660626786.755,2538,-1141,2526,4.829,-0.049,-0.099,90.4,green,241,TRUE
377,1660626787.026,2940,-1084,882,4.813,0.038,0.025,90.8,yellow,241,TRUE
378,1660626787.207,3298,5841,750,5.985,-1.402,0.024,91.0,red,241,TRUE
379,1660626787.301,2541,-1142,2526,4.829,-0.049,-0.099,102.3,green,241,TRUE
380,1660626788.596,2943,-1096,882,4.813,0.038,0.025,90.3,yellow,241,TRUE
381,1660626788.787,3302,5811,750,6.006,-1.391,0.095,95.0,red,241,TRUE
382,1660626788.942,2528,-1149,2526,4.829,-0.049,-0.099,90.2,green,241,TRUE
383,1660626789.2,2932,-1090,882,4.813,0.038,0.025,89.6,yellow,241,TRUE
384,1660626789.381,3304,5763,750,5.988,-1.397,0.083,89.8,red,241,TRUE
385,1660626789.498,2511,-1155,2526,4.829,-0.049,-0.099,79.0,green,241,TRUE
386,1660626789.747,2938,-1086,882,4.813,0.038,0.025,86.9,yellow,241,TRUE
387,1660626789.926,3313,5742,750,6.0,-1.403,0.169,87.5,red,241,TRUE
388,1660626790.017,2523,-1144,2526,4.829,-0.049,-0.099,87.4,green,241,TRUE
389,1660626790.277,2928,-1080,882,4.813,0.038,0.025,87.8,yellow,241,TRUE
390,1660626790.467,3296,5743,750,6.005,-1.404,0.225,93.3,red,241,TRUE
391,1660626790.619,2511,-1158,2526,4.829,-0.049,-0.099,92.6,green,241,TRUE
392,1660626790.894,2924,-1068,882,4.813,0.038,0.025,89.2,yellow,241,TRUE
393,1660626791.074,3292,5749,750,6.001,-1.406,0.232,90.0,red,241,TRUE
394,1660626791.168,2513,-1161,2526,4.829,-0.049,-0.099,86.4,green,241,TRUE
395,1660626791.433,2937,-1080,882,4.813,0.038,0.025,92.3,yellow,241,TRUE
396,1660626791.632,3274,5743,750,6.006,-1.4,0.179,93.1,red,241,TRUE
397,1660626793.003,2941,-1084,882,4.813,0.038,0.025,94.0,yellow,241,TRUE
398,1660626793.193,3273,5743,750,5.995,-1.394,0.14,86.9,red,241,TRUE
399,1660626793.338,2491,-1169,2526,4.829,-0.049,-0.099,91.9,green,241,TRUE
400,1660626793.628,2934,-1084,882,4.813,0.038,0.025,90.9,yellow,241,TRUE
401,1660626793.812,3276,5732,750,6.002,-1.4,0.143,87.6,red,241,TRUE
402,1660626793.912,2493,-1169,2526,4.829,-0.049,-0.099,92.7,green,241,TRUE
403,1660626794.173,2944,-1097,882,4.813,0.038,0.025,87.6,yellow,241,TRUE
404,1660626794.354,3276,5697,750,6.0,-1.401,0.172,89.4,red,241,TRUE
405,1660626794.47,2491,-1172,2526,4.829,-0.049,-0.099,91.5,green,241,TRUE
406,1660626794.73,2919,-1080,882,4.813,0.038,0.025,89.9,yellow,241,TRUE
407,1660626794.909,3277,5664,750,6.007,-1.403,0.2,89.5,red,241,TRUE
408,1660626796.359,2890,-1058,882,4.813,0.038,0.025,96.0,yellow,241,TRUE
409,1660626796.558,3269,5677,750,6.021,-1.414,0.184,92.0,red,241,TRUE
410,1660626798.009,2896,-1059,882,4.813,0.038,0.025,95.2,yellow,241,TRUE
411,1660626798.195,3281,5691,750,6.05,-1.403,0.157,90.7,red,241,TRUE
412,1660626799.667,2899,-1051,882,4.813,0.038,0.025,83.5,yellow,241,TRUE
413,1660626799.842,3267,5682,750,6.082,-1.416,0.067,88.8,red,241,TRUE
414,1660626801.392,2894,-1051,882,4.813,0.038,0.025,94.8,yellow,241,TRUE
415,1660626801.587,3289,5684,750,0.173,-1.355,0.152,95.8,red,241,TRUE
416,1660626803.095,2883,-1043,882,4.813,0.038,0.025,94.9,yellow,241,TRUE
417,1660626803.285,3311,5649,750,1.127,-1.506,-0.031,87.1,red,241,TRUE
418,1660626804.768,2871,-1037,882,4.813,0.038,0.025,85.0,yellow,241,TRUE
419,1660626804.948,3358,5530,750,1.493,-1.446,-0.206,100.9,red,241,TRUE
420,1660626805.337,2879,-1043,882,4.813,0.038,0.025,89.2,yellow,241,TRUE
421,1660626805.545,3415,5399,750,1.614,-1.338,-0.088,91.4,red,241,TRUE
422,1660626805.832,2871,-1041,882,4.813,0.038,0.025,92.4,yellow,241,TRUE
423,1660626806.043,3472,5238,750,1.971,-1.298,-0.166,91.5,red,241,TRUE
424,1660626806.312,2877,-1055,882,4.813,0.038,0.025,93.0,yellow,241,TRUE
425,1660626806.524,3537,5051,750,2.078,-1.439,-0.319,91.7,red,241,TRUE
426,1660626806.932,2879,-1089,882,4.813,0.038,0.025,76.8,yellow,241,TRUE
427,1660626807.116,3592,4871,750,1.983,-1.417,-0.215,90.8,red,241,TRUE
428,1660626807.403,2861,-1069,882,4.813,0.038,0.025,91.6,yellow,241,TRUE
429,1660626807.601,3621,4657,750,1.987,-1.306,-0.144,89.0,red,241,TRUE
430,1660626807.886,2855,-1082,882,4.813,0.038,0.025,92.8,yellow,241,TRUE
431,1660626808.085,3673,4427,750,1.677,-1.342,0.16,89.7,red,241,TRUE
432,1660626808.25,2510,-1152,2526,4.829,-0.049,-0.099,106.6,green,241,TRUE
433,1660626808.537,2856,-1101,882,4.813,0.038,0.025,92.1,yellow,241,TRUE
434,1660626808.721,3717,4171,750,1.148,-1.311,-0.067,89.7,red,241,TRUE
435,1660626810.075,2847,-1091,882,4.813,0.038,0.025,98.0,yellow,241,TRUE
436,1660626810.264,3747,3905,750,0.678,-1.409,-0.159,89.8,red,241,TRUE
437,1660626811.748,2863,-1109,882,4.813,0.038,0.025,97.4,yellow,241,TRUE
438,1660626811.938,3801,3673,750,0.661,-1.413,-0.052,88.5,red,241,TRUE
439,1660626813.428,2860,-1108,882,4.813,0.038,0.025,94.5,yellow,241,TRUE
440,1660626813.614,3814,3446,750,0.671,-1.42,-0.053,89.8,red,241,TRUE
441,1660626815.083,2861,-1104,882,4.813,0.038,0.025,97.1,yellow,241,TRUE
442,1660626815.272,3826,3277,750,0.612,-1.424,-0.034,89.9,red,241,TRUE
443,1660626816.761,2862,-1093,882,4.813,0.038,0.025,96.1,yellow,241,TRUE
444,1660626816.948,3823,3148,750,0.624,-1.417,0.038,90.3,red,241,TRUE
445,1660626818.439,2862,-1101,882,4.813,0.038,0.025,93.7,yellow,241,TRUE
446,1660626818.625,3804,3036,750,0.631,-1.431,0.073,92.2,red,241,TRUE
447,1660626820.053,2859,-1098,882,4.813,0.038,0.025,98.1,yellow,241,TRUE
448,1660626820.242,3788,2947,750,0.626,-1.422,-0.013,91.4,red,241,TRUE
449,1660626821.638,2845,-1075,882,4.813,0.038,0.025,98.9,yellow,241,TRUE
450,1660626821.832,3763,2918,750,0.631,-1.412,0.022,87.0,red,241,TRUE
451,1660626823.549,3742,2883,750,0.616,-1.408,0.035,88.9,red,241,TRUE
452,1660626823.926,2843,-1037,882,4.813,0.038,0.025,90.3,yellow,241,TRUE
453,1660626824.121,3745,2885,750,0.623,-1.416,0.015,91.3,red,241,TRUE
454,1660626824.404,2835,-1032,882,4.813,0.038,0.025,92.8,yellow,241,TRUE
455,1660626824.603,3728,2864,750,0.623,-1.42,0.01,90.3,red,241,TRUE
456,1660626824.887,2835,-1011,882,4.813,0.038,0.025,92.9,yellow,241,TRUE
457,1660626825.098,3722,2873,750,0.632,-1.419,0.043,93.3,red,241,TRUE
458,1660626825.494,2850,-1006,882,4.813,0.038,0.025,89.1,yellow,241,TRUE
459,1660626825.69,3716,2877,750,0.628,-1.417,0.013,89.5,red,241,TRUE
460,1660626825.976,2854,-1011,882,4.813,0.038,0.025,89.2,yellow,241,TRUE
461,1660626826.171,3712,2878,750,0.633,-1.414,0.002,91.0,red,241,TRUE
462,1660626826.439,2842,-998,882,4.813,0.038,0.025,93.2,yellow,241,TRUE
463,1660626826.639,3713,2899,750,0.631,-1.407,-0.055,90.3,red,241,TRUE
464,1660626826.804,2495,-1212,2526,4.829,-0.049,-0.099,120.8,green,241,TRUE
465,1660626827.105,2853,-1000,882,4.813,0.038,0.025,89.7,yellow,241,TRUE
466,1660626827.291,3711,2873,750,0.635,-1.402,-0.135,86.1,red,241,TRUE
467,1660626827.382,2481,-1220,2526,4.829,-0.049,-0.099,99.1,green,241,TRUE
468,1660626827.68,2854,-1008,882,4.813,0.038,0.025,90.3,yellow,241,TRUE
469,1660626827.863,3717,2877,750,0.639,-1.409,-0.154,86.4,red,241,TRUE
470,1660626829.238,2856,-1020,882,4.813,0.038,0.025,98.8,yellow,241,TRUE
471,1660626829.441,3721,2884,750,0.645,-1.419,-0.097,91.8,red,241,TRUE
472,1660626830.887,2853,-1014,882,4.813,0.038,0.025,91.5,yellow,241,TRUE
473,1660626831.07,3726,2896,750,0.652,-1.421,-0.07,89.3,red,241,TRUE
474,1660626831.219,2455,-1256,2526,4.829,-0.049,-0.099,108.8,green,241,TRUE
475,1660626831.51,2869,-1028,882,4.813,0.038,0.025,88.4,yellow,241,TRUE
476,1660626831.688,3729,2878,750,0.642,-1.425,-0.125,90.9,red,241,TRUE
477,1660626833.089,2871,-1055,882,4.813,0.038,0.025,97.2,yellow,241,TRUE
478,1660626833.278,3729,2871,750,0.653,-1.425,-0.011,90.4,red,241,TRUE
479,1660626834.745,2882,-1068,882,4.813,0.038,0.025,99.0,yellow,241,TRUE
480,1660626834.934,3731,2874,750,0.637,-1.415,0.014,88.5,red,241,TRUE
481,1660626835.084,2441,-1268,2526,4.829,-0.049,-0.099,121.5,green,241,TRUE
482,1660626835.422,2897,-1081,882,4.813,0.038,0.025,85.4,yellow,241,TRUE
483,1660626835.601,3739,2895,750,0.632,-1.414,-0.02,89.1,red,241,TRUE
484,1660626837.067,2900,-1079,882,4.813,0.038,0.025,86.5,yellow,241,TRUE
485,1660626837.245,3747,2914,750,0.585,-1.407,-0.103,90.1,red,241,TRUE
486,1660626838.732,2882,-1062,882,4.813,0.038,0.025,84.8,yellow,241,TRUE
487,1660626838.91,3752,2918,750,0.572,-1.407,-0.04,90.7,red,241,TRUE
488,1660626841.416,2883,-1065,882,4.813,0.038,0.025,84.4,yellow,241,TRUE
489,1660626841.599,3758,2954,750,0.592,-1.404,-0.19,86.0,red,241,TRUE
490,1660626841.759,2429,-1266,2526,4.829,-0.049,-0.099,92.6,green,241,TRUE
491,1660626843.1,2880,-1064,882,4.813,0.038,0.025,89.2,yellow,241,TRUE
492,1660626843.289,3759,2938,750,0.599,-1.407,-0.192,97.8,red,241,TRUE
493,1660626844.987,3763,2936,750,0.609,-1.418,-0.142,89.0,red,241,TRUE
494,1660626846.518,2861,-1048,882,4.813,0.038,0.025,97.0,yellow,241,TRUE
495,1660626846.71,3762,2951,750,0.629,-1.421,-0.099,85.6,red,241,TRUE
496,1660626849.153,2880,-1053,882,4.813,0.038,0.025,97.5,yellow,241,TRUE
497,1660626849.352,3757,2942,750,0.616,-1.425,-0.074,94.7,red,241,TRUE
498,1660626850.82,2904,-1073,882,4.813,0.038,0.025,90.1,yellow,241,TRUE
499,1660626851.011,3750,2936,750,0.633,-1.417,-0.062,95.1,red,241,TRUE
500,1660626852.447,2891,-1060,882,4.813,0.038,0.025,92.1,yellow,241,TRUE
501,1660626852.639,3746,2930,750,0.638,-1.426,-0.1,94.1,red,241,TRUE
502,1660626853.033,2889,-1041,882,4.813,0.038,0.025,93.4,yellow,241,TRUE
503,1660626853.216,3748,2932,750,0.633,-1.419,-0.167,90.6,red,241,TRUE
504,1660626853.44,2880,-1031,882,4.813,0.038,0.025,94.1,yellow,241,TRUE
505,1660626853.624,3742,2904,750,0.617,-1.419,-0.16,88.5,red,241,TRUE
506,1660626853.817,2893,-1043,882,4.813,0.038,0.025,93.1,yellow,241,TRUE
507,1660626854.028,3737,2883,750,0.617,-1.42,-0.119,92.5,red,241,TRUE
508,1660626854.403,2893,-1047,882,4.813,0.038,0.025,92.2,yellow,241,TRUE
509,1660626854.587,3737,2872,750,0.635,-1.419,-0.107,88.6,red,241,TRUE
510,1660626854.779,2909,-1064,882,4.813,0.038,0.025,92.7,yellow,241,TRUE
511,1660626854.977,3734,2872,750,0.629,-1.418,-0.107,93.2,red,241,TRUE
512,1660626855.191,2906,-1063,882,4.813,0.038,0.025,90.1,yellow,241,TRUE
513,1660626855.374,3728,2841,750,0.616,-1.42,-0.141,89.4,red,241,TRUE
514,1660626855.746,2906,-1058,882,4.813,0.038,0.025,92.1,yellow,241,TRUE
515,1660626855.929,3726,2831,750,0.645,-1.428,-0.101,90.2,red,241,TRUE
516,1660626857.317,3725,2833,750,0.614,-1.437,-0.13,87.6,red,241,TRUE
517,1660626857.678,2918,-1087,882,4.813,0.038,0.025,89.6,yellow,241,TRUE
518,1660626857.862,3727,2805,750,0.592,-1.438,-0.145,88.5,red,241,TRUE
519,1660626858.083,2910,-1080,882,4.813,0.038,0.025,91.0,yellow,241,TRUE
520,1660626858.267,3733,2804,750,0.588,-1.439,-0.08,88.3,red,241,TRUE
521,1660626858.488,2908,-1085,882,4.813,0.038,0.025,92.9,yellow,241,TRUE
522,1660626858.672,3740,2801,750,0.564,-1.44,-0.117,90.7,red,241,TRUE
523,1660626859.123,2893,-1072,882,4.813,0.038,0.025,93.4,yellow,241,TRUE
524,1660626859.307,3734,2802,750,0.333,-1.426,-0.638,90.3,red,241,TRUE
525,1660626860.652,2883,-1064,882,4.813,0.038,0.025,89.9,yellow,241,TRUE
526,1660626860.847,3729,2821,750,0.249,-1.496,-0.02,91.2,red,241,TRUE
527,1660626862.253,2882,-1063,882,4.813,0.038,0.025,90.3,yellow,241,TRUE
528,1660626862.443,3735,2845,750,0.389,-1.502,-0.02,96.7,red,241,TRUE
529,1660626863.918,2882,-1063,882,4.813,0.038,0.025,88.4,yellow,241,TRUE
530,1660626864.105,3736,2870,750,0.42,-1.498,-0.016,82.7,red,241,TRUE
531,1660626864.457,2865,-1044,882,4.813,0.038,0.025,93.3,yellow,241,TRUE
532,1660626864.655,3736,2884,750,0.452,-1.506,-0.009,92.2,red,241,TRUE
533,1660626864.865,2859,-1038,882,4.813,0.038,0.025,92.4,yellow,241,TRUE
534,1660626865.079,3740,2904,750,0.485,-1.503,-0.01,90.8,red,241,TRUE
535,1660626865.273,2856,-1028,882,4.813,0.038,0.025,92.2,yellow,241,TRUE
536,1660626865.485,3744,2924,750,0.484,-1.503,-0.008,91.1,red,241,TRUE
537,1660626865.88,2862,-1033,882,4.813,0.038,0.025,88.6,yellow,241,TRUE
538,1660626866.071,3745,2942,750,0.464,-1.498,-0.014,93.2,red,241,TRUE
539,1660626867.375,2858,-1038,882,4.813,0.038,0.025,92.4,yellow,241,TRUE
540,1660626867.566,3743,2957,750,0.493,-1.485,-0.005,97.2,red,241,TRUE
541,1660626869.036,2858,-1046,882,4.813,0.038,0.025,91.2,yellow,241,TRUE
542,1660626869.226,3743,2971,750,0.597,-1.478,-0.003,84.1,red,241,TRUE
543,1660626871.811,2838,-1045,882,4.813,0.038,0.025,82.6,yellow,241,TRUE
544,1660626871.996,3744,2990,750,0.555,-1.467,0.009,94.6,red,241,TRUE
545,1660626873.469,2814,-1027,882,4.813,0.038,0.025,83.7,yellow,241,TRUE
546,1660626873.643,3744,3011,750,0.591,-1.466,0.015,89.4,red,241,TRUE
547,1660626875.066,2794,-1035,882,4.813,0.038,0.025,84.6,yellow,241,TRUE
548,1660626875.24,3752,3022,750,0.623,-1.472,0.031,89.9,red,241,TRUE
549,1660626876.66,2795,-1052,882,4.813,0.038,0.025,88.3,yellow,241,TRUE
550,1660626876.843,3757,3022,750,0.609,-1.462,0.025,85.5,red,241,TRUE
551,1660626878.293,2802,-1076,882,4.813,0.038,0.025,84.6,yellow,241,TRUE
552,1660626878.47,3758,3021,750,0.573,-1.47,0.012,88.4,red,241,TRUE
553,1660626879.936,2799,-1076,882,4.813,0.038,0.025,85.0,yellow,241,TRUE
554,1660626880.126,3760,3016,750,0.6,-1.473,0.035,92.7,red,241,TRUE
555,1660626880.309,2434,-1269,2526,4.829,-0.049,-0.099,107.2,green,241,TRUE
556,1660626880.52,2822,-1104,882,4.813,0.038,0.025,91.9,yellow,241,TRUE
557,1660626880.719,3763,3033,750,0.604,-1.473,0.034,90.9,red,241,TRUE
558,1660626882.188,2800,-1131,882,4.813,0.038,0.025,84.2,yellow,241,TRUE
559,1660626882.367,3764,3026,750,0.869,-1.515,-0.015,86.7,red,241,TRUE
560,1660626884.906,2793,-1132,882,4.813,0.038,0.025,96.1,yellow,241,TRUE
561,1660626885.115,3775,3022,750,0.819,-1.497,-0.007,97.7,red,241,TRUE
562,1660626887.694,2793,-1131,882,4.813,0.038,0.025,85.8,yellow,241,TRUE
563,1660626887.88,3781,2984,750,0.336,-1.443,-0.208,96.2,red,241,TRUE
564,1660626889.263,2789,-1120,882,4.813,0.038,0.025,90.3,yellow,241,TRUE
565,1660626889.457,3804,2979,750,0.447,-1.439,-0.056,95.2,red,241,TRUE
566,1660626889.824,2795,-1100,882,4.813,0.038,0.025,89.9,yellow,241,TRUE
567,1660626890.005,3821,2973,750,0.441,-1.401,-0.004,89.8,red,241,TRUE
568,1660626890.232,2801,-1085,882,4.813,0.038,0.025,89.4,yellow,241,TRUE
569,1660626890.413,3838,2957,750,0.431,-1.382,-0.011,89.5,red,241,TRUE
570,1660626890.651,2817,-1099,882,4.813,0.038,0.025,94.3,yellow,241,TRUE
571,1660626890.84,3854,2928,750,0.436,-1.39,-0.017,85.6,red,241,TRUE
572,1660626891.241,2839,-1091,882,4.813,0.038,0.025,91.2,yellow,241,TRUE
573,1660626891.423,3875,2907,750,0.442,-1.386,0.021,90.6,red,241,TRUE
574,1660626891.739,2850,-1079,882,4.813,0.038,0.025,90.6,yellow,241,TRUE
575,1660626891.923,3893,2885,750,0.441,-1.383,0.029,90.9,red,241,TRUE
576,1660626892.195,2859,-1060,882,4.813,0.038,0.025,91.1,yellow,241,TRUE
577,1660626892.376,3912,2861,750,0.437,-1.385,0.046,89.9,red,241,TRUE
578,1660626893.821,2874,-1070,882,4.813,0.038,0.025,92.0,yellow,241,TRUE
579,1660626894.017,3928,2840,750,0.439,-1.395,0.085,92.9,red,241,TRUE
580,1660626895.457,2855,-1048,882,4.813,0.038,0.025,92.1,yellow,241,TRUE
581,1660626895.647,3941,2797,750,0.455,-1.392,0.123,96.3,red,241,TRUE
582,1660626897.026,2886,-1026,882,4.813,0.038,0.025,90.1,yellow,241,TRUE
583,1660626897.211,3956,2782,750,0.431,-1.373,-0.013,85.4,red,241,TRUE
584,1660626897.626,2884,-1020,882,4.813,0.038,0.025,92.2,yellow,241,TRUE
585,1660626897.808,3962,2760,750,0.432,-1.376,-0.005,90.0,red,241,TRUE
586,1660626898.093,2903,-1037,882,4.813,0.038,0.025,92.9,yellow,241,TRUE
587,1660626898.278,3972,2776,750,0.425,-1.388,0.007,89.6,red,241,TRUE
588,1660626899.648,2915,-1058,882,4.813,0.038,0.025,89.1,yellow,241,TRUE
589,1660626899.835,3966,2767,750,0.432,-1.385,0.082,98.7,red,241,TRUE
590,1660626901.324,2908,-1053,882,4.813,0.038,0.025,90.8,yellow,241,TRUE
591,1660626901.515,3962,2762,750,0.444,-1.393,0.135,97.2,red,241,TRUE
592,1660626902.989,2922,-1064,882,4.813,0.038,0.025,90.6,yellow,241,TRUE
593,1660626903.18,3959,2761,750,0.448,-1.397,0.121,92.9,red,241,TRUE
594,1660626903.574,2933,-1078,882,4.813,0.038,0.025,92.4,yellow,241,TRUE
595,1660626903.757,3959,2768,750,0.432,-1.403,0.031,90.5,red,241,TRUE
596,1660626903.94,2937,-1081,882,4.813,0.038,0.025,88.7,yellow,241,TRUE
597,1660626904.131,3954,2772,750,0.432,-1.404,0.052,92.2,red,241,TRUE
598,1660626904.327,2935,-1088,882,4.813,0.038,0.025,91.9,yellow,241,TRUE
599,1660626904.538,3955,2773,750,0.43,-1.397,0.075,92.4,red,241,TRUE
600,1660626904.901,2933,-1094,882,4.813,0.038,0.025,92.4,yellow,241,TRUE
601,1660626905.087,3954,2778,750,0.428,-1.402,0.047,85.6,red,241,TRUE
602,1660626905.279,2947,-1103,882,4.813,0.038,0.025,93.2,yellow,241,TRUE
603,1660626905.491,3958,2780,750,0.428,-1.409,0.101,93.1,red,241,TRUE
604,1660626905.705,2934,-1095,882,4.813,0.038,0.025,91.1,yellow,241,TRUE
605,1660626905.889,3961,2781,750,0.437,-1.408,0.125,89.1,red,241,TRUE
606,1660626907.379,2935,-1097,882,4.813,0.038,0.025,91.5,yellow,241,TRUE
607,1660626907.567,3965,2781,750,0.446,-1.403,0.081,84.4,red,241,TRUE
608,1660626907.94,2938,-1100,882,4.813,0.038,0.025,90.2,yellow,241,TRUE
609,1660626908.129,3966,2783,750,0.446,-1.382,0.062,96.2,red,241,TRUE
610,1660626908.405,2924,-1094,882,4.813,0.038,0.025,93.2,yellow,241,TRUE
611,1660626908.615,3970,2786,750,0.448,-1.377,0.053,92.2,red,241,TRUE
612,1660626908.899,2921,-1084,882,4.813,0.038,0.025,94.7,yellow,241,TRUE
613,1660626909.089,3973,2788,750,0.448,-1.382,0.048,84.4,red,241,TRUE
614,1660626909.474,2920,-1094,882,4.813,0.038,0.025,91.9,yellow,241,TRUE
615,1660626909.673,3978,2791,750,0.423,-1.385,0.033,91.5,red,241,TRUE
616,1660626910.928,2913,-1092,882,4.813,0.038,0.025,89.7,yellow,241,TRUE
617,1660626911.12,3976,2792,750,0.424,-1.392,0.041,95.7,red,241,TRUE
618,1660626911.516,2897,-1078,882,4.813,0.038,0.025,92.2,yellow,241,TRUE
619,1660626911.713,3968,2809,750,0.329,-1.437,-0.058,91.3,red,241,TRUE
620,1660626911.987,2875,-1066,882,4.813,0.038,0.025,89.1,yellow,241,TRUE
621,1660626912.171,3966,2792,750,0.538,-1.43,-0.14,86.3,red,241,TRUE
622,1660626913.416,2870,-1057,882,4.813,0.038,0.025,90.8,yellow,241,TRUE
623,1660626913.608,3952,2796,750,0.261,-1.396,-0.233,95.0,red,241,TRUE
624,1660626913.991,2854,-1055,882,4.813,0.038,0.025,75.2,yellow,241,TRUE
625,1660626914.159,3940,2811,750,0.245,-1.401,-0.259,87.9,red,241,TRUE
626,1660626914.426,2835,-1041,882,4.813,0.038,0.025,92.5,yellow,241,TRUE
627,1660626914.637,3919,2828,750,0.146,-1.396,-0.336,92.1,red,241,TRUE
628,1660626914.909,2876,-1065,882,4.813,0.038,0.025,92.3,yellow,241,TRUE
629,1660626915.092,3891,2834,750,6.034,-1.391,-0.085,90.0,red,241,TRUE
630,1660626915.482,2871,-1063,882,4.813,0.038,0.025,93.0,yellow,241,TRUE
631,1660626915.672,3875,2820,750,0.169,-1.358,-0.113,97.2,red,241,TRUE
632,1660626915.955,2873,-1063,882,4.813,0.038,0.025,86.3,yellow,241,TRUE
633,1660626916.136,3871,2790,750,0.475,-1.362,-0.298,85.9,red,241,TRUE
634,1660626916.4,2866,-1058,882,4.813,0.038,0.025,90.9,yellow,241,TRUE
635,1660626916.61,3858,2772,750,0.093,-1.371,-0.019,92.1,red,241,TRUE
636,1660626916.995,2859,-1050,882,4.813,0.038,0.025,85.6,yellow,241,TRUE
637,1660626917.175,3838,2749,750,5.73,-1.405,-0.336,87.5,red,241,TRUE
638,1660626917.459,2857,-1042,882,4.813,0.038,0.025,92.4,yellow,241,TRUE
639,1660626917.669,3813,2727,750,5.966,-1.482,-0.015,93.0,red,241,TRUE
640,1660626917.956,2873,-1052,882,4.813,0.038,0.025,93.3,yellow,241,TRUE
641,1660626918.14,3782,2704,750,5.802,-1.438,-0.423,88.2,red,241,TRUE
642,1660626919.529,2865,-1051,882,4.813,0.038,0.025,91.4,yellow,241,TRUE
643,1660626919.717,3760,2626,750,0.659,-1.331,-0.28,86.5,red,241,TRUE
644,1660626920.09,2881,-1059,882,4.813,0.038,0.025,90.7,yellow,241,TRUE
645,1660626920.272,3773,2550,750,1.312,-1.321,-0.313,90.0,red,241,TRUE
646,1660626920.587,2871,-1060,882,4.813,0.038,0.025,91.3,yellow,241,TRUE
647,1660626920.772,3819,2451,750,0.742,-1.47,0.081,90.9,red,241,TRUE
648,1660626921.075,2871,-1050,882,4.813,0.038,0.025,91.6,yellow,241,TRUE
649,1660626921.256,3889,2319,750,0.284,-1.334,0.096,88.5,red,241,TRUE
650,1660626921.675,2872,-1051,882,4.813,0.038,0.025,92.7,yellow,241,TRUE
651,1660626921.863,4027,2174,750,6.15,-1.347,0.333,86.5,red,241,TRUE
652,1660626922.161,2844,-1040,882,4.813,0.038,0.025,89.0,yellow,241,TRUE
653,1660626922.342,4188,2077,750,6.257,-1.33,0.492,90.0,red,241,TRUE
654,1660626922.641,2851,-1044,882,4.813,0.038,0.025,92.3,yellow,241,TRUE
655,1660626922.826,4351,1999,750,5.853,-1.418,0.371,89.4,red,241,TRUE
656,1660626923.207,2858,-1045,882,4.813,0.038,0.025,88.1,yellow,241,TRUE
657,1660626923.389,4512,1932,750,5.544,-1.553,-0.005,87.0,red,241,TRUE
658,1660626923.704,2858,-1037,882,4.813,0.038,0.025,90.6,yellow,241,TRUE
659,1660626923.889,4681,1803,750,5.45,-1.557,-0.01,87.7,red,241,TRUE
660,1660626924.174,2859,-1045,882,4.813,0.038,0.025,90.3,yellow,241,TRUE
661,1660626924.355,4863,1681,750,5.517,-1.52,-0.009,89.4,red,241,TRUE
662,1660626925.741,2870,-1046,882,4.813,0.038,0.025,90.3,yellow,241,TRUE
663,1660626925.929,5076,1530,750,5.331,-1.385,-0.726,83.7,red,241,TRUE
664,1660626926.315,2870,-1047,882,4.813,0.038,0.025,89.9,yellow,241,TRUE
665,1660626926.498,5294,1378,750,5.261,-1.378,-0.769,89.1,red,241,TRUE
666,1660626926.798,2878,-1042,882,4.813,0.038,0.025,90.9,yellow,241,TRUE
667,1660626926.981,5513,1271,750,5.282,-1.384,-0.704,88.1,red,241,TRUE
668,1660626928.281,2869,-1038,882,4.813,0.038,0.025,90.2,yellow,241,TRUE
669,1660626928.474,5652,1264,750,5.6,-1.51,0.001,95.7,red,241,TRUE
670,1660626928.872,2890,-1045,882,4.813,0.038,0.025,89.4,yellow,241,TRUE
671,1660626929.066,5776,1218,750,5.408,-1.485,-0.015,93.7,red,241,TRUE
672,1660626930.397,2895,-1044,882,4.813,0.038,0.025,91.2,yellow,241,TRUE
673,1660626930.588,5857,1199,750,5.015,-1.415,0.133,95.8,red,241,TRUE
674,1660626932.011,2883,-1035,882,4.813,0.038,0.025,91.8,yellow,241,TRUE
675,1660626933.685,2873,-1025,882,4.813,0.038,0.025,92.9,yellow,241,TRUE
676,1660626933.871,5792,1061,750,3.698,-1.479,-0.057,86.1,red,241,TRUE
677,1660626934.242,2865,-1016,882,4.813,0.038,0.025,91.4,yellow,241,TRUE
678,1660626934.43,5669,1021,750,3.664,-1.513,-0.048,100.2,red,241,TRUE
679,1660626934.679,2855,-1012,882,4.813,0.038,0.025,92.0,yellow,241,TRUE
680,1660626934.863,5495,996,750,3.86,-1.484,-0.009,89.3,red,241,TRUE
681,1660626935.085,2855,-1012,882,4.813,0.038,0.025,92.3,yellow,241,TRUE
682,1660626935.268,5296,1033,750,4.487,-1.398,0.021,91.8,red,241,TRUE
683,1660626935.643,2867,-1020,882,4.813,0.038,0.025,92.3,yellow,241,TRUE
684,1660626935.828,5083,1086,750,4.991,-1.44,0.204,89.6,red,241,TRUE
685,1660626936.051,2858,-1015,882,4.813,0.038,0.025,93.4,yellow,241,TRUE
686,1660626936.234,4816,1168,750,5.075,-1.501,0.009,90.2,red,241,TRUE
687,1660626936.443,2843,-992,882,4.813,0.038,0.025,93.0,yellow,241,TRUE
688,1660626936.654,4586,1304,750,5.375,-1.371,-0.008,90.8,red,241,TRUE
689,1660626937.031,2864,-1010,882,4.813,0.038,0.025,94.1,yellow,241,TRUE
690,1660626937.23,4368,1466,750,6.128,-1.404,-0.029,89.5,red,241,TRUE
691,1660626937.439,2862,-1007,882,4.813,0.038,0.025,92.9,yellow,241,TRUE
692,1660626937.651,4203,1572,750,6.174,-1.433,-0.247,92.1,red,241,TRUE
693,1660626937.847,2869,-1015,882,4.813,0.038,0.025,92.7,yellow,241,TRUE
694,1660626938.06,4030,1695,750,6.216,-1.474,-0.019,91.5,red,241,TRUE
695,1660626938.423,2880,-1029,882,4.813,0.038,0.025,92.4,yellow,241,TRUE
696,1660626938.619,3870,1814,750,6.093,-1.474,-0.034,91.5,red,241,TRUE
697,1660626938.814,2888,-1031,882,4.813,0.038,0.025,94.4,yellow,241,TRUE
698,1660626939.026,3759,1990,750,5.758,-1.449,-0.461,92.7,red,241,TRUE
699,1660626939.241,2905,-1044,882,4.813,0.038,0.025,89.1,yellow,241,TRUE
700,1660626939.422,3610,2134,750,5.511,-1.431,-0.375,89.3,red,241,TRUE
701,1660626939.811,2909,-1045,882,4.813,0.038,0.025,93.0,yellow,241,TRUE
702,1660626939.995,3510,2244,750,5.519,-1.417,-0.38,90.6,red,241,TRUE
703,1660626940.206,2916,-1046,882,4.813,0.038,0.025,91.5,yellow,241,TRUE
704,1660626940.387,3495,2353,750,5.519,-1.417,-0.415,91.6,red,241,TRUE
705,1660626940.643,2927,-1055,882,4.813,0.038,0.025,95.7,yellow,241,TRUE
706,1660626940.828,3516,2452,750,5.513,-1.419,-0.435,89.6,red,241,TRUE
707,1660626941.205,2911,-1047,882,4.813,0.038,0.025,91.1,yellow,241,TRUE
708,1660626941.389,3547,2528,750,5.5,-1.418,-0.482,86.0,red,241,TRUE
709,1660626941.611,2915,-1057,882,4.813,0.038,0.025,92.2,yellow,241,TRUE
710,1660626941.796,3603,2602,750,5.502,-1.42,-0.496,92.2,red,241,TRUE
711,1660626942.007,2915,-1061,882,4.813,0.038,0.025,92.5,yellow,241,TRUE
712,1660626942.207,3618,2624,750,5.507,-1.419,-0.444,90.8,red,241,TRUE
713,1660626942.582,2914,-1062,882,4.813,0.038,0.025,92.8,yellow,241,TRUE
714,1660626942.781,3621,2620,750,5.525,-1.42,-0.388,91.0,red,241,TRUE
715,1660626942.99,2921,-1067,882,4.813,0.038,0.025,92.9,yellow,241,TRUE
716,1660626943.19,3613,2600,750,5.531,-1.425,-0.439,90.0,red,241,TRUE
717,1660626943.384,2924,-1067,882,4.813,0.038,0.025,94.8,yellow,241,TRUE
718,1660626943.595,3605,2603,750,5.536,-1.42,-0.493,93.0,red,241,TRUE
719,1660626945.093,2911,-1050,882,4.813,0.038,0.025,87.9,yellow,241,TRUE
720,1660626945.268,3597,2591,750,5.6,-1.428,-0.441,91.7,red,241,TRUE
721,1660626946.735,2914,-1054,882,4.813,0.038,0.025,86.7,yellow,241,TRUE
722,1660626946.916,3595,2599,750,6.076,-1.515,-0.022,87.1,red,241,TRUE
723,1660626948.403,2904,-1050,882,4.813,0.038,0.025,94.4,yellow,241,TRUE
724,1660626948.602,3630,2629,750,6.085,-1.51,-0.027,92.1,red,241,TRUE
725,1660626950.071,2913,-1059,882,4.813,0.038,0.025,86.7,yellow,241,TRUE
726,1660626950.248,3687,2651,750,6.112,-1.523,-0.023,90.7,red,241,TRUE
727,1660626950.404,2431,-1272,2526,4.829,-0.049,-0.099,85.6,green,241,TRUE
728,1660626950.609,2903,-1058,882,4.813,0.038,0.025,92.4,yellow,241,TRUE
729,1660626950.793,3704,2666,750,6.117,-1.529,-0.02,89.8,red,241,TRUE
730,1660626952.201,2904,-1063,882,4.813,0.038,0.025,85.3,yellow,241,TRUE
731,1660626952.377,3686,2683,750,5.732,-1.458,-0.016,90.4,red,241,TRUE
732,1660626953.828,2916,-1065,882,4.813,0.038,0.025,87.4,yellow,241,TRUE
733,1660626954.008,3676,2707,750,5.841,-1.477,-0.01,89.9,red,241,TRUE
734,1660626955.495,2923,-1071,882,4.813,0.038,0.025,95.7,yellow,241,TRUE
735,1660626955.694,3668,2737,750,5.852,-1.474,-0.007,92.7,red,241,TRUE
736,1660626956.012,2928,-1080,882,4.813,0.038,0.025,92.1,yellow,241,TRUE
737,1660626956.202,3667,2768,750,5.847,-1.473,-0.008,97.3,red,241,TRUE
738,1660626956.403,2909,-1066,882,4.813,0.038,0.025,93.6,yellow,241,TRUE
739,1660626956.615,3663,2794,750,5.851,-1.473,-0.004,91.9,red,241,TRUE
740,1660626956.871,2920,-1081,882,4.813,0.038,0.025,92.2,yellow,241,TRUE
741,1660626957.081,3657,2825,750,5.852,-1.479,-0.004,92.6,red,241,TRUE
742,1660626957.39,2905,-1068,882,4.813,0.038,0.025,92.1,yellow,241,TRUE
743,1660626957.594,3650,2851,750,5.853,-1.485,-0.001,94.1,red,241,TRUE
744,1660626957.795,2905,-1068,882,4.813,0.038,0.025,87.0,yellow,241,TRUE
745,1660626958.002,3645,2889,750,5.84,-1.477,-0.004,94.2,red,241,TRUE
746,1660626958.26,2901,-1069,882,4.813,0.038,0.025,92.6,yellow,241,TRUE
747,1660626958.443,3637,2899,750,5.849,-1.467,0.003,89.6,red,241,TRUE
748,1660626959.889,2895,-1062,882,4.813,0.038,0.025,85.4,yellow,241,TRUE
749,1660626960.079,3645,2899,750,5.851,-1.456,0.011,78.1,red,241,TRUE
750,1660626961.727,3640,2909,750,5.818,-1.457,-0.011,89.6,red,241,TRUE
751,1660626961.878,2438,-1269,2526,4.829,-0.049,-0.099,90.3,green,241,TRUE
752,1660626962.087,2915,-1081,882,4.813,0.038,0.025,93.0,yellow,241,TRUE
753,1660626962.273,3634,2906,750,5.817,-1.463,-0.009,90.8,red,241,TRUE
754,1660626964.848,3704,2797,750,0.803,-1.526,-0.043,88.9,red,241,TRUE
755,1660626966.378,2905,-1072,882,4.813,0.038,0.025,97.6,yellow,241,TRUE
756,1660626966.569,3876,2692,750,5.816,-1.433,0.082,87.0,red,241,TRUE
757,1660626968.256,4060,2546,750,5.455,-1.406,-0.128,90.7,red,241,TRUE
758,1660626968.633,2919,-1054,882,4.813,0.038,0.025,87.9,yellow,241,TRUE
759,1660626968.812,4241,2439,750,5.472,-1.393,-0.008,89.2,red,241,TRUE
760,1660626969.125,2918,-1053,882,4.813,0.038,0.025,91.9,yellow,241,TRUE
761,1660626969.309,4416,2313,750,5.489,-1.397,0.001,91.3,red,241,TRUE
762,1660626969.592,2925,-1056,882,4.813,0.038,0.025,93.9,yellow,241,TRUE
763,1660626969.791,4592,2195,750,5.5,-1.404,-0.015,90.8,red,241,TRUE
764,1660626970.21,2907,-1036,882,4.813,0.038,0.025,93.4,yellow,241,TRUE
765,1660626970.395,4771,2046,750,5.501,-1.401,-0.011,90.3,red,241,TRUE
766,1660626970.678,2914,-1041,882,4.813,0.038,0.025,92.8,yellow,241,TRUE
767,1660626970.861,4945,1901,750,5.51,-1.4,-0.012,91.2,red,241,TRUE
768,1660626971.162,2916,-1046,882,4.813,0.038,0.025,92.8,yellow,241,TRUE
769,1660626971.345,5143,1766,750,5.534,-1.401,0.023,90.0,red,241,TRUE
770,1660626971.737,2908,-1041,882,4.813,0.038,0.025,92.4,yellow,241,TRUE
771,1660626971.922,5304,1639,750,5.52,-1.41,0.04,86.2,red,241,TRUE
772,1660626972.219,2909,-1043,882,4.813,0.038,0.025,89.9,yellow,241,TRUE
773,1660626972.403,5475,1505,750,5.529,-1.41,0.061,87.7,red,241,TRUE
774,1660626972.685,2885,-1026,882,4.813,0.038,0.025,91.2,yellow,241,TRUE
775,1660626972.869,5636,1403,750,5.526,-1.404,0.085,89.6,red,241,TRUE
776,1660626973.291,2902,-1042,882,4.813,0.038,0.025,90.4,yellow,241,TRUE
777,1660626973.475,5748,1408,750,5.571,-1.397,0.124,87.4,red,241,TRUE
778,1660626973.759,2908,-1048,882,4.813,0.038,0.025,91.2,yellow,241,TRUE
779,1660626973.945,5753,1415,750,5.585,-1.403,0.147,85.8,red,241,TRUE
780,1660626974.257,2903,-1078,882,4.813,0.038,0.025,89.8,yellow,241,TRUE
781,1660626974.443,5745,1398,750,5.584,-1.409,0.135,86.4,red,241,TRUE
782,1660626974.831,2865,-1053,882,4.813,0.038,0.025,89.0,yellow,241,TRUE
783,1660626975.012,5734,1356,750,5.615,-1.409,0.159,89.8,red,241,TRUE
784,1660626975.316,2862,-1055,882,4.813,0.038,0.025,89.0,yellow,241,TRUE
785,1660626975.496,5737,1320,750,5.628,-1.404,0.194,89.3,red,241,TRUE
786,1660626975.782,2864,-1056,882,4.813,0.038,0.025,90.6,yellow,241,TRUE
787,1660626975.968,5734,1272,750,5.624,-1.404,0.208,86.0,red,241,TRUE
788,1660626976.372,2869,-1064,882,4.813,0.038,0.025,92.2,yellow,241,TRUE
789,1660626976.554,5733,1261,750,5.632,-1.395,0.171,90.0,red,241,TRUE
790,1660626976.826,2854,-1054,882,4.813,0.038,0.025,91.4,yellow,241,TRUE
791,1660626977.009,5730,1290,750,5.631,-1.402,0.128,88.2,red,241,TRUE
792,1660626977.324,2854,-1056,882,4.813,0.038,0.025,88.5,yellow,241,TRUE
793,1660626977.505,5704,1313,750,4.96,-1.365,-0.553,89.4,red,241,TRUE
794,1660626977.896,2863,-1062,882,4.813,0.038,0.025,89.3,yellow,241,TRUE
795,1660626978.077,5686,1266,750,3.889,-1.367,-0.988,89.0,red,241,TRUE
796,1660626978.377,2871,-1072,882,4.813,0.038,0.025,90.8,yellow,241,TRUE
797,1660626978.559,5660,1185,750,3.134,-1.419,-1.31,88.8,red,241,TRUE
798,1660626978.83,2870,-1069,882,4.813,0.038,0.025,91.5,yellow,241,TRUE
799,1660626979.012,5618,1092,750,3.461,-1.374,-0.485,88.2,red,241,TRUE
800,1660626980.559,2870,-1067,882,4.813,0.038,0.025,82.5,yellow,241,TRUE
801,1660626980.735,5611,1092,750,5.911,-1.364,0.071,88.1,red,241,TRUE
802,1660626982.222,2876,-1076,882,4.813,0.038,0.025,97.0,yellow,241,TRUE
803,1660626982.412,5620,1008,750,5.641,-1.395,-0.156,90.4,red,241,TRUE
804,1660626982.561,2440,-1258,2526,4.829,-0.049,-0.099,90.4,green,241,TRUE
805,1660626982.836,2884,-1084,882,4.813,0.038,0.025,89.2,yellow,241,TRUE
806,1660626983.016,5622,1004,750,5.641,-1.396,-0.14,89.1,red,241,TRUE
807,1660626984.398,2899,-1093,882,4.813,0.038,0.025,98.3,yellow,241,TRUE
808,1660626984.588,5616,1035,750,5.441,-1.381,-0.281,88.9,red,241,TRUE
809,1660626984.74,2426,-1241,2526,4.829,-0.049,-0.099,89.1,green,241,TRUE
810,1660626985.011,2900,-1091,882,4.813,0.038,0.025,89.7,yellow,241,TRUE
811,1660626985.22,5621,1077,750,5.441,-1.374,-0.25,92.6,red,241,TRUE
812,1660626986.63,2889,-1083,882,4.813,0.038,0.025,84.2,yellow,241,TRUE
813,1660626986.806,5657,1051,750,4.452,-1.416,-1.173,85.7,red,241,TRUE
814,1660626988.303,2897,-1091,882,4.813,0.038,0.025,85.6,yellow,241,TRUE
815,1660626988.482,5627,1064,750,4.652,-1.547,-3.138,87.6,red,241,TRUE
816,1660626989.986,2904,-1099,882,4.813,0.038,0.025,93.2,yellow,241,TRUE
817,1660626990.183,5587,983,750,3.097,-1.474,-0.092,91.9,red,241,TRUE
818,1660626990.381,2425,-1231,2526,4.829,-0.049,-0.099,90.8,green,241,TRUE
819,1660626990.654,2910,-1103,882,4.813,0.038,0.025,87.7,yellow,241,TRUE
820,1660626990.836,5495,945,750,3.507,-1.407,-0.425,88.8,red,241,TRUE
821,1660626992.26,2915,-1106,882,4.813,0.038,0.025,86.2,yellow,241,TRUE
822,1660626992.44,5315,1017,750,5.075,-1.48,-0.088,88.0,red,241,TRUE
823,1660626993.959,2922,-1101,882,4.813,0.038,0.025,89.6,yellow,241,TRUE
824,1660626994.152,5315,1017,750,6.022,-1.395,-0.021,77.0,red,241,TRUE
825,1660626995.639,2915,-1102,882,4.813,0.038,0.025,80.7,yellow,241,TRUE
826,1660626995.811,5306,1126,750,4.619,-1.34,-1.681,91.1,red,241,TRUE
827,1660626996.232,2925,-1117,882,4.813,0.038,0.025,92.4,yellow,241,TRUE
828,1660626996.416,5322,1213,750,4.7,-1.361,-1.66,89.9,red,241,TRUE
829,1660626996.715,2930,-1117,882,4.813,0.038,0.025,89.1,yellow,241,TRUE
830,1660626996.9,5301,1201,750,4.723,-1.371,-1.649,87.4,red,241,TRUE
831,1660626997.21,2928,-1108,882,4.813,0.038,0.025,92.2,yellow,241,TRUE
832,1660626997.395,5260,1261,750,4.724,-1.369,-1.631,90.8,red,241,TRUE
833,1660626997.806,2940,-1114,882,4.813,0.038,0.025,86.2,yellow,241,TRUE
834,1660626997.987,5226,1319,750,4.623,-1.381,-1.405,87.0,red,241,TRUE
835,1660626998.301,2949,-1115,882,4.813,0.038,0.025,89.4,yellow,241,TRUE
