,timestamp,x,y,z,yaw,roll,pitch,latency,student,session,success
0,1660702543.014,248,-1785,750,0.125,-1.364,1.452,83.4,red,245,TRUE
1,1660702543.099,1206,-1417,3348,4.938,-1.441,1.131,87.7,blue,245,TRUE
2,1660702545.797,375,-1596,750,4.585,-1.428,1.115,89.9,red,245,TRUE
3,1660702545.893,1256,-1180,3348,0.361,-1.467,0.061,84.1,blue,245,TRUE
4,1660702547.432,3544,-2772,882,4.952,-1.078,0.152,86.0,yellow,245,TRUE
5,1660702547.611,565,-1328,750,6.184,-1.312,1.284,88.1,red,245,TRUE
6,1660702547.7,1310,-894,3348,5.761,-1.463,0.104,88.6,blue,245,TRUE
7,1660702547.797,3052,-2509,2526,5.471,-1.259,-0.176,82.3,green,245,TRUE
8,1660702548.167,3517,-2762,882,4.947,-1.092,0.156,89.4,yellow,245,TRUE
9,1660702548.363,750,-1000,750,5.803,-1.408,0.765,90.0,red,245,TRUE
10,1660702548.454,1275,-528,3348,5.258,-1.429,1.146,89.0,blue,245,TRUE
11,1660702548.546,3132,-2539,2526,5.463,-1.268,-0.156,103.7,green,245,TRUE
12,1660702548.952,3510,-2753,882,4.946,-1.076,0.165,91.1,yellow,245,TRUE
13,1660702549.137,948,-667,750,5.976,-1.384,1.3,89.5,red,245,TRUE
14,1660702549.24,1505,-180,3348,5.269,-1.424,1.514,90.4,blue,245,TRUE
15,1660702550.787,3536,-2765,882,4.925,-0.892,0.044,98.1,yellow,245,TRUE
16,1660702550.976,1193,-250,750,4.459,-1.441,0.742,89.6,red,245,TRUE
17,1660702551.068,1689,173,3348,5.615,-1.36,1.037,88.3,blue,245,TRUE
18,1660702552.805,1459,175,750,4.044,-1.464,0.074,88.2,red,245,TRUE
19,1660702552.895,1830,588,3348,5.03,-1.497,0.057,89.0,blue,245,TRUE
20,1660702552.987,3235,-2590,2526,5.468,-1.288,-0.151,87.5,green,245,TRUE
21,1660702553.39,3602,-2757,882,4.975,-0.912,0.181,89.8,yellow,245,TRUE
22,1660702553.573,1731,587,750,4.218,-1.431,1.626,87.8,red,245,TRUE
23,1660702553.663,1994,1033,3348,4.981,-1.437,1.014,87.3,blue,245,TRUE
24,1660702555.218,3633,-2773,882,4.962,-0.886,0.167,83.6,yellow,245,TRUE
25,1660702555.394,1954,1028,750,4.116,-1.415,0.99,88.2,red,245,TRUE
26,1660702555.484,2148,1441,3348,4.692,-1.426,1.131,89.1,blue,245,TRUE
27,1660702557.045,3684,-2776,882,4.957,-0.885,0.134,85.1,yellow,245,TRUE
28,1660702557.221,2196,1484,750,4.223,-1.391,1.191,88.6,red,245,TRUE
29,1660702557.311,2295,1834,3348,5.035,-1.434,1.326,89.6,blue,245,TRUE
30,1660702558.78,3708,-2771,882,4.957,-0.879,0.135,84.3,yellow,245,TRUE
31,1660702559.941,2392,1928,750,4.216,-1.401,1.357,89.0,red,245,TRUE
32,1660702560.032,2451,2213,3348,5.105,-1.446,1.453,88.1,blue,245,TRUE
33,1660702561.573,3733,-2790,882,4.951,-0.887,0.129,85.0,yellow,245,TRUE
34,1660702561.752,2501,2282,750,4.212,-1.413,1.619,88.7,red,245,TRUE
35,1660702561.841,2517,2435,3348,5.1,-1.434,1.245,90.4,blue,245,TRUE
36,1660702563.404,3818,-2806,882,4.951,-0.89,0.119,85.4,yellow,245,TRUE
37,1660702563.581,2620,2581,750,4.29,-1.398,1.466,89.7,red,245,TRUE
38,1660702563.671,2608,2565,3348,5.107,-1.44,1.246,89.2,blue,245,TRUE
39,1660702565.222,3888,-2810,882,4.952,-0.885,0.12,83.1,yellow,245,TRUE
40,1660702565.397,2733,2823,750,4.249,-1.378,1.233,89.8,red,245,TRUE
41,1660702565.488,2677,2729,3348,5.14,-1.417,0.966,89.7,blue,245,TRUE
42,1660702565.94,3933,-2830,882,4.958,-0.882,0.129,89.9,yellow,245,TRUE
43,1660702566.122,2776,3003,750,4.259,-1.396,1.422,89.3,red,245,TRUE
44,1660702566.225,2646,2772,3348,5.028,-1.397,0.797,92.8,blue,245,TRUE
45,1660702566.632,3982,-2832,882,4.951,-0.875,0.109,89.9,yellow,245,TRUE
46,1660702566.816,2829,3148,750,4.304,-1.392,1.421,87.8,red,245,TRUE
47,1660702566.905,2658,2791,3348,5.001,-1.408,0.862,89.8,blue,245,TRUE
48,1660702567.009,3097,-2599,2526,5.576,-1.175,0.016,90.8,green,245,TRUE
49,1660702567.416,4024,-2839,882,4.955,-0.867,0.116,88.8,yellow,245,TRUE
50,1660702567.596,2854,3263,750,4.278,-1.397,1.488,89.8,red,245,TRUE
51,1660702567.686,2670,2806,3348,4.992,-1.43,1.082,88.8,blue,245,TRUE
52,1660702569.22,4012,-2815,882,4.947,-1.086,0.175,97.7,yellow,245,TRUE
53,1660702569.407,2820,3308,750,4.284,-1.41,1.441,88.6,red,245,TRUE
54,1660702569.498,2667,2839,3348,5.015,-1.393,1.016,88.8,blue,245,TRUE
55,1660702569.588,3048,-2580,2526,5.357,-1.157,-0.024,87.8,green,245,TRUE
56,1660702569.992,3961,-2820,882,4.957,-1.057,0.203,87.8,yellow,245,TRUE
57,1660702570.17,2815,3292,750,4.286,-1.405,1.377,89.8,red,245,TRUE
58,1660702570.274,2678,2842,3348,5.003,-1.394,1.053,90.8,blue,245,TRUE
59,1660702571.732,3910,-2813,882,4.958,-1.05,0.209,84.8,yellow,245,TRUE
60,1660702571.907,2817,3290,750,4.347,-1.407,1.728,89.7,red,245,TRUE
61,1660702571.999,2693,2836,3348,4.992,-1.383,0.926,88.6,blue,245,TRUE
62,1660702573.532,3887,-2802,882,4.958,-1.048,0.208,83.8,yellow,245,TRUE
63,1660702573.707,2836,3307,750,4.338,-1.389,1.356,87.8,red,245,TRUE
64,1660702573.797,2714,2853,3348,4.955,-1.395,1.011,87.8,blue,245,TRUE
65,1660702573.887,3026,-2580,2526,5.453,-1.24,-0.241,87.8,green,245,TRUE
66,1660702574.275,3847,-2809,882,4.958,-1.044,0.207,88.8,yellow,245,TRUE
67,1660702574.454,2821,3317,750,4.301,-1.39,1.425,90.6,red,245,TRUE
68,1660702574.547,2724,2871,3348,4.873,-1.44,0.892,88.8,blue,245,TRUE
69,1660702574.637,3021,-2583,2526,5.477,-1.23,-0.136,88.2,green,245,TRUE
70,1660702575.028,3819,-2817,882,4.956,-1.044,0.205,90.5,yellow,245,TRUE
71,1660702575.21,2818,3333,750,4.299,-1.394,1.42,89.9,red,245,TRUE
72,1660702575.315,2719,2867,3348,5.068,-1.481,0.072,90.4,blue,245,TRUE
73,1660702575.406,3010,-2584,2526,5.484,-1.199,-0.072,90.0,green,245,TRUE
74,1660702575.801,3781,-2805,882,4.956,-1.037,0.226,105.0,yellow,245,TRUE
75,1660702575.998,2826,3345,750,4.332,-1.373,1.201,89.3,red,245,TRUE
76,1660702576.09,2717,2876,3348,5.114,-1.396,0.91,87.6,blue,245,TRUE
77,1660702577.578,3697,-2792,882,4.949,-1.065,0.197,85.4,yellow,245,TRUE
78,1660702577.756,2838,3346,750,4.418,-1.371,1.334,89.9,red,245,TRUE
79,1660702577.849,2718,2893,3348,5.317,-1.416,1.024,88.1,blue,245,TRUE
80,1660702577.938,2991,-2592,2526,5.426,-1.154,-0.028,90.0,green,245,TRUE
81,1660702578.32,3629,-2787,882,4.95,-1.06,0.199,85.7,yellow,245,TRUE
82,1660702578.498,2819,3378,750,4.499,-1.371,1.287,88.5,red,245,TRUE
83,1660702578.588,2711,2877,3348,5.207,-1.414,0.977,89.3,blue,245,TRUE
84,1660702578.678,2997,-2603,2526,5.43,-1.26,-0.082,89.7,green,245,TRUE
85,1660702579.071,3582,-2780,882,4.949,-1.052,0.192,90.8,yellow,245,TRUE
86,1660702579.253,2829,3400,750,4.533,-1.372,1.284,90.4,red,245,TRUE
87,1660702579.345,2769,2898,3348,5.202,-1.41,0.952,88.5,blue,245,TRUE
88,1660702579.434,2981,-2595,2526,5.421,-1.23,-0.115,89.0,green,245,TRUE
89,1660702579.811,3558,-2785,882,4.948,-1.054,0.188,90.6,yellow,245,TRUE
90,1660702579.994,2826,3406,750,4.527,-1.377,1.292,91.3,red,245,TRUE
91,1660702580.088,2778,2923,3348,5.191,-1.413,0.96,86.7,blue,245,TRUE
92,1660702580.176,3028,-2614,2526,5.43,-1.265,-0.164,89.4,green,245,TRUE
93,1660702580.569,3507,-2787,882,4.947,-1.06,0.2,89.0,yellow,245,TRUE
94,1660702580.75,2837,3416,750,4.529,-1.373,1.32,88.4,red,245,TRUE
95,1660702580.84,2795,2971,3348,5.189,-1.415,0.983,91.1,blue,245,TRUE
96,1660702582.339,3488,-2795,882,4.946,-1.054,0.193,86.0,yellow,245,TRUE
97,1660702582.52,2866,3445,750,4.488,-1.401,0.995,86.3,red,245,TRUE
98,1660702582.607,2828,2974,3348,5.24,-1.418,0.819,89.7,blue,245,TRUE
99,1660702584.108,3474,-2801,882,4.931,-1.025,0.16,84.1,yellow,245,TRUE
100,1660702584.284,2840,3573,750,5.43,-1.366,1.541,88.7,red,245,TRUE
101,1660702584.373,2842,3085,3348,5.691,-1.388,1.565,88.8,blue,245,TRUE
102,1660702584.462,2993,-2599,2526,5.429,-1.228,-0.101,89.2,green,245,TRUE
103,1660702584.855,3499,-2799,882,4.941,-1.047,0.211,89.6,yellow,245,TRUE
104,1660702585.038,2813,3768,750,5.416,-1.39,1.208,88.6,red,245,TRUE
105,1660702585.128,2851,3239,3348,5.736,-1.401,1.066,91.0,blue,245,TRUE
106,1660702585.232,3004,-2619,2526,5.425,-1.235,-0.111,92.0,green,245,TRUE
107,1660702586.492,3503,-2796,882,4.933,-1.082,0.175,86.7,yellow,245,TRUE
108,1660702586.672,2774,4086,750,5.487,-1.366,1.086,89.1,red,245,TRUE
109,1660702586.762,2786,3493,3348,5.237,-1.305,1.216,89.6,blue,245,TRUE
110,1660702586.853,2993,-2630,2526,5.425,-1.26,-0.121,89.1,green,245,TRUE
111,1660702587.244,3477,-2788,882,4.934,-1.092,0.183,90.3,yellow,245,TRUE
112,1660702587.426,2744,4434,750,4.76,-1.355,1.718,90.7,red,245,TRUE
113,1660702587.52,2733,3754,3348,5.673,-1.388,0.632,87.1,blue,245,TRUE
114,1660702589.021,3456,-2778,882,4.932,-1.089,0.182,84.2,yellow,245,TRUE
115,1660702589.196,2733,4800,750,4.132,-1.372,1.546,88.1,red,245,TRUE
116,1660702589.298,2697,4056,3348,6.223,-1.477,0.068,76.8,blue,245,TRUE
117,1660702589.376,2990,-2643,2526,5.414,-1.242,-0.115,90.1,green,245,TRUE
118,1660702589.765,3448,-2767,882,4.928,-1.098,0.183,90.0,yellow,245,TRUE
119,1660702589.949,2724,5152,750,4.158,-1.369,1.442,88.4,red,245,TRUE
120,1660702590.04,2684,4415,3348,5.996,-1.4,0.748,87.8,blue,245,TRUE
121,1660702590.128,2994,-2645,2526,5.415,-1.264,-0.122,90.0,green,245,TRUE
122,1660702590.551,3451,-2765,882,4.927,-1.082,0.175,89.9,yellow,245,TRUE
123,1660702590.734,2709,5509,750,4.13,-1.378,1.418,89.1,red,245,TRUE
124,1660702590.824,2644,4746,3348,5.733,-1.403,0.988,89.8,blue,245,TRUE
125,1660702590.915,3004,-2641,2526,5.415,-1.258,-0.121,90.3,green,245,TRUE
126,1660702591.291,3462,-2765,882,4.928,-1.081,0.176,91.2,yellow,245,TRUE
127,1660702591.473,2686,5866,750,4.134,-1.383,1.463,90.0,red,245,TRUE
128,1660702591.566,2596,5028,3348,5.634,-1.373,0.677,89.4,blue,245,TRUE
129,1660702591.655,3008,-2639,2526,5.415,-1.259,-0.119,88.3,green,245,TRUE
130,1660702592.045,3451,-2744,882,4.927,-1.08,0.173,90.5,yellow,245,TRUE
131,1660702592.227,2659,6209,750,4.152,-1.386,1.526,89.1,red,245,TRUE
132,1660702592.33,2566,5385,3348,5.651,-1.371,0.671,92.0,blue,245,TRUE
133,1660702592.423,3004,-2638,2526,5.415,-1.254,-0.115,88.5,green,245,TRUE
134,1660702592.827,3456,-2744,882,4.928,-1.085,0.177,88.8,yellow,245,TRUE
135,1660702593.008,2628,6554,750,4.141,-1.395,1.498,86.6,red,245,TRUE
136,1660702593.098,2519,5720,3348,5.61,-1.377,0.706,87.3,blue,245,TRUE
137,1660702593.186,3010,-2634,2526,5.416,-1.245,-0.11,89.4,green,245,TRUE
138,1660702593.606,3474,-2747,882,4.928,-1.076,0.172,89.4,yellow,245,TRUE
139,1660702593.788,2617,6900,750,4.147,-1.381,1.444,88.2,red,245,TRUE
140,1660702593.877,2471,6037,3348,5.617,-1.374,0.668,88.8,blue,245,TRUE
141,1660702593.969,2997,-2638,2526,5.416,-1.244,-0.11,116.8,green,245,TRUE
142,1660702594.387,3501,-2753,882,4.928,-1.074,0.171,88.8,yellow,245,TRUE
143,1660702594.57,2597,7210,750,4.142,-1.383,1.433,86.7,red,245,TRUE
144,1660702594.658,2426,6361,3348,5.672,-1.378,0.718,89.6,blue,245,TRUE
145,1660702596.122,3532,-2752,882,4.928,-1.077,0.172,96.8,yellow,245,TRUE
146,1660702596.309,2606,7431,750,4.141,-1.374,1.455,89.8,red,245,TRUE
147,1660702596.4,2383,6624,3348,5.665,-1.374,0.717,87.7,blue,245,TRUE
148,1660702596.489,3007,-2641,2526,5.416,-1.253,-0.12,88.8,green,245,TRUE
149,1660702596.863,3521,-2758,882,4.928,-1.066,0.169,88.8,yellow,245,TRUE
150,1660702597.046,2616,7577,750,4.129,-1.389,1.462,87.3,red,245,TRUE
151,1660702597.134,2342,6828,3348,5.667,-1.373,0.71,87.7,blue,245,TRUE
152,1660702597.236,3014,-2633,2526,5.433,-1.124,-0.041,91.0,green,245,TRUE
153,1660702598.798,2602,7634,750,4.07,-1.38,1.317,87.8,red,245,TRUE
154,1660702598.892,2366,6944,3348,5.661,-1.382,0.748,83.8,blue,245,TRUE
155,1660702598.977,3031,-2642,2526,5.519,-1.156,-0.08,88.8,green,245,TRUE
156,1660702599.351,3519,-2769,882,4.948,-0.838,0.097,88.9,yellow,245,TRUE
157,1660702599.533,2641,7624,750,4.06,-1.37,1.323,86.8,red,245,TRUE
158,1660702599.621,2383,7063,3348,5.658,-1.38,0.743,88.0,blue,245,TRUE
159,1660702599.723,3055,-2639,2526,5.6,-1.452,0.099,92.4,green,245,TRUE
160,1660702600.102,3531,-2765,882,4.893,-1.149,0.173,87.2,yellow,245,TRUE
161,1660702600.281,2666,7598,750,4.027,-1.38,1.326,89.1,red,245,TRUE
162,1660702600.372,2391,7127,3348,5.658,-1.38,0.74,88.8,blue,245,TRUE
163,1660702601.906,3527,-2762,882,4.901,-1.114,0.159,83.7,yellow,245,TRUE
164,1660702602.084,2674,7608,750,4.039,-1.381,1.206,84.8,red,245,TRUE
165,1660702602.17,2380,7138,3348,5.641,-1.367,0.722,88.8,blue,245,TRUE
166,1660702603.641,3547,-2754,882,4.904,-1.096,0.175,84.0,yellow,245,TRUE
167,1660702603.817,2676,7610,750,4.068,-1.388,1.429,89.0,red,245,TRUE
168,1660702603.907,2384,7123,3348,5.797,-1.374,0.729,88.7,blue,245,TRUE
169,1660702603.997,3069,-2656,2526,5.395,-1.295,-0.188,89.0,green,245,TRUE
170,1660702604.387,3553,-2747,882,4.903,-1.107,0.182,89.0,yellow,245,TRUE
171,1660702604.568,2678,7607,750,4.129,-1.364,1.309,88.2,red,245,TRUE
172,1660702604.657,2400,7151,3348,5.913,-1.365,0.805,88.8,blue,245,TRUE
173,1660702604.76,3072,-2651,2526,5.409,-1.297,-0.144,90.8,green,245,TRUE
174,1660702605.14,3551,-2735,882,4.902,-1.103,0.187,85.9,yellow,245,TRUE
175,1660702605.329,2688,7595,750,4.148,-1.369,1.458,90.8,red,245,TRUE
176,1660702605.421,2396,7121,3348,5.958,-1.342,0.93,89.0,blue,245,TRUE
177,1660702605.511,3061,-2643,2526,5.406,-1.309,-0.165,88.6,green,245,TRUE
178,1660702605.887,3592,-2739,882,4.902,-1.105,0.188,89.4,yellow,245,TRUE
179,1660702606.071,2709,7574,750,4.15,-1.369,1.406,86.3,red,245,TRUE
180,1660702606.158,2391,7087,3348,5.978,-1.353,0.945,90.5,blue,245,TRUE
181,1660702607.665,3572,-2728,882,4.902,-1.106,0.188,84.8,yellow,245,TRUE
182,1660702607.84,2704,7558,750,4.179,-1.358,1.358,87.5,red,245,TRUE
183,1660702607.929,2411,7006,3348,6.093,-1.368,0.891,73.8,blue,245,TRUE
184,1660702608.004,3026,-2619,2526,5.401,-1.296,-0.157,118.7,green,245,TRUE
185,1660702608.437,3542,-2718,882,4.902,-1.104,0.187,88.9,yellow,245,TRUE
186,1660702608.62,2684,7575,750,4.169,-1.361,1.323,88.1,red,245,TRUE
187,1660702608.709,2414,7012,3348,6.024,-1.397,0.791,89.8,blue,245,TRUE
188,1660702608.811,3022,-2611,2526,5.397,-1.301,-0.189,106.3,green,245,TRUE
189,1660702609.222,3517,-2707,882,4.901,-1.098,0.187,86.4,yellow,245,TRUE
190,1660702609.4,2676,7564,750,4.152,-1.367,1.369,88.1,red,245,TRUE
191,1660702609.489,2416,6950,3348,5.994,-1.382,0.888,90.2,blue,245,TRUE
192,1660702609.581,3036,-2601,2526,5.392,-1.277,-0.228,87.1,green,245,TRUE
193,1660702609.971,3496,-2697,882,4.9,-1.097,0.187,91.2,yellow,245,TRUE
194,1660702610.153,2668,7568,750,4.153,-1.36,1.357,88.9,red,245,TRUE
195,1660702610.256,2414,6935,3348,6.084,-1.362,0.944,76.4,blue,245,TRUE
196,1660702611.765,3477,-2685,882,4.893,-1.085,0.185,97.3,yellow,245,TRUE
197,1660702611.953,2691,7544,750,4.15,-1.373,1.319,89.6,red,245,TRUE
198,1660702612.046,2432,6852,3348,6.129,-1.364,0.926,71.4,blue,245,TRUE
199,1660702614.623,2685,7546,750,4.115,-1.377,1.229,89.7,red,245,TRUE
200,1660702614.719,2447,6787,3348,6.137,-1.362,0.905,82.7,blue,245,TRUE
201,1660702614.804,3009,-2553,2526,5.42,-1.241,-0.197,87.6,green,245,TRUE
202,1660702615.181,3464,-2671,882,4.885,-1.088,0.183,85.8,yellow,245,TRUE
203,1660702615.359,2664,7551,750,4.135,-1.382,1.376,89.3,red,245,TRUE
204,1660702615.448,2453,6731,3348,6.138,-1.358,0.89,89.9,blue,245,TRUE
205,1660702615.54,3004,-2535,2526,5.419,-1.239,-0.205,89.6,green,245,TRUE
206,1660702615.946,3469,-2670,882,4.883,-1.092,0.182,88.8,yellow,245,TRUE
207,1660702616.129,2665,7536,750,4.157,-1.38,1.293,86.0,red,245,TRUE
208,1660702616.217,2469,6649,3348,6.11,-1.357,0.904,72.8,blue,245,TRUE
209,1660702616.303,2982,-2516,2526,5.417,-1.235,-0.214,91.1,green,245,TRUE
210,1660702616.711,3485,-2665,882,4.881,-1.089,0.178,89.4,yellow,245,TRUE
211,1660702616.892,2670,7515,750,4.182,-1.371,1.285,88.8,red,245,TRUE
212,1660702616.981,2481,6684,3348,6.136,-1.358,0.971,88.8,blue,245,TRUE
213,1660702617.074,2959,-2507,2526,5.419,-1.239,-0.199,85.5,green,245,TRUE
214,1660702617.461,3470,-2668,882,4.881,-1.088,0.178,89.2,yellow,245,TRUE
215,1660702617.641,2693,7493,750,4.097,-1.356,1.081,89.8,red,245,TRUE
216,1660702617.744,2478,6671,3348,5.938,-1.374,1.02,90.7,blue,245,TRUE
217,1660702617.849,2942,-2495,2526,5.419,-1.246,-0.185,90.7,green,245,TRUE
218,1660702618.243,3477,-2673,882,4.881,-1.098,0.179,86.9,yellow,245,TRUE
219,1660702618.419,2712,7494,750,3.905,-1.397,1.034,88.8,red,245,TRUE
220,1660702618.509,2468,6615,3348,5.656,-1.429,1.052,89.0,blue,245,TRUE
221,1660702620.014,3487,-2673,882,4.881,-1.094,0.185,82.5,yellow,245,TRUE
222,1660702620.187,2729,7505,750,3.92,-1.44,0.564,89.2,red,245,TRUE
223,1660702620.29,2458,6607,3348,5.341,-1.43,1.025,90.8,blue,245,TRUE
224,1660702620.382,2943,-2494,2526,5.438,-1.247,-0.106,104.3,green,245,TRUE
225,1660702620.789,3483,-2666,882,4.88,-1.096,0.191,88.8,yellow,245,TRUE
226,1660702620.968,2741,7543,750,4.468,-1.461,3.031,89.3,red,245,TRUE
227,1660702621.061,2466,6634,3348,0.083,-1.415,0.694,87.1,blue,245,TRUE
228,1660702622.583,3500,-2664,882,4.878,-1.083,0.171,84.5,yellow,245,TRUE
229,1660702622.758,2882,7588,750,0.941,-1.428,1.331,89.7,red,245,TRUE
230,1660702622.862,2506,6640,3348,1.401,-1.338,1.343,90.6,blue,245,TRUE
231,1660702622.954,2973,-2522,2526,5.438,-1.259,-0.056,74.8,green,245,TRUE
232,1660702623.33,3511,-2661,882,4.876,-1.078,0.157,88.8,yellow,245,TRUE
233,1660702623.51,2962,7590,750,1.576,-1.376,1.584,90.0,red,245,TRUE
234,1660702623.603,2585,6631,3348,1.642,-1.396,0.651,87.9,blue,245,TRUE
235,1660702625.107,3510,-2663,882,4.881,-1.082,0.158,83.8,yellow,245,TRUE
236,1660702625.282,3070,7553,750,0.876,-1.422,1.493,88.8,red,245,TRUE
237,1660702625.372,2718,6604,3348,1.424,-1.336,0.845,87.8,blue,245,TRUE
238,1660702626.936,3511,-2663,882,4.878,-1.108,0.168,84.4,yellow,245,TRUE
239,1660702627.114,3189,7524,750,0.795,-1.413,1.405,85.8,red,245,TRUE
240,1660702627.201,2839,6625,3348,1.362,-1.419,1.091,88.7,blue,245,TRUE
241,1660702628.769,3545,-2675,882,4.869,-1.083,0.182,96.5,yellow,245,TRUE
242,1660702628.956,3293,7483,750,0.875,-1.403,1.26,90.7,red,245,TRUE
243,1660702629.046,2954,6605,3348,1.232,-1.396,1.108,88.3,blue,245,TRUE
244,1660702629.15,3004,-2540,2526,5.417,-1.314,-0.251,89.8,green,245,TRUE
245,1660702629.54,3576,-2681,882,4.867,-1.085,0.167,90.1,yellow,245,TRUE
246,1660702629.72,3415,7448,750,0.768,-1.39,0.913,90.7,red,245,TRUE
247,1660702629.824,3077,6606,3348,1.238,-1.392,1.182,90.8,blue,245,TRUE
248,1660702629.916,3031,-2564,2526,5.431,-1.308,-0.178,89.3,green,245,TRUE
249,1660702630.307,3561,-2677,882,4.873,-1.102,0.18,89.9,yellow,245,TRUE
250,1660702630.487,3523,7430,750,0.801,-1.385,1.177,91.0,red,245,TRUE
251,1660702630.582,3190,6622,3348,1.274,-1.397,1.235,85.8,blue,245,TRUE
252,1660702630.668,3025,-2556,2526,5.436,-1.299,-0.184,88.7,green,245,TRUE
253,1660702631.059,3552,-2675,882,4.873,-1.102,0.183,87.8,yellow,245,TRUE
254,1660702631.237,3633,7418,750,0.949,-1.37,1.215,88.7,red,245,TRUE
255,1660702631.34,3303,6562,3348,1.235,-1.402,1.229,91.0,blue,245,TRUE
256,1660702631.432,3005,-2537,2526,5.437,-1.278,-0.17,88.8,green,245,TRUE
257,1660702631.806,3547,-2674,882,4.873,-1.101,0.183,89.8,yellow,245,TRUE
258,1660702631.985,3739,7425,750,0.68,-1.442,1.211,88.7,red,245,TRUE
259,1660702632.079,3422,6535,3348,1.239,-1.392,1.103,85.1,blue,245,TRUE
260,1660702632.166,3013,-2547,2526,5.442,-1.277,-0.161,103.2,green,245,TRUE
261,1660702632.584,3533,-2664,882,4.872,-1.098,0.185,89.2,yellow,245,TRUE
262,1660702632.765,3826,7416,750,0.752,-1.408,1.381,88.5,red,245,TRUE
263,1660702632.868,3547,6556,3348,1.297,-1.395,1.085,90.8,blue,245,TRUE
264,1660702634.358,3532,-2671,882,4.873,-1.103,0.189,83.5,yellow,245,TRUE
265,1660702634.532,3923,7366,750,0.852,-1.398,1.7,89.3,red,245,TRUE
266,1660702634.624,3703,6547,3348,1.067,-1.477,0.082,87.8,blue,245,TRUE
267,1660702634.713,3027,-2573,2526,5.455,-1.237,-0.082,73.7,green,245,TRUE
268,1660702635.102,3531,-2666,882,4.873,-1.097,0.187,88.7,yellow,245,TRUE
269,1660702635.282,4028,7296,750,0.903,-1.31,2.416,88.5,red,245,TRUE
270,1660702635.381,3784,6552,3348,1.216,-1.429,0.95,95.2,blue,245,TRUE
271,1660702636.936,3526,-2671,882,4.869,-1.095,0.185,83.9,yellow,245,TRUE
272,1660702637.116,4005,7219,750,0.845,-1.381,1.442,84.1,red,245,TRUE
273,1660702637.202,3869,6517,3348,1.406,-1.356,0.894,87.8,blue,245,TRUE
274,1660702638.736,3543,-2648,882,4.873,-1.102,0.193,81.8,yellow,245,TRUE
275,1660702638.909,4032,7224,750,0.765,-1.394,1.426,91.2,red,245,TRUE
276,1660702639.001,3915,6535,3348,1.44,-1.358,0.732,88.8,blue,245,TRUE
277,1660702640.536,3599,-2651,882,4.86,-1.028,0.136,84.1,yellow,245,TRUE
278,1660702640.713,4067,7265,750,0.936,-1.384,1.446,86.8,red,245,TRUE
279,1660702640.813,3903,6546,3348,1.208,-1.416,0.906,90.7,blue,245,TRUE
280,1660702641.264,3678,-2654,882,4.808,-0.857,-0.091,89.1,yellow,245,TRUE
281,1660702641.459,4076,7293,750,0.948,-1.367,1.31,89.4,red,245,TRUE
282,1660702641.55,3904,6564,3348,1.624,-1.377,1.235,88.4,blue,245,TRUE
283,1660702641.954,3722,-2659,882,4.851,-0.841,-0.029,89.1,yellow,245,TRUE
284,1660702642.137,4074,7309,750,0.928,-1.37,1.211,85.5,red,245,TRUE
285,1660702642.224,3880,6579,3348,1.585,-1.365,1.182,88.8,blue,245,TRUE
286,1660702642.689,3762,-2672,882,4.915,-0.927,0.279,88.8,yellow,245,TRUE
287,1660702642.882,4088,7326,750,0.89,-1.385,1.39,91.2,red,245,TRUE
288,1660702642.974,3857,6586,3348,1.636,-1.359,1.14,89.6,blue,245,TRUE
289,1660702643.389,3822,-2692,882,4.902,-0.923,0.259,93.6,yellow,245,TRUE
290,1660702643.575,4095,7318,750,0.851,-1.393,1.465,87.8,red,245,TRUE
291,1660702643.663,3868,6589,3348,1.556,-1.367,1.119,88.7,blue,245,TRUE
292,1660702644.127,3879,-2711,882,4.901,-0.91,0.26,88.8,yellow,245,TRUE
293,1660702644.307,4082,7310,750,0.929,-1.381,1.369,88.6,red,245,TRUE
294,1660702644.396,3847,6597,3348,1.561,-1.365,1.156,88.8,blue,245,TRUE
295,1660702644.798,3930,-2725,882,4.888,-0.927,0.275,90.7,yellow,245,TRUE
296,1660702644.98,4083,7290,750,0.926,-1.374,1.337,88.5,red,245,TRUE
297,1660702645.072,3862,6598,3348,1.511,-1.368,1.136,87.6,blue,245,TRUE
298,1660702645.189,3036,-2584,2526,5.427,-1.275,-0.154,120.3,green,245,TRUE
299,1660702645.594,3987,-2746,882,4.889,-0.932,0.279,88.5,yellow,245,TRUE
300,1660702645.774,4096,7281,750,0.93,-1.369,1.37,89.0,red,245,TRUE
301,1660702645.877,3843,6614,3348,1.43,-1.374,0.861,90.8,blue,245,TRUE
302,1660702647.434,4035,-2750,882,4.889,-0.938,0.283,97.2,yellow,245,TRUE
303,1660702647.624,4097,7313,750,0.752,-1.405,1.336,87.7,red,245,TRUE
304,1660702647.712,3798,6616,3348,1.388,-1.402,0.864,88.2,blue,245,TRUE
305,1660702649.265,4076,-2767,882,4.887,-0.924,0.274,97.2,yellow,245,TRUE
306,1660702649.452,4108,7342,750,0.838,-1.374,1.151,89.3,red,245,TRUE
307,1660702649.542,3840,6614,3348,1.294,-1.41,0.87,88.8,blue,245,TRUE
308,1660702651.093,4102,-2775,882,4.886,-0.995,0.292,83.8,yellow,245,TRUE
309,1660702651.266,4118,7352,750,0.892,-1.406,1.506,89.4,red,245,TRUE
310,1660702651.37,3836,6608,3348,1.212,-1.453,0.115,91.8,blue,245,TRUE
311,1660702652.889,4101,-2802,882,4.897,-0.944,0.261,84.4,yellow,245,TRUE
312,1660702653.065,4134,7347,750,0.87,-1.378,1.186,88.8,red,245,TRUE
313,1660702653.158,3847,6598,3348,1.285,-1.41,1.273,87.0,blue,245,TRUE
314,1660702653.246,2955,-2499,2526,5.401,-1.066,-0.112,88.7,green,245,TRUE
315,1660702654.644,4108,-2800,882,4.896,-0.899,0.124,88.2,yellow,245,TRUE
316,1660702654.828,4121,7323,750,0.855,-1.39,1.292,83.6,red,245,TRUE
317,1660702654.915,3863,6583,3348,1.266,-1.392,1.056,87.2,blue,245,TRUE
318,1660702655.003,2960,-2512,2526,5.583,-1.369,1.388,90.1,green,245,TRUE
319,1660702655.395,4057,-2804,882,4.868,-0.965,0.052,88.0,yellow,245,TRUE
320,1660702655.573,4113,7295,750,0.856,-1.389,1.237,89.3,red,245,TRUE
321,1660702655.666,3821,6558,3348,1.237,-1.397,1.286,86.8,blue,245,TRUE
322,1660702655.754,2969,-2530,2526,5.392,-1.313,-0.139,90.7,green,245,TRUE
323,1660702656.143,4023,-2795,882,4.863,-0.964,0.06,89.3,yellow,245,TRUE
324,1660702656.324,4129,7301,750,0.796,-1.384,1.082,87.8,red,245,TRUE
325,1660702656.413,3862,6542,3348,1.292,-1.413,1.33,88.8,blue,245,TRUE
326,1660702657.887,3987,-2781,882,4.885,-0.911,0.113,85.2,yellow,245,TRUE
327,1660702658.063,4116,7288,750,0.467,-1.406,1.047,89.2,red,245,TRUE
328,1660702658.154,3881,6530,3348,1.285,-1.407,1.312,89.3,blue,245,TRUE
329,1660702658.247,2968,-2538,2526,5.382,-1.394,-0.261,85.6,green,245,TRUE
330,1660702658.633,3963,-2772,882,4.887,-0.909,0.117,88.8,yellow,245,TRUE
331,1660702658.815,4095,7293,750,0.587,-1.382,1.169,90.0,red,245,TRUE
332,1660702658.906,3886,6510,3348,1.246,-1.401,1.282,89.1,blue,245,TRUE
333,1660702658.996,2975,-2525,2526,5.366,-1.372,-0.296,88.5,green,245,TRUE
334,1660702659.385,3946,-2776,882,4.886,-0.908,0.11,88.8,yellow,245,TRUE
335,1660702659.564,4125,7325,750,0.596,-1.384,1.112,88.8,red,245,TRUE
336,1660702659.656,3897,6490,3348,1.241,-1.404,1.589,86.8,blue,245,TRUE
337,1660702659.744,2965,-2503,2526,5.368,-1.374,-0.278,88.8,green,245,TRUE
338,1660702660.134,3935,-2772,882,4.886,-0.905,0.108,91.7,yellow,245,TRUE
339,1660702660.316,4125,7345,750,0.66,-1.379,1.056,88.4,red,245,TRUE
340,1660702660.405,3917,6514,3348,1.244,-1.405,1.683,88.7,blue,245,TRUE
341,1660702660.495,2967,-2501,2526,5.368,-1.369,-0.273,89.8,green,245,TRUE
342,1660702660.897,3905,-2766,882,4.889,-0.903,0.109,91.1,yellow,245,TRUE
343,1660702661.079,4145,7368,750,0.701,-1.382,1.114,88.8,red,245,TRUE
344,1660702661.17,3951,6522,3348,1.249,-1.412,1.652,87.8,blue,245,TRUE
345,1660702661.26,2972,-2504,2526,5.37,-1.343,-0.213,86.7,green,245,TRUE
346,1660702661.663,3917,-2768,882,4.89,-0.906,0.11,88.8,yellow,245,TRUE
347,1660702661.844,4133,7364,750,0.898,-1.355,1.245,88.8,red,245,TRUE
348,1660702661.933,3962,6530,3348,1.269,-1.4,1.557,88.6,blue,245,TRUE
349,1660702662.023,2965,-2511,2526,5.367,-1.362,-0.273,89.8,green,245,TRUE
350,1660702662.415,3922,-2762,882,4.889,-0.903,0.113,88.8,yellow,245,TRUE
351,1660702662.596,4117,7366,750,0.924,-1.372,1.213,88.2,red,245,TRUE
352,1660702662.686,3954,6552,3348,1.288,-1.39,1.455,89.9,blue,245,TRUE
353,1660702662.788,2987,-2521,2526,5.364,-1.369,-0.278,91.5,green,245,TRUE
354,1660702663.181,3897,-2762,882,4.89,-0.898,0.112,88.3,yellow,245,TRUE
355,1660702663.361,4112,7355,750,0.909,-1.369,1.191,88.9,red,245,TRUE
356,1660702663.451,3967,6554,3348,1.172,-1.424,1.228,89.8,blue,245,TRUE
357,1660702663.54,2981,-2524,2526,5.36,-1.347,-0.262,88.6,green,245,TRUE
358,1660702663.93,3893,-2774,882,4.889,-0.898,0.112,88.8,yellow,245,TRUE
359,1660702664.113,4097,7339,750,0.874,-1.373,1.137,86.6,red,245,TRUE
360,1660702664.202,3953,6557,3348,1.192,-1.434,0.802,86.5,blue,245,TRUE
361,1660702664.29,2957,-2502,2526,5.366,-1.335,-0.211,88.9,green,245,TRUE
362,1660702664.679,3848,-2781,882,4.889,-0.904,0.113,88.3,yellow,245,TRUE
363,1660702664.859,4081,7350,750,1.023,-1.342,1.272,87.9,red,245,TRUE
364,1660702664.948,3940,6555,3348,1.612,-1.386,1.091,89.4,blue,245,TRUE
365,1660702665.039,2949,-2487,2526,5.367,-1.322,-0.188,90.3,green,245,TRUE
366,1660702665.43,3859,-2789,882,4.889,-0.899,0.111,87.8,yellow,245,TRUE
367,1660702665.612,4060,7329,750,1.71,-1.365,1.44,87.2,red,245,TRUE
368,1660702665.699,3943,6555,3348,1.989,-1.32,1.06,89.2,blue,245,TRUE
369,1660702665.802,2925,-2475,2526,5.369,-1.302,-0.163,91.6,green,245,TRUE
370,1660702666.18,3826,-2802,882,4.879,-0.892,0.088,88.9,yellow,245,TRUE
371,1660702666.361,4056,7275,750,1.775,-1.322,1.812,89.2,red,245,TRUE
372,1660702666.451,3906,6507,3348,2.844,-1.365,0.735,90.4,blue,245,TRUE
373,1660702666.542,2906,-2471,2526,5.368,-1.308,-0.177,88.6,green,245,TRUE
374,1660702666.931,3857,-2808,882,4.876,-0.898,0.088,88.8,yellow,245,TRUE
375,1660702667.113,4027,7227,750,2.044,-1.264,1.172,87.2,red,245,TRUE
376,1660702667.202,3885,6407,3348,2.897,-1.494,3.072,89.3,blue,245,TRUE
377,1660702667.294,2885,-2468,2526,5.369,-1.314,-0.18,86.7,green,245,TRUE
378,1660702667.681,3887,-2813,882,4.871,-0.891,0.087,88.8,yellow,245,TRUE
379,1660702667.861,3988,7104,750,2.347,-1.362,1.119,87.8,red,245,TRUE
380,1660702667.951,3876,6314,3348,2.033,-1.367,2.341,89.2,blue,245,TRUE
381,1660702668.041,2883,-2477,2526,5.368,-1.323,-0.189,87.9,green,245,TRUE
382,1660702668.43,3916,-2806,882,4.871,-0.89,0.088,89.3,yellow,245,TRUE
383,1660702668.612,3923,6889,750,2.342,-1.28,1.354,86.9,red,245,TRUE
384,1660702668.7,3899,6123,3348,2.473,-1.551,0.015,88.6,blue,245,TRUE
385,1660702668.803,2888,-2494,2526,5.37,-1.312,-0.17,91.4,green,245,TRUE
386,1660702669.21,3937,-2801,882,4.876,-0.897,0.081,88.7,yellow,245,TRUE
387,1660702669.391,3882,6615,750,2.489,-1.287,0.78,87.8,red,245,TRUE
388,1660702669.48,3897,5858,3348,2.647,-1.389,0.908,88.7,blue,245,TRUE
389,1660702669.569,2882,-2503,2526,5.366,-1.316,-0.18,89.7,green,245,TRUE
390,1660702669.959,3970,-2795,882,4.879,-0.897,0.075,90.1,yellow,245,TRUE
391,1660702670.143,3825,6287,750,2.269,-1.283,0.897,86.5,red,245,TRUE
392,1660702670.233,3912,5561,3348,2.962,-1.386,0.904,87.5,blue,245,TRUE
393,1660702670.321,2887,-2513,2526,5.366,-1.324,-0.187,89.8,green,245,TRUE
394,1660702670.713,3967,-2783,882,4.884,-0.894,0.082,87.2,yellow,245,TRUE
395,1660702670.904,3803,5933,750,2.387,-1.302,1.132,91.3,red,245,TRUE
396,1660702670.996,3944,5252,3348,2.77,-1.437,1.093,88.6,blue,245,TRUE
397,1660702671.086,2931,-2538,2526,5.469,-1.325,-0.048,88.7,green,245,TRUE
398,1660702671.492,3956,-2797,882,4.885,-0.908,0.109,88.2,yellow,245,TRUE
399,1660702671.672,3811,5585,750,1.834,-1.355,0.961,87.7,red,245,TRUE
400,1660702671.761,3930,4928,3348,2.29,-1.404,0.889,88.6,blue,245,TRUE
401,1660702671.863,2927,-2543,2526,5.421,-1.306,-0.181,90.7,green,245,TRUE
402,1660702672.272,3999,-2791,882,4.885,-0.877,0.11,86.8,yellow,245,TRUE
403,1660702672.45,3817,5229,750,1.787,-1.39,1.151,89.4,red,245,TRUE
404,1660702672.54,3950,4581,3348,1.752,-1.388,0.97,88.6,blue,245,TRUE
405,1660702672.631,2942,-2563,2526,5.401,-1.301,-0.191,87.4,green,245,TRUE
406,1660702673.02,4021,-2781,882,4.881,-0.881,0.069,88.8,yellow,245,TRUE
407,1660702673.2,3829,4859,750,1.844,-1.34,1.35,89.3,red,245,TRUE
408,1660702673.292,3939,4269,3348,1.67,-1.364,1.052,87.9,blue,245,TRUE
409,1660702673.381,2940,-2569,2526,5.387,-1.311,-0.203,88.8,green,245,TRUE
410,1660702673.771,4055,-2769,882,4.866,-0.878,0.035,88.9,yellow,245,TRUE
411,1660702673.951,3841,4466,750,1.796,-1.373,1.53,90.9,red,245,TRUE
412,1660702674.042,3942,3960,3348,1.572,-1.36,0.946,89.2,blue,245,TRUE
413,1660702674.133,2937,-2577,2526,5.395,-1.31,-0.166,88.1,green,245,TRUE
414,1660702674.521,4079,-2753,882,4.862,-0.875,0.034,89.7,yellow,245,TRUE
415,1660702674.702,3862,4116,750,1.87,-1.376,1.481,89.7,red,245,TRUE
416,1660702674.805,3978,3649,3348,1.314,-1.401,0.916,90.6,blue,245,TRUE
417,1660702674.909,2937,-2580,2526,5.395,-1.31,-0.165,90.7,green,245,TRUE
418,1660702675.302,4135,-2742,882,4.863,-0.874,0.041,86.8,yellow,245,TRUE
419,1660702675.481,3860,3793,750,1.811,-1.385,1.409,89.0,red,245,TRUE
420,1660702675.571,4008,3368,3348,1.513,-1.395,0.918,89.2,blue,245,TRUE
421,1660702675.662,2924,-2567,2526,5.391,-1.319,-0.179,88.1,green,245,TRUE
422,1660702676.052,4116,-2756,882,4.868,-0.88,0.051,90.2,yellow,245,TRUE
423,1660702676.234,3911,3482,750,1.812,-1.394,1.343,87.7,red,245,TRUE
424,1660702676.326,4036,3152,3348,1.475,-1.377,0.915,86.0,blue,245,TRUE
425,1660702676.413,2906,-2552,2526,5.38,-1.326,-0.193,89.6,green,245,TRUE
426,1660702676.789,4108,-2763,882,4.872,-0.881,0.051,88.7,yellow,245,TRUE
427,1660702676.97,3968,3228,750,1.702,-1.391,1.333,89.7,red,245,TRUE
428,1660702677.06,4024,2950,3348,1.103,-1.349,1.113,88.9,blue,245,TRUE
429,1660702677.152,2894,-2545,2526,5.385,-1.324,-0.183,87.8,green,245,TRUE
430,1660702677.54,4077,-2765,882,4.874,-0.886,0.063,87.7,yellow,245,TRUE
431,1660702677.719,4012,3032,750,1.728,-1.396,1.602,89.4,red,245,TRUE
432,1660702677.822,3993,2825,3348,0.82,-1.398,1.273,91.2,blue,245,TRUE
433,1660702677.916,2873,-2536,2526,5.385,-1.321,-0.178,86.8,green,245,TRUE
434,1660702678.292,4057,-2777,882,4.874,-0.886,0.063,86.8,yellow,245,TRUE
435,1660702678.469,4056,2919,750,1.752,-1.39,1.669,88.8,red,245,TRUE
436,1660702678.559,3959,2743,3348,1.125,-1.4,1.52,90.2,blue,245,TRUE
437,1660702678.651,2873,-2533,2526,5.391,-1.309,-0.16,88.2,green,245,TRUE
438,1660702679.041,4040,-2789,882,4.874,-0.886,0.063,87.6,yellow,245,TRUE
439,1660702679.22,4106,2850,750,1.746,-1.392,1.762,90.1,red,245,TRUE
440,1660702679.312,3923,2702,3348,0.952,-1.407,1.458,88.3,blue,245,TRUE
441,1660702679.4,2855,-2520,2526,5.39,-1.316,-0.161,91.6,green,245,TRUE
442,1660702679.794,4006,-2811,882,4.874,-0.886,0.063,87.6,yellow,245,TRUE
443,1660702679.973,4148,2837,750,1.762,-1.388,1.768,87.7,red,245,TRUE
444,1660702680.062,3875,2678,3348,1.029,-1.393,1.418,88.8,blue,245,TRUE
445,1660702680.153,2804,-2493,2526,5.39,-1.319,-0.157,88.1,green,245,TRUE
446,1660702680.544,3992,-2809,882,4.874,-0.886,0.063,88.8,yellow,245,TRUE
447,1660702680.724,4159,2815,750,1.766,-1.39,1.701,89.3,red,245,TRUE
448,1660702680.827,3869,2646,3348,1.056,-1.386,1.377,90.5,blue,245,TRUE
449,1660702680.92,2784,-2486,2526,5.39,-1.289,-0.133,87.0,green,245,TRUE
450,1660702681.323,3957,-2816,882,4.874,-0.887,0.063,88.9,yellow,245,TRUE
451,1660702681.502,4183,2810,750,1.76,-1.39,1.667,89.2,red,245,TRUE
452,1660702681.593,3826,2666,3348,1.072,-1.382,1.392,89.4,blue,245,TRUE
453,1660702681.685,2756,-2472,2526,5.381,-1.296,-0.147,88.3,green,245,TRUE
454,1660702682.074,3937,-2823,882,4.874,-0.89,0.063,87.8,yellow,245,TRUE
455,1660702682.253,4189,2820,750,1.752,-1.118,1.774,88.8,red,245,TRUE
456,1660702682.343,3835,2641,3348,1.078,-1.382,1.396,87.8,blue,245,TRUE
457,1660702682.432,2758,-2469,2526,5.381,-1.31,-0.151,88.8,green,245,TRUE
458,1660702682.821,3909,-2834,882,4.874,-0.884,0.063,88.8,yellow,245,TRUE
459,1660702683.016,4202,2826,750,1.881,-1.394,1.572,88.8,red,245,TRUE
460,1660702683.106,3785,2632,3348,1.066,-1.385,1.427,87.8,blue,245,TRUE
461,1660702683.195,2761,-2468,2526,5.381,-1.306,-0.148,88.8,green,245,TRUE
462,1660702683.599,3876,-2842,882,4.874,-0.881,0.063,90.3,yellow,245,TRUE
463,1660702683.779,4245,2823,750,1.935,-1.328,1.863,89.1,red,245,TRUE
464,1660702683.883,3780,2627,3348,1.084,-1.383,1.463,92.1,blue,245,TRUE
465,1660702683.975,2768,-2472,2526,5.382,-1.3,-0.143,89.3,green,245,TRUE
466,1660702684.381,3836,-2845,882,4.874,-0.881,0.063,87.5,yellow,245,TRUE
467,1660702684.56,4274,2791,750,1.754,-1.366,1.067,87.8,red,245,TRUE
468,1660702684.65,3751,2634,3348,1.102,-1.379,1.466,88.2,blue,245,TRUE
469,1660702684.739,2780,-2492,2526,5.462,-1.218,0.056,118.7,green,245,TRUE
470,1660702685.191,3821,-2835,882,4.874,-0.88,0.063,88.3,yellow,245,TRUE
471,1660702685.372,4262,2784,750,1.729,-1.386,1.365,87.1,red,245,TRUE
472,1660702685.46,3728,2632,3348,1.202,-1.356,1.419,89.8,blue,245,TRUE
473,1660702685.55,2830,-2530,2526,5.462,-1.167,0.16,90.0,green,245,TRUE
474,1660702685.926,3800,-2840,882,4.874,-0.881,0.063,88.8,yellow,245,TRUE
475,1660702686.109,4271,2785,750,1.758,-1.341,1.672,85.8,red,245,TRUE
476,1660702686.196,3738,2603,3348,0.927,-1.394,1.466,88.9,blue,245,TRUE
477,1660702686.284,2847,-2547,2526,5.429,-1.179,0.239,105.4,green,245,TRUE
478,1660702686.69,3782,-2843,882,4.872,-0.884,0.062,88.5,yellow,245,TRUE
479,1660702686.87,4277,2790,750,1.704,-1.347,1.39,88.8,red,245,TRUE
480,1660702686.96,3747,2608,3348,0.872,-1.394,1.565,88.8,blue,245,TRUE
481,1660702687.05,2875,-2566,2526,5.443,-1.202,0.276,104.3,green,245,TRUE
482,1660702687.459,3785,-2848,882,4.872,-0.881,0.062,85.8,yellow,245,TRUE
483,1660702687.638,4278,2790,750,1.691,-1.349,1.52,89.1,red,245,TRUE
484,1660702687.728,3722,2614,3348,0.707,-1.43,1.658,89.2,blue,245,TRUE
485,1660702687.831,2891,-2575,2526,5.426,-1.196,0.25,91.9,green,245,TRUE
486,1660702688.242,3785,-2851,882,4.872,-0.881,0.062,85.7,yellow,245,TRUE
487,1660702688.419,4271,2776,750,1.693,-1.349,1.452,88.8,red,245,TRUE
488,1660702688.509,3712,2612,3348,0.878,-1.408,1.378,89.1,blue,245,TRUE
489,1660702688.599,2942,-2605,2526,5.417,-1.156,0.177,118.8,green,245,TRUE
490,1660702689.018,3792,-2849,882,4.864,-0.879,0.045,89.8,yellow,245,TRUE
491,1660702689.199,4273,2753,750,1.695,-1.33,1.392,88.2,red,245,TRUE
492,1660702689.288,3732,2623,3348,1.115,-1.361,0.898,88.5,blue,245,TRUE
493,1660702690.825,3796,-2852,882,4.863,-0.886,0.069,99.2,yellow,245,TRUE
494,1660702691.014,4273,2739,750,1.743,-1.32,1.393,88.8,red,245,TRUE
495,1660702691.103,3636,2552,3348,2.116,-1.427,0.813,88.8,blue,245,TRUE
496,1660702692.651,3813,-2855,882,4.86,-0.89,0.085,83.7,yellow,245,TRUE
497,1660702692.826,4265,2721,750,1.751,-1.321,1.319,89.7,red,245,TRUE
498,1660702692.929,3581,2556,3348,6.226,-1.402,1.503,92.3,blue,245,TRUE
499,1660702694.485,3850,-2855,882,4.839,-0.878,0.057,97.6,yellow,245,TRUE
500,1660702694.677,4273,2718,750,1.763,-1.318,1.356,84.7,red,245,TRUE
501,1660702694.763,3583,2629,3348,1.079,-1.448,1.013,88.8,blue,245,TRUE
502,1660702695.229,3894,-2855,882,4.848,-0.914,0.088,86.7,yellow,245,TRUE
503,1660702695.408,4258,2713,750,1.748,-1.332,1.366,86.8,red,245,TRUE
504,1660702695.496,3781,2719,3348,1.418,-1.4,1.348,89.1,blue,245,TRUE
505,1660702697.053,4201,2721,750,1.821,-1.314,1.259,88.9,red,245,TRUE
506,1660702697.15,3919,2725,3348,2.844,-1.33,0.807,96.7,blue,245,TRUE
507,1660702697.261,2968,-2627,2526,5.394,-1.223,0.176,74.8,green,245,TRUE
508,1660702697.623,3933,-2847,882,4.857,-0.982,0.196,87.6,yellow,245,TRUE
509,1660702697.802,4181,2738,750,1.87,-1.314,1.308,89.3,red,245,TRUE
510,1660702697.906,4094,2763,3348,2.761,-1.314,0.875,90.7,blue,245,TRUE
511,1660702697.997,2966,-2618,2526,5.43,-1.144,0.23,88.8,green,245,TRUE
512,1660702698.402,3960,-2838,882,4.866,-0.939,0.212,88.8,yellow,245,TRUE
513,1660702698.583,4189,2737,750,1.794,-1.307,1.162,89.4,red,245,TRUE
514,1660702698.675,4247,2810,3348,2.966,-1.395,0.892,85.4,blue,245,TRUE
515,1660702698.762,2965,-2614,2526,5.412,-1.097,0.141,88.4,green,245,TRUE
516,1660702699.151,3983,-2825,882,4.867,-0.939,0.209,88.8,yellow,245,TRUE
517,1660702699.331,4186,2742,750,1.79,-1.316,1.185,90.7,red,245,TRUE
518,1660702699.424,4373,2871,3348,3.108,-1.438,0.567,86.4,blue,245,TRUE
519,1660702699.512,2970,-2617,2526,5.407,-1.142,0.202,88.5,green,245,TRUE
520,1660702699.901,3995,-2808,882,4.866,-0.951,0.213,89.3,yellow,245,TRUE
521,1660702700.082,4176,2741,750,1.78,-1.336,1.176,89.8,red,245,TRUE
522,1660702700.174,4506,2895,3348,2.698,-1.448,0.782,86.5,blue,245,TRUE
523,1660702700.262,2975,-2621,2526,5.412,-1.139,0.177,88.8,green,245,TRUE
524,1660702700.651,4008,-2789,882,4.864,-0.945,0.206,89.3,yellow,245,TRUE
525,1660702700.832,4200,2758,750,1.707,-1.382,0.901,90.2,red,245,TRUE
526,1660702700.935,4672,2917,3348,2.69,-1.349,1.096,90.8,blue,245,TRUE
527,1660702701.026,2974,-2618,2526,5.407,-1.167,0.196,89.0,green,245,TRUE
528,1660702701.433,4008,-2771,882,4.892,-0.941,0.206,90.4,yellow,245,TRUE
529,1660702701.613,4214,2759,750,1.968,-1.345,1.228,88.8,red,245,TRUE
530,1660702701.705,4828,2916,3348,2.716,-1.377,0.916,86.4,blue,245,TRUE
531,1660702701.792,2968,-2605,2526,5.405,-1.169,0.194,88.7,green,245,TRUE
532,1660702702.213,3996,-2750,882,4.909,-0.948,0.208,87.8,yellow,245,TRUE
533,1660702702.393,4224,2783,750,1.858,-1.358,1.295,86.8,red,245,TRUE
534,1660702702.481,4966,2920,3348,2.897,-1.426,1.05,90.1,blue,245,TRUE
535,1660702702.572,2990,-2608,2526,5.392,-1.184,0.22,87.7,green,245,TRUE
536,1660702702.963,4016,-2741,882,4.909,-0.948,0.208,89.3,yellow,245,TRUE
537,1660702703.146,4225,2772,750,2.031,-1.369,1.237,87.8,red,245,TRUE
538,1660702703.235,5194,3030,3348,2.598,-1.474,0.087,90.2,blue,245,TRUE
539,1660702703.326,3037,-2627,2526,5.411,-1.176,0.214,89.0,green,245,TRUE
540,1660702703.702,4004,-2723,882,4.908,-0.947,0.208,89.0,yellow,245,TRUE
541,1660702703.882,4212,2773,750,1.987,-1.382,1.25,89.6,red,245,TRUE
542,1660702703.972,5339,3025,3348,3.449,-1.358,1.367,89.3,blue,245,TRUE
543,1660702704.063,3075,-2639,2526,5.4,-1.172,0.173,88.3,green,245,TRUE
544,1660702704.455,4000,-2704,882,4.909,-0.948,0.208,88.5,yellow,245,TRUE
545,1660702704.636,4211,2762,750,1.912,-1.397,1.191,86.7,red,245,TRUE
546,1660702704.724,5480,2991,3348,2.446,-1.455,0.115,89.8,blue,245,TRUE
547,1660702704.828,3040,-2619,2526,5.401,-1.166,0.152,92.1,green,245,TRUE
548,1660702705.236,3984,-2694,882,4.909,-0.945,0.207,87.8,yellow,245,TRUE
549,1660702705.417,4240,2766,750,1.076,-1.45,0.592,87.7,red,245,TRUE
550,1660702705.506,5488,2912,3348,2.483,-1.364,1.196,87.8,blue,245,TRUE
551,1660702705.594,2987,-2591,2526,5.371,-1.17,0.119,88.6,green,245,TRUE
552,1660702705.984,3960,-2683,882,4.91,-0.949,0.209,89.3,yellow,245,TRUE
553,1660702706.166,4237,2765,750,1.485,-1.368,1.272,88.7,red,245,TRUE
554,1660702706.255,5493,2934,3348,2.674,-1.367,1.089,89.2,blue,245,TRUE
555,1660702706.345,2943,-2561,2526,5.349,-1.221,0.141,104.4,green,245,TRUE
556,1660702706.765,3936,-2678,882,4.91,-0.946,0.208,88.7,yellow,245,TRUE
557,1660702706.946,4262,2789,750,1.474,-1.412,0.927,86.8,red,245,TRUE
558,1660702707.033,5475,2919,3348,3.0,-1.404,1.533,88.8,blue,245,TRUE
559,1660702707.124,2927,-2558,2526,5.356,-1.248,0.167,87.8,green,245,TRUE
560,1660702707.512,3921,-2673,882,4.911,-0.941,0.201,88.7,yellow,245,TRUE
561,1660702707.694,4290,2803,750,1.132,-1.422,0.647,86.8,red,245,TRUE
562,1660702707.781,5460,2895,3348,4.01,-1.401,0.516,88.8,blue,245,TRUE
563,1660702707.884,2912,-2546,2526,5.319,-1.232,0.139,90.8,green,245,TRUE
564,1660702708.262,3915,-2668,882,4.913,-0.942,0.194,86.8,yellow,245,TRUE
565,1660702708.441,4309,2805,750,1.104,-1.438,0.688,87.8,red,245,TRUE
566,1660702708.529,5415,2889,3348,4.315,-1.422,1.134,88.8,blue,245,TRUE
567,1660702708.619,2912,-2546,2526,5.32,-1.224,0.136,73.8,green,245,TRUE
568,1660702708.979,3910,-2661,882,4.916,-0.942,0.195,88.8,yellow,245,TRUE
569,1660702709.16,4343,2824,750,0.896,-1.402,1.034,86.8,red,245,TRUE
570,1660702709.248,5385,2890,3348,4.398,-1.403,1.359,88.8,blue,245,TRUE
571,1660702709.337,2914,-2545,2526,5.346,-1.224,0.163,88.6,green,245,TRUE
572,1660702710.879,4334,2866,750,0.493,-1.362,0.837,88.7,red,245,TRUE
573,1660702710.975,5320,2853,3348,3.448,-1.44,1.364,82.8,blue,245,TRUE
574,1660702711.059,2907,-2542,2526,5.331,-1.216,0.155,87.8,green,245,TRUE
575,1660702711.432,3921,-2664,882,4.915,-0.926,0.205,88.8,yellow,245,TRUE
576,1660702711.612,4331,2913,750,0.431,-1.373,0.76,88.8,red,245,TRUE
577,1660702711.704,5260,2843,3348,3.292,-1.33,2.027,86.8,blue,245,TRUE
578,1660702711.791,2926,-2556,2526,5.373,-1.189,0.204,88.8,green,245,TRUE
579,1660702712.18,3904,-2660,882,4.913,-0.942,0.204,88.8,yellow,245,TRUE
580,1660702712.36,4331,2954,750,0.394,-1.369,0.74,89.7,red,245,TRUE
581,1660702712.453,5217,2855,3348,4.311,-1.346,1.55,85.8,blue,245,TRUE
582,1660702712.539,2913,-2546,2526,5.383,-1.194,0.215,88.8,green,245,TRUE
583,1660702712.941,3899,-2660,882,4.9,-0.951,0.158,90.8,yellow,245,TRUE
584,1660702713.123,4341,2987,750,0.481,-1.355,0.771,89.8,red,245,TRUE
585,1660702713.216,5186,2869,3348,4.705,-1.4,1.105,85.8,blue,245,TRUE
586,1660702713.303,2811,-2492,2526,5.347,-1.21,0.148,87.8,green,245,TRUE
587,1660702714.89,4384,3005,750,1.277,-1.38,1.105,89.2,red,245,TRUE
588,1660702714.984,5183,2915,3348,4.115,-1.457,0.103,86.0,blue,245,TRUE
589,1660702715.072,2733,-2446,2526,5.418,-1.153,0.169,86.8,green,245,TRUE
590,1660702715.445,3889,-2658,882,4.908,-0.961,0.196,88.8,yellow,245,TRUE
591,1660702715.624,4435,3019,750,1.796,-1.337,1.71,88.8,red,245,TRUE
592,1660702715.715,5118,2913,3348,2.971,-1.42,0.75,87.8,blue,245,TRUE
593,1660702715.804,2657,-2403,2526,5.433,-1.16,0.176,88.8,green,245,TRUE
594,1660702716.209,3875,-2669,882,4.929,-0.938,0.248,88.8,yellow,245,TRUE
595,1660702716.389,4442,3025,750,1.588,-1.382,3.078,88.7,red,245,TRUE
596,1660702716.48,5010,2935,3348,3.362,-1.431,1.164,86.8,blue,245,TRUE
597,1660702716.568,2658,-2403,2526,5.43,-1.166,0.178,88.8,green,245,TRUE
598,1660702716.957,3889,-2674,882,4.933,-0.912,0.217,88.8,yellow,245,TRUE
599,1660702718.199,4959,2930,3348,2.453,-1.475,0.073,88.8,blue,245,TRUE
600,1660702718.289,2660,-2404,2526,5.372,-1.199,0.111,89.8,green,245,TRUE
601,1660702718.694,3891,-2676,882,4.92,-0.927,0.214,87.8,yellow,245,TRUE
602,1660702718.872,4461,2929,750,1.328,-1.427,2.476,88.8,red,245,TRUE
603,1660702718.962,4931,2932,3348,2.366,-1.393,1.005,88.8,blue,245,TRUE
604,1660702719.052,2673,-2413,2526,5.385,-1.208,0.109,88.8,green,245,TRUE
605,1660702719.441,3879,-2671,882,4.926,-0.937,0.22,89.3,yellow,245,TRUE
606,1660702719.621,4433,2824,750,0.93,-1.431,1.452,88.8,red,245,TRUE
607,1660702719.711,4913,2911,3348,2.296,-1.449,1.036,87.8,blue,245,TRUE
608,1660702719.8,2696,-2427,2526,5.406,-1.189,0.134,88.8,green,245,TRUE
609,1660702720.205,3895,-2678,882,4.921,-0.925,0.214,87.8,yellow,245,TRUE
610,1660702720.384,4411,2732,750,0.485,-1.424,1.476,88.8,red,245,TRUE
611,1660702720.475,4923,2842,3348,2.4,-1.546,3.129,86.8,blue,245,TRUE
612,1660702720.563,2714,-2446,2526,5.456,-1.107,0.144,88.8,green,245,TRUE
613,1660702720.982,3911,-2679,882,4.923,-0.938,0.218,88.8,yellow,245,TRUE
614,1660702722.135,4386,2645,750,5.898,-1.456,0.094,87.8,red,245,TRUE
615,1660702722.225,4935,2821,3348,2.559,-1.402,0.954,87.8,blue,245,TRUE
616,1660702722.318,2733,-2460,2526,5.318,-1.395,-0.245,83.8,green,245,TRUE
617,1660702722.702,3906,-2679,882,4.925,-0.936,0.213,88.8,yellow,245,TRUE
618,1660702722.882,4363,2546,750,5.709,-1.421,0.489,88.8,red,245,TRUE
619,1660702722.972,4920,2864,3348,3.043,-1.403,1.356,88.8,blue,245,TRUE
620,1660702723.061,2730,-2457,2526,5.343,-1.25,-0.118,88.8,green,245,TRUE
621,1660702723.45,3899,-2682,882,4.927,-0.938,0.209,88.7,yellow,245,TRUE
622,1660702723.63,4342,2420,750,5.296,-1.405,0.224,88.8,red,245,TRUE
623,1660702723.722,4909,2902,3348,2.795,-1.448,1.214,86.8,blue,245,TRUE
624,1660702723.809,2748,-2465,2526,5.344,-1.234,-0.122,88.8,green,245,TRUE
625,1660702724.198,3914,-2685,882,4.925,-0.933,0.202,88.7,yellow,245,TRUE
626,1660702724.378,4315,2289,750,5.341,-1.478,0.041,88.8,red,245,TRUE
627,1660702724.471,4903,2902,3348,3.266,-1.362,1.022,85.8,blue,245,TRUE
628,1660702724.557,2768,-2484,2526,5.327,-1.284,-0.172,88.8,green,245,TRUE
629,1660702724.959,3919,-2681,882,4.925,-0.929,0.201,90.8,yellow,245,TRUE
630,1660702725.141,4284,2161,750,5.195,-1.398,0.597,88.5,red,245,TRUE
631,1660702725.232,4867,2899,3348,2.776,-1.436,1.092,87.8,blue,245,TRUE
632,1660702725.321,2825,-2515,2526,5.327,-1.306,-0.151,87.8,green,245,TRUE
633,1660702725.694,3934,-2681,882,4.925,-0.935,0.211,88.4,yellow,245,TRUE
634,1660702725.873,4241,2067,750,5.209,-1.366,1.337,89.3,red,245,TRUE
635,1660702725.963,4868,2893,3348,2.895,-1.39,1.179,88.8,blue,245,TRUE
636,1660702726.053,2845,-2538,2526,5.449,-1.295,-0.034,88.9,green,245,TRUE
637,1660702726.442,3914,-2678,882,4.925,-0.934,0.211,89.3,yellow,245,TRUE
638,1660702726.623,4117,1929,750,3.785,-1.474,0.084,90.0,red,245,TRUE
639,1660702726.715,4836,2882,3348,3.462,-1.369,1.136,89.2,blue,245,TRUE
640,1660702726.804,2884,-2558,2526,5.364,-1.298,-0.132,89.3,green,245,TRUE
641,1660702727.193,3929,-2672,882,4.925,-0.934,0.211,88.8,yellow,245,TRUE
642,1660702727.373,3928,1752,750,3.248,-1.341,1.108,88.2,red,245,TRUE
643,1660702727.463,4867,2870,3348,2.164,-1.418,1.274,88.8,blue,245,TRUE
644,1660702727.554,2917,-2570,2526,5.343,-1.312,-0.192,86.8,green,245,TRUE
645,1660702727.941,3935,-2670,882,4.923,-0.922,0.208,88.8,yellow,245,TRUE
646,1660702728.121,3761,1521,750,2.622,-1.341,1.178,88.8,red,245,TRUE
647,1660702728.212,4892,2847,3348,1.86,-1.337,1.284,87.8,blue,245,TRUE
648,1660702728.3,2943,-2587,2526,5.686,-1.277,0.312,88.8,green,245,TRUE
649,1660702728.704,3953,-2677,882,4.922,-0.917,0.208,88.8,yellow,245,TRUE
650,1660702728.884,3643,1343,750,2.134,-1.362,1.378,88.8,red,245,TRUE
651,1660702728.974,4831,2833,3348,3.487,-1.369,1.797,88.8,blue,245,TRUE
652,1660702729.062,2966,-2590,2526,5.847,-1.271,0.199,89.8,green,245,TRUE
653,1660702729.452,4005,-2710,882,4.89,-0.881,0.124,88.8,yellow,245,TRUE
654,1660702729.632,3506,1180,750,1.957,-1.37,0.82,88.8,red,245,TRUE
655,1660702729.723,4723,2822,3348,3.608,-1.332,1.349,87.8,blue,245,TRUE
656,1660702729.811,2987,-2596,2526,5.841,-1.262,0.176,89.8,green,245,TRUE
657,1660702730.23,3976,-2713,882,4.904,-0.857,0.071,89.8,yellow,245,TRUE
658,1660702730.41,3375,991,750,1.896,-1.357,0.944,88.8,red,245,TRUE
659,1660702730.502,4601,2742,3348,2.47,-1.36,1.578,86.8,blue,245,TRUE
660,1660702730.589,3003,-2589,2526,5.844,-1.248,0.179,88.8,green,245,TRUE
661,1660702730.978,3973,-2722,882,4.889,-0.804,0.039,88.8,yellow,245,TRUE
662,1660702731.16,3250,816,750,2.042,-1.316,1.193,86.8,red,245,TRUE
663,1660702731.248,4557,2627,3348,1.212,-1.324,1.455,88.8,blue,245,TRUE
664,1660702731.337,2982,-2575,2526,5.481,-1.312,0.224,88.8,green,245,TRUE
665,1660702731.726,4017,-2744,882,4.881,-0.831,0.041,74.8,yellow,245,TRUE
666,1660702731.891,3121,640,750,2.047,-1.326,1.281,88.7,red,245,TRUE
667,1660702731.981,4537,2526,3348,0.752,-1.35,1.529,88.8,blue,245,TRUE
668,1660702732.07,3004,-2580,2526,5.589,-1.34,0.043,88.8,green,245,TRUE
669,1660702732.474,4037,-2761,882,4.889,-0.819,0.037,88.8,yellow,245,TRUE
670,1660702732.656,3001,450,750,2.047,-1.34,1.324,86.8,red,245,TRUE
671,1660702732.744,4550,2383,3348,0.671,-1.39,1.85,88.8,blue,245,TRUE
672,1660702732.846,2973,-2564,2526,5.463,-1.396,-0.197,105.7,green,245,TRUE
673,1660702733.252,4035,-2778,882,4.891,-0.777,0.008,88.4,yellow,245,TRUE
674,1660702733.431,2881,282,750,2.064,-1.338,1.301,88.8,red,245,TRUE
675,1660702733.522,4536,2268,3348,0.376,-1.441,1.846,87.8,blue,245,TRUE
676,1660702733.611,2962,-2553,2526,5.397,-1.088,0.011,89.8,green,245,TRUE
677,1660702734.0,4008,-2802,882,4.886,-0.8,0.011,88.8,yellow,245,TRUE
678,1660702734.18,2758,109,750,2.077,-1.334,1.319,87.8,red,245,TRUE
679,1660702734.269,4531,2135,3348,0.459,-1.406,1.562,88.8,blue,245,TRUE
680,1660702735.71,4005,-2826,882,4.901,-0.783,0.011,98.7,yellow,245,TRUE
681,1660702735.9,2654,-45,750,0.44,-1.396,0.662,88.8,red,245,TRUE
682,1660702735.989,4514,2021,3348,0.755,-1.333,1.161,88.8,blue,245,TRUE
683,1660702736.079,2949,-2538,2526,5.315,-1.326,-0.239,88.8,green,245,TRUE
684,1660702736.453,4005,-2839,882,4.901,-0.784,0.009,88.8,yellow,245,TRUE
685,1660702736.633,2585,-161,750,0.347,-1.388,0.659,88.8,red,245,TRUE
686,1660702736.723,4477,1930,3348,0.913,-1.333,1.158,87.8,blue,245,TRUE
687,1660702736.812,2927,-2527,2526,5.357,-1.354,-0.154,88.8,green,245,TRUE
688,1660702737.201,4020,-2855,882,4.899,-0.791,0.013,88.8,yellow,245,TRUE
689,1660702737.381,2559,-236,750,0.346,-1.386,0.658,88.8,red,245,TRUE
690,1660702737.47,4487,1750,3348,1.093,-1.472,0.095,88.8,blue,245,TRUE
691,1660702737.562,2941,-2540,2526,5.39,-1.333,-0.076,86.8,green,245,TRUE
692,1660702737.964,3992,-2860,882,4.9,-0.781,0.013,88.8,yellow,245,TRUE
693,1660702738.144,2544,-252,750,0.323,-1.383,0.623,88.8,red,245,TRUE
694,1660702738.234,4478,1576,3348,0.818,-1.432,1.594,87.8,blue,245,TRUE
695,1660702739.704,4003,-2871,882,4.908,-0.807,0.016,83.8,yellow,245,TRUE
696,1660702739.879,2504,-227,750,0.393,-1.388,0.861,88.8,red,245,TRUE
697,1660702739.976,4500,1511,3348,0.629,-1.36,1.631,96.7,blue,245,TRUE
698,1660702740.073,2956,-2551,2526,5.385,-1.296,-0.127,88.8,green,245,TRUE
699,1660702740.477,3978,-2872,882,4.903,-0.807,0.013,89.8,yellow,245,TRUE
700,1660702740.659,2490,-220,750,0.393,-1.383,0.86,86.8,red,245,TRUE
701,1660702740.747,4547,1440,3348,0.432,-1.4,1.672,88.8,blue,245,TRUE
702,1660702740.849,2972,-2562,2526,5.383,-1.314,-0.109,90.8,green,245,TRUE
703,1660702741.255,4019,-2895,882,4.893,-0.801,0.014,88.8,yellow,245,TRUE
704,1660702741.436,2454,-195,750,0.391,-1.383,0.911,87.8,red,245,TRUE
705,1660702741.527,4619,1469,3348,0.515,-1.398,1.838,86.8,blue,245,TRUE
706,1660702741.614,2967,-2570,2526,5.388,-1.296,-0.089,103.7,green,245,TRUE
707,1660702742.034,4037,-2917,882,4.889,-0.796,0.005,87.8,yellow,245,TRUE
708,1660702742.214,2423,-185,750,0.446,-1.401,0.994,87.8,red,245,TRUE
709,1660702742.302,4636,1514,3348,0.603,-1.381,1.542,88.8,blue,245,TRUE
710,1660702742.392,2972,-2580,2526,5.385,-1.269,-0.072,88.8,green,245,TRUE
711,1660702742.783,4031,-2928,882,4.892,-0.796,0.003,86.8,yellow,245,TRUE
712,1660702742.974,2430,-197,750,2.079,-1.305,1.676,90.8,red,245,TRUE
713,1660702743.065,4655,1515,3348,0.6,-1.352,1.334,88.8,blue,245,TRUE
714,1660702743.155,2986,-2597,2526,5.373,-1.302,-0.116,103.7,green,245,TRUE
715,1660702743.559,4013,-2929,882,4.897,-0.795,0.007,88.8,yellow,245,TRUE
716,1660702743.741,2455,-225,750,2.301,-1.265,1.317,86.8,red,245,TRUE
717,1660702743.828,4623,1558,3348,0.664,-1.32,1.194,88.8,blue,245,TRUE
718,1660702743.931,2994,-2604,2526,5.371,-1.306,-0.107,106.0,green,245,TRUE
719,1660702744.339,4006,-2916,882,4.895,-0.801,0.005,86.8,yellow,245,TRUE
720,1660702744.519,2479,-221,750,2.162,-1.269,1.249,86.8,red,245,TRUE
721,1660702744.607,4628,1554,3348,0.839,-1.332,1.287,88.8,blue,245,TRUE
722,1660702744.697,3004,-2619,2526,5.592,-1.259,0.274,87.8,green,245,TRUE
723,1660702745.1,4041,-2915,882,4.895,-0.802,0.017,88.8,yellow,245,TRUE
724,1660702745.28,2488,-207,750,1.971,-1.281,1.637,88.8,red,245,TRUE
725,1660702745.37,4673,1541,3348,1.093,-1.373,0.901,88.8,blue,245,TRUE
726,1660702745.459,3013,-2624,2526,5.58,-1.256,0.18,88.8,green,245,TRUE
727,1660702745.835,4074,-2919,882,4.9,-0.797,0.014,86.8,yellow,245,TRUE
728,1660702746.013,2489,-202,750,0.912,-1.494,3.066,88.8,red,245,TRUE
729,1660702746.103,4769,1441,3348,1.432,-1.344,0.843,88.8,blue,245,TRUE
730,1660702746.193,3010,-2623,2526,5.6,-1.249,0.193,87.8,green,245,TRUE
731,1660702746.595,4110,-2933,882,4.9,-0.797,0.015,89.8,yellow,245,TRUE
732,1660702746.776,2520,-155,750,0.468,-1.415,1.621,88.8,red,245,TRUE
733,1660702746.878,4909,1359,3348,1.422,-1.403,0.855,90.8,blue,245,TRUE
734,1660702746.981,3041,-2637,2526,5.688,-1.228,0.305,92.8,green,245,TRUE
735,1660702747.374,4095,-2938,882,4.901,-0.804,0.026,88.8,yellow,245,TRUE
736,1660702747.556,2582,-68,750,0.537,-1.38,0.88,86.8,red,245,TRUE
737,1660702747.643,4938,1404,3348,1.39,-1.405,0.756,89.8,blue,245,TRUE
738,1660702749.144,4099,-2949,882,4.897,-0.802,0.043,83.8,yellow,245,TRUE
739,1660702749.319,2758,37,750,5.466,-1.403,0.669,88.8,red,245,TRUE
740,1660702749.409,4942,1446,3348,1.649,-1.343,0.951,88.8,blue,245,TRUE
741,1660702749.498,2962,-2588,2526,5.296,-1.32,-0.22,89.1,green,245,TRUE
742,1660702749.889,4068,-2946,882,4.898,-0.789,0.024,87.8,yellow,245,TRUE
743,1660702750.082,2931,151,750,5.342,-1.371,0.678,89.8,red,245,TRUE
744,1660702750.174,4982,1376,3348,2.163,-1.377,1.211,86.8,blue,245,TRUE
745,1660702750.262,2903,-2557,2526,5.337,-1.313,-0.177,73.8,green,245,TRUE
746,1660702750.636,4055,-2935,882,4.898,-0.789,0.025,89.0,yellow,245,TRUE
747,1660702750.817,3089,253,750,5.221,-1.29,0.407,88.1,red,245,TRUE
748,1660702750.906,5022,1322,3348,2.621,-1.368,1.353,89.2,blue,245,TRUE
749,1660702750.995,2894,-2560,2526,5.357,-1.379,-0.117,75.1,green,245,TRUE
750,1660702751.386,4036,-2924,882,4.899,-0.788,0.024,88.5,yellow,245,TRUE
751,1660702751.568,3240,370,750,5.805,-1.353,1.016,85.8,red,245,TRUE
752,1660702751.654,5132,1208,3348,1.52,-1.443,1.347,89.8,blue,245,TRUE
753,1660702751.746,2885,-2551,2526,5.352,-1.348,-0.145,86.7,green,245,TRUE
754,1660702752.133,4013,-2915,882,4.899,-0.788,0.024,89.7,yellow,245,TRUE
755,1660702752.313,3403,490,750,5.824,-1.378,1.252,88.8,red,245,TRUE
756,1660702752.402,5151,1146,3348,1.925,-1.297,1.422,88.5,blue,245,TRUE
757,1660702752.492,2870,-2547,2526,5.348,-1.354,-0.161,90.2,green,245,TRUE
758,1660702752.881,3993,-2898,882,4.9,-0.788,0.024,89.3,yellow,245,TRUE
759,1660702753.061,3537,633,750,5.586,-1.401,0.845,90.2,red,245,TRUE
760,1660702753.151,5215,1067,3348,1.757,-1.355,1.481,88.8,blue,245,TRUE
761,1660702753.243,2837,-2531,2526,5.343,-1.353,-0.16,86.8,green,245,TRUE
762,1660702753.631,4002,-2893,882,4.9,-0.789,0.023,88.2,yellow,245,TRUE
763,1660702753.811,3649,794,750,5.472,-1.373,0.72,88.8,red,245,TRUE
764,1660702753.913,5296,983,3348,1.84,-1.344,1.374,90.8,blue,245,TRUE
765,1660702754.004,2833,-2523,2526,5.346,-1.348,-0.151,89.2,green,245,TRUE
766,1660702754.38,3998,-2905,882,4.9,-0.789,0.022,89.1,yellow,245,TRUE
767,1660702754.561,3779,936,750,5.67,-1.35,0.9,87.7,red,245,TRUE
768,1660702754.65,5328,963,3348,1.861,-1.341,1.361,89.2,blue,245,TRUE
769,1660702754.742,2845,-2521,2526,5.348,-1.344,-0.141,88.2,green,245,TRUE
770,1660702755.13,4001,-2909,882,4.9,-0.789,0.022,88.6,yellow,245,TRUE
771,1660702755.31,3917,1042,750,5.618,-1.334,0.89,89.4,red,245,TRUE
772,1660702755.4,5338,936,3348,1.876,-1.322,1.268,88.8,blue,245,TRUE
773,1660702755.49,2861,-2532,2526,5.368,-1.343,-0.086,73.6,green,245,TRUE
774,1660702755.879,3977,-2904,882,4.901,-0.788,0.022,88.8,yellow,245,TRUE
775,1660702756.073,4079,1178,750,5.658,-1.344,0.983,89.4,red,245,TRUE
776,1660702756.164,5286,999,3348,1.877,-1.317,1.276,89.5,blue,245,TRUE
777,1660702756.256,2847,-2520,2526,5.366,-1.343,-0.088,87.3,green,245,TRUE
778,1660702756.629,3952,-2899,882,4.9,-0.784,0.023,88.8,yellow,245,TRUE
779,1660702756.809,4219,1249,750,5.832,-1.333,1.083,88.6,red,245,TRUE
780,1660702756.912,5221,1039,3348,2.109,-1.313,1.261,91.6,blue,245,TRUE
781,1660702757.004,2813,-2504,2526,5.365,-1.342,-0.088,89.2,green,245,TRUE
782,1660702757.378,3965,-2896,882,4.9,-0.783,0.025,88.4,yellow,245,TRUE
783,1660702757.56,4325,1291,750,5.777,-1.33,0.994,86.8,red,245,TRUE
784,1660702757.649,5204,1030,3348,1.958,-1.338,1.193,87.8,blue,245,TRUE
785,1660702757.739,2809,-2503,2526,5.365,-1.344,-0.089,86.9,green,245,TRUE
786,1660702758.127,3973,-2898,882,4.9,-0.779,0.027,89.0,yellow,245,TRUE
787,1660702758.306,4296,1295,750,5.452,-1.373,1.129,88.6,red,245,TRUE
788,1660702758.396,5211,999,3348,1.83,-1.392,1.143,89.8,blue,245,TRUE
789,1660702758.486,2827,-2508,2526,5.379,-1.353,-0.093,88.0,green,245,TRUE
790,1660702758.877,3960,-2899,882,4.9,-0.778,0.028,87.8,yellow,245,TRUE
791,1660702759.056,4240,1319,750,5.133,-1.312,1.418,88.7,red,245,TRUE
792,1660702759.146,5203,997,3348,1.598,-1.432,1.458,89.6,blue,245,TRUE
793,1660702759.238,2879,-2541,2526,5.438,-1.324,0.083,86.8,green,245,TRUE
794,1660702759.626,3957,-2903,882,4.899,-0.777,0.028,89.5,yellow,245,TRUE
795,1660702759.805,4126,1321,750,4.449,-1.383,1.414,88.8,red,245,TRUE
796,1660702759.908,5247,990,3348,1.31,-1.51,3.084,90.8,blue,245,TRUE
797,1660702760.0,2832,-2501,2526,5.407,-1.319,-0.009,89.4,green,245,TRUE
798,1660702760.375,3941,-2906,882,4.897,-0.779,0.032,88.8,yellow,245,TRUE
799,1660702760.555,3979,1363,750,4.749,-1.414,1.558,89.9,red,245,TRUE
800,1660702760.647,5218,1044,3348,0.765,-1.492,0.053,87.4,blue,245,TRUE
801,1660702760.737,2856,-2514,2526,5.377,-1.328,-0.136,86.8,green,245,TRUE
802,1660702761.124,3936,-2904,882,4.898,-0.778,0.032,88.6,yellow,245,TRUE
803,1660702761.303,3787,1464,750,5.101,-1.269,1.872,89.2,red,245,TRUE
804,1660702761.393,5239,1011,3348,0.816,-1.429,0.842,89.1,blue,245,TRUE
805,1660702761.483,2865,-2509,2526,5.372,-1.342,-0.131,89.0,green,245,TRUE
806,1660702761.876,3923,-2912,882,4.898,-0.779,0.032,86.9,yellow,245,TRUE
807,1660702762.054,3627,1580,750,4.107,-1.173,-2.448,89.4,red,245,TRUE
808,1660702762.144,5236,1006,3348,0.829,-1.42,0.767,88.7,blue,245,TRUE
809,1660702762.235,2892,-2523,2526,5.377,-1.336,-0.111,88.1,green,245,TRUE
810,1660702762.623,3915,-2919,882,4.897,-0.776,0.033,88.8,yellow,245,TRUE
811,1660702762.804,3478,1675,750,4.03,-1.448,3.041,88.3,red,245,TRUE
812,1660702763.958,2914,-2533,2526,5.373,-1.348,-0.125,90.8,green,245,TRUE
813,1660702764.364,3905,-2918,882,4.897,-0.773,0.034,87.3,yellow,245,TRUE
814,1660702764.542,3209,1716,750,4.635,-1.413,1.186,89.4,red,245,TRUE
815,1660702764.635,5177,1041,3348,0.806,-1.441,0.698,86.5,blue,245,TRUE
816,1660702764.723,2916,-2534,2526,5.372,-1.354,-0.13,88.0,green,245,TRUE
817,1660702765.111,3899,-2919,882,4.896,-0.771,0.035,88.6,yellow,245,TRUE
818,1660702765.291,2871,1780,750,4.807,-1.353,0.866,88.8,red,245,TRUE
819,1660702765.393,5186,1058,3348,0.899,-1.431,1.138,91.2,blue,245,TRUE
820,1660702765.487,2897,-2517,2526,5.372,-1.353,-0.129,87.8,green,245,TRUE
821,1660702765.891,3888,-2918,882,4.896,-0.771,0.035,89.1,yellow,245,TRUE
822,1660702766.071,2510,1801,750,4.775,-1.37,0.814,87.9,red,245,TRUE
823,1660702766.16,5185,1090,3348,0.927,-1.408,1.274,88.5,blue,245,TRUE
824,1660702766.251,2919,-2532,2526,5.373,-1.346,-0.115,87.6,green,245,TRUE
825,1660702766.639,3877,-2916,882,4.896,-0.771,0.035,89.2,yellow,245,TRUE
826,1660702766.82,2163,1983,750,4.639,-1.431,0.788,87.9,red,245,TRUE
827,1660702766.922,5205,1105,3348,0.964,-1.403,1.308,90.8,blue,245,TRUE
828,1660702767.013,2928,-2534,2526,5.37,-1.352,-0.129,88.8,green,245,TRUE
829,1660702767.388,3866,-2917,882,4.896,-0.771,0.035,88.5,yellow,245,TRUE
830,1660702767.567,1842,2142,750,4.971,-1.433,1.36,88.8,red,245,TRUE
831,1660702767.658,5193,1153,3348,0.963,-1.404,1.328,87.5,blue,245,TRUE
832,1660702767.749,2955,-2552,2526,5.368,-1.361,-0.139,86.9,green,245,TRUE
