,timestamp,x,y,z,yaw,roll,pitch,latency,student,session,success
0,1660713177.36,3750,-2725,882,5.229,-1.407,-0.473,86.8,yellow,247,TRUE
1,1660713177.538,2437,5829,750,4.672,-1.358,2.032,88.8,red,247,TRUE
2,1660713177.627,2695,7005,3348,3.567,-1.362,-2.822,88.8,blue,247,TRUE
3,1660713177.716,2854,-2638,2526,5.348,-0.846,-0.075,89.8,green,247,TRUE
4,1660713178.106,3758,-2725,882,5.224,-1.403,-0.473,88.8,yellow,247,TRUE
5,1660713178.289,2384,6145,750,4.684,-1.379,1.774,85.8,red,247,TRUE
6,1660713178.376,2659,7135,3348,3.554,-1.361,-2.811,88.7,blue,247,TRUE
7,1660713178.478,2864,-2642,2526,5.348,-0.841,-0.082,90.6,green,247,TRUE
8,1660713178.899,3758,-2723,882,5.225,-1.4,-0.451,88.8,yellow,247,TRUE
9,1660713179.078,2352,6391,750,4.664,-1.393,1.683,88.8,red,247,TRUE
10,1660713179.168,2640,7222,3348,3.552,-1.359,-2.813,89.8,blue,247,TRUE
11,1660713179.26,2862,-2657,2526,5.347,-0.844,-0.08,86.8,green,247,TRUE
12,1660713179.647,3775,-2717,882,5.226,-1.403,-0.459,88.8,yellow,247,TRUE
13,1660713179.828,2342,6533,750,4.676,-1.382,1.896,87.6,red,247,TRUE
14,1660713179.917,2608,7251,3348,3.55,-1.358,-2.814,88.7,blue,247,TRUE
15,1660713180.02,2864,-2654,2526,5.346,-0.85,-0.08,90.8,green,247,TRUE
16,1660713180.428,3788,-2732,882,5.225,-1.402,-0.468,86.8,yellow,247,TRUE
17,1660713180.605,2320,6597,750,4.669,-1.39,1.829,88.8,red,247,TRUE
18,1660713180.695,2616,7234,3348,3.516,-1.354,-2.819,89.8,blue,247,TRUE
19,1660713180.785,2875,-2661,2526,5.346,-0.857,-0.081,88.8,green,247,TRUE
20,1660713181.174,3780,-2725,882,5.225,-1.397,-0.461,89.8,yellow,247,TRUE
21,1660713181.354,2321,6649,750,4.66,-1.392,1.809,88.0,red,247,TRUE
22,1660713181.443,2614,7231,3348,3.507,-1.354,-2.827,88.7,blue,247,TRUE
23,1660713181.546,2880,-2673,2526,5.345,-0.856,-0.079,91.8,green,247,TRUE
24,1660713181.952,3776,-2719,882,5.224,-1.41,-0.502,88.8,yellow,247,TRUE
25,1660713182.131,2314,6645,750,4.65,-1.396,1.789,88.8,red,247,TRUE
26,1660713182.221,2614,7226,3348,3.49,-1.354,-2.827,89.0,blue,247,TRUE
27,1660713182.313,2894,-2675,2526,5.344,-0.855,-0.079,86.8,green,247,TRUE
28,1660713182.7,3774,-2717,882,5.224,-1.409,-0.502,88.7,yellow,247,TRUE
29,1660713182.882,2310,6657,750,4.649,-1.395,1.762,86.7,red,247,TRUE
30,1660713182.969,2595,7245,3348,3.479,-1.355,-2.825,88.8,blue,247,TRUE
31,1660713183.072,2902,-2681,2526,5.344,-0.855,-0.08,90.7,green,247,TRUE
32,1660713183.48,3777,-2719,882,5.226,-1.408,-0.506,86.8,yellow,247,TRUE
33,1660713183.658,2352,6708,750,4.649,-1.406,1.75,88.8,red,247,TRUE
34,1660713183.747,2597,7245,3348,3.475,-1.357,-2.823,88.6,blue,247,TRUE
35,1660713183.837,2911,-2674,2526,5.344,-0.851,-0.08,88.8,green,247,TRUE
36,1660713184.226,3776,-2729,882,5.226,-1.41,-0.514,88.8,yellow,247,TRUE
37,1660713184.407,2304,6674,750,4.651,-1.407,1.672,86.8,red,247,TRUE
38,1660713184.495,2628,7175,3348,3.475,-1.356,-2.825,88.8,blue,247,TRUE
39,1660713184.598,2909,-2674,2526,5.347,-0.848,-0.072,90.8,green,247,TRUE
40,1660713185.004,3768,-2718,882,5.229,-1.417,-0.512,89.7,yellow,247,TRUE
41,1660713185.183,2308,6735,750,4.652,-1.405,1.691,89.8,red,247,TRUE
42,1660713185.275,2640,7159,3348,3.471,-1.373,-2.803,86.8,blue,247,TRUE
43,1660713185.363,2899,-2674,2526,5.347,-0.848,-0.074,88.8,green,247,TRUE
44,1660713185.752,3750,-2737,882,5.231,-1.414,-0.513,88.8,yellow,247,TRUE
45,1660713185.932,2341,6713,750,4.638,-1.415,1.705,72.8,red,247,TRUE
46,1660713186.006,2664,7170,3348,3.483,-1.379,-2.742,89.8,blue,247,TRUE
47,1660713186.096,2896,-2675,2526,5.349,-0.86,-0.074,88.8,green,247,TRUE
48,1660713186.47,3777,-2748,882,5.231,-1.413,-0.509,88.8,yellow,247,TRUE
49,1660713186.649,2341,6690,750,4.61,-1.421,1.884,73.8,red,247,TRUE
50,1660713186.737,2656,7158,3348,3.483,-1.467,-3.097,90.7,blue,247,TRUE
51,1660713186.829,2897,-2669,2526,5.348,-0.848,-0.07,88.8,green,247,TRUE
52,1660713187.218,3790,-2763,882,5.231,-1.409,-0.495,88.8,yellow,247,TRUE
53,1660713187.397,2392,6654,750,4.592,-1.434,1.774,73.8,red,247,TRUE
54,1660713187.474,2656,7120,3348,3.376,-1.491,-3.095,86.8,blue,247,TRUE
55,1660713187.562,2894,-2669,2526,5.351,-0.857,-0.071,88.7,green,247,TRUE
56,1660713187.966,3792,-2765,882,5.231,-1.408,-0.492,88.8,yellow,247,TRUE
57,1660713188.145,2411,6670,750,4.603,-1.43,1.694,88.7,red,247,TRUE
58,1660713188.234,2659,7110,3348,3.458,-1.493,-3.133,89.8,blue,247,TRUE
59,1660713188.327,2896,-2669,2526,5.351,-0.864,-0.073,71.8,green,247,TRUE
60,1660713188.699,3779,-2769,882,5.232,-1.406,-0.485,89.8,yellow,247,TRUE
61,1660713188.878,2419,6689,750,4.598,-1.43,1.693,88.8,red,247,TRUE
62,1660713188.97,2661,7106,3348,3.427,-1.484,-3.131,86.8,blue,247,TRUE
63,1660713189.058,2904,-2665,2526,5.351,-0.856,-0.072,88.8,green,247,TRUE
64,1660713189.449,3762,-2751,882,5.227,-1.4,-0.485,86.9,yellow,247,TRUE
65,1660713189.626,2439,6699,750,4.601,-1.425,1.727,88.8,red,247,TRUE
66,1660713189.729,2668,7096,3348,3.362,-1.476,-3.122,90.7,blue,247,TRUE
67,1660713189.821,2902,-2666,2526,5.352,-0.861,-0.062,88.8,green,247,TRUE
68,1660713190.225,3779,-2754,882,5.227,-1.394,-0.471,89.8,yellow,247,TRUE
69,1660713190.404,2433,6652,750,4.604,-1.419,1.757,73.8,red,247,TRUE
70,1660713190.481,2667,7080,3348,3.328,-1.479,-3.125,86.8,blue,247,TRUE
71,1660713190.569,2897,-2654,2526,5.352,-0.854,-0.061,88.8,green,247,TRUE
72,1660713190.973,3792,-2756,882,5.226,-1.393,-0.475,88.8,yellow,247,TRUE
73,1660713191.152,2436,6640,750,4.59,-1.43,1.728,88.8,red,247,TRUE
74,1660713191.242,2663,7068,3348,3.19,-1.476,-3.123,89.8,blue,247,TRUE
75,1660713191.333,2904,-2650,2526,5.354,-0.866,-0.06,86.8,green,247,TRUE
76,1660713191.72,3783,-2753,882,5.233,-1.391,-0.453,89.4,yellow,247,TRUE
77,1660713191.915,2442,6624,750,4.596,-1.424,1.766,88.8,red,247,TRUE
78,1660713192.005,2682,7076,3348,3.037,-1.456,-3.113,88.8,blue,247,TRUE
79,1660713192.096,2910,-2647,2526,5.354,-0.872,-0.061,87.6,green,247,TRUE
80,1660713192.501,3803,-2760,882,5.231,-1.382,-0.441,86.8,yellow,247,TRUE
81,1660713192.679,2387,6535,750,4.591,-1.428,1.71,73.8,red,247,TRUE
82,1660713192.766,2701,7095,3348,2.952,-1.458,-3.099,91.8,blue,247,TRUE
83,1660713192.858,2917,-2647,2526,5.354,-0.874,-0.06,88.8,green,247,TRUE
84,1660713193.247,3783,-2748,882,5.233,-1.388,-0.448,88.8,yellow,247,TRUE
85,1660713193.427,2382,6602,750,4.589,-1.428,1.662,88.8,red,247,TRUE
86,1660713193.516,2706,7101,3348,2.885,-1.456,-3.094,88.8,blue,247,TRUE
87,1660713193.608,2938,-2648,2526,5.354,-0.872,-0.06,86.8,green,247,TRUE
88,1660713193.996,3786,-2761,882,5.229,-1.386,-0.457,88.8,yellow,247,TRUE
89,1660713194.175,2281,6550,750,4.681,-1.396,1.825,88.7,red,247,TRUE
90,1660713194.265,2712,7121,3348,2.853,-1.458,-3.094,88.8,blue,247,TRUE
91,1660713194.356,2957,-2649,2526,5.357,-0.868,-0.064,87.7,green,247,TRUE
92,1660713195.896,2274,6574,750,4.683,-1.361,1.74,89.1,red,247,TRUE
93,1660713195.991,2712,7113,3348,2.901,-1.473,-3.11,83.8,blue,247,TRUE
94,1660713196.076,2970,-2651,2526,5.359,-0.858,-0.067,88.2,green,247,TRUE
95,1660713196.451,3781,-2751,882,5.233,-1.395,-0.488,87.7,yellow,247,TRUE
96,1660713196.631,2249,6605,750,4.674,-1.388,1.589,86.6,red,247,TRUE
97,1660713196.719,2707,7105,3348,3.167,-1.486,3.134,88.8,blue,247,TRUE
98,1660713196.822,2977,-2656,2526,5.365,-0.86,-0.051,90.8,green,247,TRUE
99,1660713197.228,3764,-2740,882,5.234,-1.396,-0.49,88.7,yellow,247,TRUE
100,1660713197.407,2227,6686,750,4.635,-1.4,1.749,89.0,red,247,TRUE
101,1660713197.497,2690,7142,3348,3.252,-1.497,3.138,88.9,blue,247,TRUE
102,1660713197.587,2981,-2646,2526,5.366,-0.857,-0.05,89.1,green,247,TRUE
103,1660713197.977,3742,-2728,882,5.233,-1.39,-0.473,88.8,yellow,247,TRUE
104,1660713198.158,2211,6678,750,4.625,-1.406,1.745,87.8,red,247,TRUE
105,1660713198.247,2662,7128,3348,3.298,-1.499,3.133,88.8,blue,247,TRUE
106,1660713198.337,2974,-2645,2526,5.368,-0.874,-0.052,72.8,green,247,TRUE
107,1660713198.696,3736,-2725,882,5.233,-1.377,-0.447,88.7,yellow,247,TRUE
108,1660713198.875,2209,6693,750,4.652,-1.42,1.6,88.4,red,247,TRUE
109,1660713198.965,2646,7110,3348,3.318,-1.497,3.13,88.8,blue,247,TRUE
110,1660713199.054,2972,-2650,2526,5.367,-0.873,-0.045,88.7,green,247,TRUE
111,1660713199.445,3751,-2721,882,5.236,-1.372,-0.429,87.8,yellow,247,TRUE
112,1660713199.624,2185,6674,750,4.633,-1.412,1.608,88.8,red,247,TRUE
113,1660713199.715,2640,7100,3348,3.341,-1.497,3.13,87.8,blue,247,TRUE
114,1660713199.804,2975,-2644,2526,5.373,-0.865,-0.045,88.8,green,247,TRUE
115,1660713200.193,3750,-2721,882,5.235,-1.378,-0.444,88.8,yellow,247,TRUE
116,1660713200.375,2175,6706,750,4.477,-1.384,2.186,86.8,red,247,TRUE
117,1660713200.462,2643,7134,3348,3.337,-1.499,3.131,88.8,blue,247,TRUE
118,1660713200.552,2982,-2652,2526,5.375,-0.87,-0.044,88.8,green,247,TRUE
119,1660713200.956,3745,-2720,882,5.231,-1.378,-0.457,88.8,yellow,247,TRUE
120,1660713201.136,2196,6727,750,4.315,-1.401,1.925,88.8,red,247,TRUE
121,1660713201.227,2681,7165,3348,3.326,-1.492,3.133,87.8,blue,247,TRUE
122,1660713201.318,2980,-2654,2526,5.376,-0.877,-0.046,85.8,green,247,TRUE
123,1660713201.704,3722,-2696,882,5.238,-1.388,-0.473,89.4,yellow,247,TRUE
124,1660713201.884,2202,6751,750,4.459,-1.4,1.546,88.8,red,247,TRUE
125,1660713201.987,2616,7237,3348,3.307,-1.5,3.133,75.8,blue,247,TRUE
126,1660713202.064,2976,-2657,2526,5.378,-0.869,-0.048,88.8,green,247,TRUE
127,1660713202.455,3711,-2690,882,5.235,-1.38,-0.473,86.8,yellow,247,TRUE
128,1660713202.633,2258,6846,750,4.555,-1.372,1.828,88.8,red,247,TRUE
129,1660713202.724,2597,7209,3348,3.274,-1.502,3.132,86.7,blue,247,TRUE
130,1660713202.812,2952,-2654,2526,5.379,-0.865,-0.048,89.0,green,247,TRUE
131,1660713203.232,3697,-2679,882,5.234,-1.381,-0.485,89.8,yellow,247,TRUE
132,1660713203.411,2258,6838,750,4.561,-1.377,1.657,88.7,red,247,TRUE
133,1660713203.514,2597,7209,3348,3.264,-1.5,3.134,75.8,blue,247,TRUE
134,1660713203.591,2916,-2654,2526,5.378,-0.865,-0.046,88.8,green,247,TRUE
135,1660713203.98,3721,-2677,882,5.238,-1.392,-0.513,88.8,yellow,247,TRUE
136,1660713204.159,2373,6909,750,4.527,-1.377,1.575,88.8,red,247,TRUE
137,1660713204.251,2581,7179,3348,3.336,-1.476,3.123,86.7,blue,247,TRUE
138,1660713204.341,2901,-2649,2526,5.383,-0.862,-0.049,86.8,green,247,TRUE
139,1660713204.728,3731,-2676,882,5.241,-1.388,-0.493,88.8,yellow,247,TRUE
140,1660713204.908,2382,6925,750,4.494,-1.381,1.739,88.8,red,247,TRUE
141,1660713205.01,2572,7183,3348,3.425,-1.493,3.129,90.7,blue,247,TRUE
142,1660713205.102,2893,-2639,2526,5.373,-0.864,-0.048,88.9,green,247,TRUE
143,1660713205.508,3760,-2665,882,5.245,-1.391,-0.485,86.8,yellow,247,TRUE
144,1660713205.686,2403,6928,750,4.516,-1.38,1.629,88.8,red,247,TRUE
145,1660713205.778,2550,7179,3348,3.446,-1.487,3.11,86.8,blue,247,TRUE
146,1660713205.865,2891,-2637,2526,5.352,-0.865,-0.047,88.8,green,247,TRUE
147,1660713206.254,3785,-2671,882,5.246,-1.4,-0.513,88.8,yellow,247,TRUE
148,1660713206.434,2432,6920,750,4.508,-1.381,1.598,88.8,red,247,TRUE
149,1660713206.537,2554,7199,3348,3.471,-1.502,3.109,90.8,blue,247,TRUE
150,1660713206.628,2893,-2641,2526,5.343,-0.864,-0.046,88.8,green,247,TRUE
151,1660713207.002,3800,-2680,882,5.246,-1.395,-0.5,88.7,yellow,247,TRUE
152,1660713207.197,2456,6948,750,4.499,-1.386,1.596,89.3,red,247,TRUE
153,1660713207.287,2567,7221,3348,3.467,-1.509,3.109,88.8,blue,247,TRUE
154,1660713207.38,2895,-2626,2526,5.347,-0.868,-0.027,85.8,green,247,TRUE
155,1660713207.752,3840,-2682,882,5.244,-1.394,-0.503,88.8,yellow,247,TRUE
156,1660713207.931,2461,6925,750,4.496,-1.377,1.576,88.8,red,247,TRUE
157,1660713208.034,2572,7250,3348,3.472,-1.505,3.108,90.7,blue,247,TRUE
158,1660713208.126,2894,-2619,2526,5.352,-0.866,-0.031,88.8,green,247,TRUE
159,1660713208.502,3850,-2698,882,5.245,-1.39,-0.482,86.8,yellow,247,TRUE
160,1660713208.679,2486,6942,750,4.49,-1.394,1.799,89.1,red,247,TRUE
161,1660713208.769,2572,7267,3348,3.475,-1.502,3.109,88.8,blue,247,TRUE
162,1660713208.86,2875,-2623,2526,5.356,-0.866,-0.041,87.8,green,247,TRUE
163,1660713209.248,3861,-2714,882,5.249,-1.41,-0.555,89.7,yellow,247,TRUE
164,1660713209.428,2489,6965,750,4.469,-1.396,1.935,88.8,red,247,TRUE
165,1660713209.531,2575,7279,3348,3.491,-1.498,3.108,90.8,blue,247,TRUE
166,1660713209.635,2862,-2628,2526,5.358,-0.852,-0.04,90.8,green,247,TRUE
167,1660713210.029,3872,-2713,882,5.26,-1.491,-0.05,87.2,yellow,247,TRUE
168,1660713210.208,2467,6963,750,4.464,-1.405,1.901,88.8,red,247,TRUE
169,1660713210.297,2575,7260,3348,3.488,-1.499,3.109,88.7,blue,247,TRUE
170,1660713210.39,2869,-2631,2526,5.36,-0.845,-0.041,85.8,green,247,TRUE
171,1660713210.776,3892,-2713,882,5.26,-1.538,-0.027,88.8,yellow,247,TRUE
172,1660713210.956,2458,6953,750,4.459,-1.41,1.803,88.8,red,247,TRUE
173,1660713211.058,2542,7256,3348,3.5,-1.498,3.107,90.8,blue,247,TRUE
174,1660713211.163,2853,-2624,2526,5.361,-0.853,-0.044,90.6,green,247,TRUE
175,1660713211.557,3912,-2721,882,5.229,-1.37,-0.485,86.1,yellow,247,TRUE
176,1660713211.734,2456,6951,750,4.471,-1.406,1.779,88.8,red,247,TRUE
177,1660713211.824,2631,7169,3348,3.459,-1.451,-3.115,88.8,blue,247,TRUE
178,1660713211.915,2864,-2628,2526,5.363,-0.878,-0.05,87.8,green,247,TRUE
179,1660713212.303,3902,-2727,882,5.237,-1.379,-0.457,88.7,yellow,247,TRUE
180,1660713212.482,2459,6946,750,4.46,-1.407,1.823,88.8,red,247,TRUE
181,1660713212.585,2639,7182,3348,3.483,-1.46,-3.11,90.8,blue,247,TRUE
182,1660713212.69,2878,-2628,2526,5.364,-0.861,-0.051,91.1,green,247,TRUE
183,1660713213.083,3882,-2729,882,5.235,-1.391,-0.531,86.8,yellow,247,TRUE
184,1660713213.261,2450,6934,750,4.461,-1.408,1.816,89.3,red,247,TRUE
185,1660713213.352,2663,7173,3348,3.52,-1.478,-3.137,87.8,blue,247,TRUE
186,1660713213.443,2892,-2633,2526,5.364,-0.852,-0.053,86.8,green,247,TRUE
187,1660713213.83,3862,-2728,882,5.233,-1.386,-0.514,88.7,yellow,247,TRUE
188,1660713214.01,2442,6929,750,4.456,-1.41,1.734,88.9,red,247,TRUE
189,1660713214.112,2659,7159,3348,3.512,-1.461,3.119,75.8,blue,247,TRUE
190,1660713214.189,2904,-2640,2526,5.364,-0.874,-0.056,88.8,green,247,TRUE
191,1660713214.58,3829,-2741,882,5.233,-1.388,-0.52,86.8,yellow,247,TRUE
192,1660713214.758,2444,6937,750,4.463,-1.396,1.631,88.8,red,247,TRUE
193,1660713214.847,2666,7160,3348,3.487,-1.453,3.12,88.7,blue,247,TRUE
194,1660713214.939,2913,-2645,2526,5.365,-0.869,-0.057,87.8,green,247,TRUE
195,1660713215.326,3783,-2735,882,5.233,-1.391,-0.529,88.8,yellow,247,TRUE
196,1660713215.508,2432,6902,750,4.476,-1.382,1.622,87.2,red,247,TRUE
197,1660713215.595,2669,7179,3348,3.471,-1.448,2.983,89.7,blue,247,TRUE
198,1660713215.699,2911,-2649,2526,5.366,-0.858,-0.053,90.8,green,247,TRUE
199,1660713216.062,3751,-2723,882,5.233,-1.391,-0.529,87.8,yellow,247,TRUE
200,1660713216.24,2432,6885,750,4.5,-1.381,1.685,88.8,red,247,TRUE
201,1660713216.33,2665,7178,3348,3.471,-1.468,3.127,88.8,blue,247,TRUE
202,1660713216.421,2907,-2652,2526,5.366,-0.873,-0.052,87.8,green,247,TRUE
203,1660713216.795,3708,-2725,882,5.233,-1.39,-0.526,89.3,yellow,247,TRUE
204,1660713216.976,2435,6908,750,4.495,-1.385,1.645,87.8,red,247,TRUE
205,1660713217.065,2671,7166,3348,3.486,-1.458,3.115,88.8,blue,247,TRUE
206,1660713217.167,2907,-2652,2526,5.355,-0.858,-0.076,75.8,green,247,TRUE
207,1660713217.56,3711,-2727,882,5.235,-1.394,-0.53,86.8,yellow,247,TRUE
208,1660713217.738,2438,6917,750,4.501,-1.382,1.629,88.8,red,247,TRUE
209,1660713217.828,2674,7157,3348,3.49,-1.469,3.111,88.8,blue,247,TRUE
210,1660713217.916,2901,-2655,2526,5.352,-0.842,-0.085,89.8,green,247,TRUE
211,1660713218.307,3699,-2712,882,5.233,-1.362,-0.409,87.8,yellow,247,TRUE
212,1660713218.488,2454,6912,750,4.531,-1.381,1.621,87.1,red,247,TRUE
213,1660713218.576,2679,7167,3348,3.42,-1.496,-3.141,88.8,blue,247,TRUE
214,1660713220.136,3708,-2699,882,5.165,-1.345,-0.677,84.8,yellow,247,TRUE
215,1660713220.312,2467,6904,750,4.432,-1.391,1.542,88.8,red,247,TRUE
216,1660713220.404,2660,7185,3348,3.406,-1.493,-3.134,71.6,blue,247,TRUE
217,1660713221.933,3721,-2714,882,5.202,-1.39,-0.742,83.5,yellow,247,TRUE
218,1660713222.109,2474,6898,750,4.388,-1.372,1.636,87.8,red,247,TRUE
219,1660713222.197,2668,7166,3348,3.426,-1.515,3.138,73.8,blue,247,TRUE
220,1660713223.729,3722,-2715,882,5.217,-1.394,-0.644,82.8,yellow,247,TRUE
221,1660713223.903,2490,6909,750,0.049,-1.329,2.04,88.8,red,247,TRUE
222,1660713223.992,2642,7214,3348,5.192,-1.39,-2.899,88.7,blue,247,TRUE
223,1660713224.441,3733,-2708,882,5.212,-1.386,-0.648,89.1,yellow,247,TRUE
224,1660713224.623,2552,6879,750,1.012,-1.49,0.072,86.8,red,247,TRUE
225,1660713224.711,2683,7248,3348,5.973,-1.365,-2.331,88.7,blue,247,TRUE
226,1660713225.13,3740,-2720,882,5.196,-1.366,-0.663,74.8,yellow,247,TRUE
227,1660713225.294,2643,6843,750,1.084,-1.548,3.132,90.2,red,247,TRUE
228,1660713225.386,2753,7292,3348,0.626,-1.35,-2.56,86.8,blue,247,TRUE
229,1660713225.819,3746,-2722,882,5.185,-1.364,-0.719,73.8,yellow,247,TRUE
230,1660713225.998,2753,6819,750,1.044,-1.412,2.202,88.8,red,247,TRUE
231,1660713226.088,2848,7305,3348,0.596,-1.322,-2.674,88.8,blue,247,TRUE
232,1660713226.477,3719,-2717,882,5.173,-1.297,-0.53,88.7,yellow,247,TRUE
233,1660713226.658,2889,6764,750,0.754,-1.468,3.089,86.8,red,247,TRUE
234,1660713226.746,2933,7275,3348,0.389,-1.312,-2.475,88.8,blue,247,TRUE
235,1660713227.225,3747,-2722,882,5.145,-1.241,-0.447,88.8,yellow,247,TRUE
236,1660713227.407,3012,6759,750,0.909,-1.46,3.039,86.8,red,247,TRUE
237,1660713227.495,3052,7255,3348,0.656,-1.333,-2.692,87.8,blue,247,TRUE
238,1660713227.897,3754,-2736,882,5.14,-1.235,-0.389,76.7,yellow,247,TRUE
239,1660713228.063,3135,6754,750,0.879,-1.448,1.638,88.8,red,247,TRUE
240,1660713228.154,3182,7209,3348,0.707,-1.32,-2.825,87.8,blue,247,TRUE
241,1660713228.257,2908,-2670,2526,5.327,-0.878,-0.132,104.7,green,247,TRUE
242,1660713229.889,3256,6716,750,0.927,-1.39,1.967,88.9,red,247,TRUE
243,1660713229.983,3319,7179,3348,0.566,-1.356,-2.676,84.8,blue,247,TRUE
244,1660713230.071,2913,-2658,2526,5.373,-0.98,-0.158,86.8,green,247,TRUE
245,1660713230.473,3700,-2726,882,5.157,-1.22,-0.392,73.8,yellow,247,TRUE
246,1660713230.637,3395,6711,750,0.892,-1.386,1.862,89.3,red,247,TRUE
247,1660713230.728,3443,7157,3348,0.541,-1.371,-2.709,87.8,blue,247,TRUE
248,1660713230.817,2911,-2661,2526,5.376,-0.956,-0.147,88.8,green,247,TRUE
249,1660713232.465,3524,6703,750,0.752,-1.396,1.832,87.8,red,247,TRUE
250,1660713232.559,3548,7113,3348,0.701,-1.343,-2.845,82.8,blue,247,TRUE
251,1660713232.644,2925,-2661,2526,5.36,-0.851,-0.1,87.8,green,247,TRUE
252,1660713233.046,3736,-2727,882,5.142,-1.227,-0.494,88.8,yellow,247,TRUE
253,1660713233.226,3648,6703,750,0.728,-1.402,1.937,88.8,red,247,TRUE
254,1660713233.318,3679,7064,3348,0.588,-1.349,-2.779,86.7,blue,247,TRUE
255,1660713233.408,2922,-2666,2526,5.364,-0.845,-0.106,86.8,green,247,TRUE
256,1660713233.794,3729,-2727,882,5.157,-1.274,-0.541,89.8,yellow,247,TRUE
257,1660713233.974,3767,6709,750,0.712,-1.372,2.047,88.7,red,247,TRUE
258,1660713234.077,3772,7068,3348,0.608,-1.364,-2.784,90.9,blue,247,TRUE
259,1660713234.169,2939,-2674,2526,5.365,-0.836,-0.11,88.8,green,247,TRUE
260,1660713234.545,3713,-2727,882,5.187,-1.261,-0.401,86.8,yellow,247,TRUE
261,1660713234.723,3880,6675,750,0.686,-1.377,2.067,88.7,red,247,TRUE
262,1660713234.814,3835,6972,3348,0.583,-1.353,-2.783,87.8,blue,247,TRUE
263,1660713234.902,2936,-2680,2526,5.363,-0.83,-0.118,88.8,green,247,TRUE
264,1660713235.291,3725,-2735,882,5.176,-1.254,-0.344,88.8,yellow,247,TRUE
265,1660713235.473,3933,6693,750,0.756,-1.372,1.985,87.8,red,247,TRUE
266,1660713235.561,3861,6890,3348,0.575,-1.35,-2.783,74.8,blue,247,TRUE
267,1660713235.635,2936,-2689,2526,5.367,-0.844,-0.113,73.8,green,247,TRUE
268,1660713236.009,3745,-2735,882,5.187,-1.305,-0.427,88.8,yellow,247,TRUE
269,1660713236.204,3954,6708,750,0.601,-1.401,2.087,89.8,red,247,TRUE
270,1660713236.294,3832,6845,3348,0.544,-1.356,-2.749,88.8,blue,247,TRUE
271,1660713236.385,2939,-2701,2526,5.368,-0.837,-0.113,71.8,green,247,TRUE
272,1660713236.743,3762,-2711,882,5.187,-1.335,-0.528,89.3,yellow,247,TRUE
273,1660713236.923,3956,6704,750,0.641,-1.41,2.055,88.8,red,247,TRUE
274,1660713237.026,3846,6818,3348,0.587,-1.372,-2.789,90.8,blue,247,TRUE
275,1660713237.13,2948,-2694,2526,5.371,-0.836,-0.115,90.8,green,247,TRUE
276,1660713237.492,3755,-2703,882,5.189,-1.332,-0.512,87.8,yellow,247,TRUE
277,1660713237.671,3944,6738,750,0.642,-1.406,1.958,88.8,red,247,TRUE
278,1660713237.761,3832,6817,3348,0.677,-1.369,-2.814,88.8,blue,247,TRUE
279,1660713237.852,2971,-2710,2526,5.372,-0.832,-0.116,72.8,green,247,TRUE
280,1660713238.225,3788,-2702,882,5.188,-1.325,-0.478,88.8,yellow,247,TRUE
281,1660713238.406,3954,6721,750,1.073,-1.366,1.83,87.8,red,247,TRUE
282,1660713238.496,3778,6797,3348,0.661,-1.369,-2.834,86.8,blue,247,TRUE
283,1660713238.584,2991,-2724,2526,5.375,-0.821,-0.116,88.8,green,247,TRUE
284,1660713238.974,3771,-2691,882,5.188,-1.319,-0.467,87.8,yellow,247,TRUE
285,1660713239.166,3960,6712,750,0.749,-1.406,1.908,90.8,red,247,TRUE
286,1660713239.257,3759,6813,3348,0.664,-1.381,-2.802,88.8,blue,247,TRUE
287,1660713239.347,3002,-2715,2526,5.378,-0.821,-0.108,88.8,green,247,TRUE
288,1660713239.721,3779,-2675,882,5.192,-1.322,-0.463,88.8,yellow,247,TRUE
289,1660713239.903,3952,6722,750,0.84,-1.366,1.763,86.8,red,247,TRUE
290,1660713239.991,3737,6837,3348,0.603,-1.386,-2.767,88.8,blue,247,TRUE
291,1660713240.093,3029,-2738,2526,5.381,-0.83,-0.105,75.8,green,247,TRUE
292,1660713240.47,3796,-2663,882,5.193,-1.324,-0.464,88.5,yellow,247,TRUE
293,1660713240.649,3916,6701,750,0.693,-1.382,1.845,88.7,red,247,TRUE
294,1660713240.739,3724,6838,3348,0.676,-1.379,-2.829,88.8,blue,247,TRUE
295,1660713240.828,3040,-2746,2526,5.385,-0.816,-0.106,88.8,green,247,TRUE
296,1660713241.217,3821,-2658,882,5.193,-1.316,-0.448,88.9,yellow,247,TRUE
297,1660713241.398,3892,6687,750,0.688,-1.398,1.8,87.7,red,247,TRUE
298,1660713241.489,3715,6857,3348,0.723,-1.38,-2.832,86.8,blue,247,TRUE
299,1660713241.577,3064,-2762,2526,5.388,-0.807,-0.108,89.4,green,247,TRUE
300,1660713241.981,3794,-2653,882,5.196,-1.313,-0.445,89.3,yellow,247,TRUE
301,1660713242.161,3874,6672,750,0.596,-1.403,1.78,88.8,red,247,TRUE
302,1660713242.251,3662,6867,3348,0.734,-1.378,-2.847,88.7,blue,247,TRUE
303,1660713242.341,3081,-2769,2526,5.388,-0.82,-0.11,89.8,green,247,TRUE
304,1660713242.73,3781,-2664,882,5.195,-1.308,-0.435,88.8,yellow,247,TRUE
305,1660713242.912,3882,6658,750,0.769,-1.383,1.864,86.8,red,247,TRUE
306,1660713242.999,3619,6860,3348,0.723,-1.373,-2.844,88.8,blue,247,TRUE
307,1660713243.102,3089,-2771,2526,5.389,-0.824,-0.109,90.7,green,247,TRUE
308,1660713243.493,3780,-2659,882,5.2,-1.323,-0.453,88.8,yellow,247,TRUE
309,1660713243.673,3896,6650,750,0.893,-1.378,1.899,88.8,red,247,TRUE
310,1660713243.762,3604,6871,3348,0.729,-1.37,-2.851,88.8,blue,247,TRUE
311,1660713243.852,3095,-2772,2526,5.391,-0.803,-0.107,103.7,green,247,TRUE
312,1660713244.257,3768,-2642,882,5.202,-1.338,-0.494,87.8,yellow,247,TRUE
313,1660713244.439,3906,6650,750,0.788,-1.394,1.958,85.8,red,247,TRUE
314,1660713244.525,3645,6895,3348,0.728,-1.37,-2.851,88.8,blue,247,TRUE
315,1660713244.628,3107,-2780,2526,5.39,-0.803,-0.099,90.7,green,247,TRUE
316,1660713245.033,3759,-2641,882,5.2,-1.335,-0.489,90.3,yellow,247,TRUE
317,1660713245.214,3912,6669,750,0.755,-1.383,1.91,88.8,red,247,TRUE
318,1660713245.304,3704,6897,3348,0.726,-1.371,-2.848,88.8,blue,247,TRUE
319,1660713245.393,3105,-2782,2526,5.399,-0.81,-0.107,89.3,green,247,TRUE
320,1660713245.783,3739,-2635,882,5.207,-1.322,-0.454,88.8,yellow,247,TRUE
321,1660713245.965,3916,6702,750,0.73,-1.385,1.961,86.8,red,247,TRUE
322,1660713246.053,3703,6894,3348,0.725,-1.372,-2.846,89.3,blue,247,TRUE
323,1660713246.156,3106,-2796,2526,5.392,-0.815,-0.11,90.7,green,247,TRUE
324,1660713246.562,3767,-2640,882,5.208,-1.328,-0.461,88.8,yellow,247,TRUE
325,1660713246.743,3912,6718,750,0.736,-1.388,1.89,87.6,red,247,TRUE
326,1660713246.832,3744,6905,3348,0.725,-1.373,-2.846,88.8,blue,247,TRUE
327,1660713246.921,3108,-2798,2526,5.396,-0.797,-0.107,88.8,green,247,TRUE
328,1660713247.31,3767,-2641,882,5.228,-1.322,-0.408,88.8,yellow,247,TRUE
329,1660713247.493,3888,6735,750,0.734,-1.393,1.93,85.4,red,247,TRUE
330,1660713247.579,3792,6908,3348,0.729,-1.369,-2.854,88.8,blue,247,TRUE
331,1660713247.682,3117,-2794,2526,5.369,-0.795,-0.108,90.7,green,247,TRUE
332,1660713248.088,3762,-2639,882,5.229,-1.27,-0.338,88.8,yellow,247,TRUE
333,1660713248.268,3880,6737,750,0.746,-1.392,1.887,88.8,red,247,TRUE
334,1660713248.357,3793,6910,3348,0.724,-1.373,-2.846,89.2,blue,247,TRUE
335,1660713248.449,3133,-2791,2526,5.356,-0.818,-0.11,86.8,green,247,TRUE
336,1660713248.836,3776,-2649,882,5.221,-1.266,-0.352,88.8,yellow,247,TRUE
337,1660713249.017,3882,6745,750,0.744,-1.401,1.86,88.1,red,247,TRUE
338,1660713249.106,3799,6898,3348,0.733,-1.377,-2.853,88.8,blue,247,TRUE
339,1660713249.209,3129,-2785,2526,5.355,-0.813,-0.11,90.7,green,247,TRUE
340,1660713250.738,3909,6756,750,0.743,-1.401,1.918,87.8,red,247,TRUE
341,1660713250.831,3762,6903,3348,0.731,-1.377,-2.848,84.8,blue,247,TRUE
342,1660713250.917,3119,-2782,2526,5.365,-0.792,-0.103,87.8,green,247,TRUE
343,1660713251.29,3789,-2660,882,5.224,-1.292,-0.389,89.8,yellow,247,TRUE
344,1660713251.471,3929,6771,750,0.753,-1.4,1.893,87.8,red,247,TRUE
345,1660713251.562,3752,6894,3348,0.73,-1.381,-2.843,87.1,blue,247,TRUE
346,1660713251.65,3083,-2774,2526,5.369,-0.802,-0.098,88.6,green,247,TRUE
347,1660713252.038,3792,-2670,882,5.223,-1.295,-0.393,88.8,yellow,247,TRUE
348,1660713252.218,3955,6775,750,0.753,-1.403,1.9,88.8,red,247,TRUE
349,1660713252.308,3803,6904,3348,1.083,-1.317,-3.136,89.7,blue,247,TRUE
350,1660713252.397,3083,-2774,2526,5.356,-0.797,-0.105,73.8,green,247,TRUE
351,1660713252.757,3781,-2673,882,5.224,-1.286,-0.381,88.7,yellow,247,TRUE
352,1660713252.952,3957,6770,750,0.738,-1.402,1.941,88.7,red,247,TRUE
353,1660713253.041,3783,6885,3348,1.845,-1.376,-2.826,88.8,blue,247,TRUE
354,1660713253.134,3036,-2790,2526,5.352,-0.819,-0.108,86.0,green,247,TRUE
355,1660713253.505,3795,-2680,882,5.232,-1.292,-0.371,88.6,yellow,247,TRUE
356,1660713253.685,3945,6780,750,0.663,-1.407,2.27,88.8,red,247,TRUE
357,1660713253.787,3764,6815,3348,1.804,-1.406,-2.943,90.7,blue,247,TRUE
358,1660713253.892,3036,-2790,2526,5.351,-0.816,-0.113,90.7,green,247,TRUE
359,1660713254.3,3790,-2687,882,5.223,-1.367,-0.538,87.4,yellow,247,TRUE
360,1660713254.481,3936,6781,750,0.78,-1.394,2.041,86.5,red,247,TRUE
361,1660713254.568,3738,6736,3348,0.363,-1.362,-2.738,88.8,blue,247,TRUE
362,1660713254.659,3003,-2801,2526,5.37,-0.81,-0.107,72.8,green,247,TRUE
363,1660713256.2,3951,6766,750,0.803,-1.398,2.128,88.7,red,247,TRUE
364,1660713256.294,3712,6635,3348,6.152,-1.396,-2.32,83.8,blue,247,TRUE
365,1660713256.38,2982,-2797,2526,5.376,-0.813,-0.11,72.8,green,247,TRUE
366,1660713256.753,3784,-2688,882,5.227,-1.356,-0.535,88.8,yellow,247,TRUE
367,1660713256.933,3967,6738,750,0.804,-1.407,2.086,88.7,red,247,TRUE
368,1660713257.023,3703,6563,3348,6.138,-1.382,-2.399,88.8,blue,247,TRUE
369,1660713257.112,2968,-2780,2526,5.373,-0.807,-0.11,74.5,green,247,TRUE
370,1660713257.501,3754,-2686,882,5.229,-1.341,-0.468,88.9,yellow,247,TRUE
371,1660713257.683,3987,6719,750,0.797,-1.412,1.98,86.8,red,247,TRUE
372,1660713257.771,3677,6486,3348,6.133,-1.385,-2.369,88.9,blue,247,TRUE
373,1660713257.874,2945,-2785,2526,5.373,-0.808,-0.11,90.7,green,247,TRUE
374,1660713258.281,3742,-2700,882,5.228,-1.35,-0.485,88.9,yellow,247,TRUE
375,1660713258.46,4006,6726,750,0.803,-1.412,1.912,88.8,red,247,TRUE
376,1660713258.552,3658,6409,3348,6.147,-1.389,-2.379,86.8,blue,247,TRUE
377,1660713258.64,2947,-2798,2526,5.37,-0.809,-0.112,88.8,green,247,TRUE
378,1660713259.029,3728,-2698,882,5.228,-1.349,-0.485,88.8,yellow,247,TRUE
379,1660713259.209,4008,6720,750,0.802,-1.409,1.996,87.7,red,247,TRUE
380,1660713259.298,3643,6338,3348,6.144,-1.389,-2.37,88.8,blue,247,TRUE
381,1660713259.388,2947,-2798,2526,5.37,-0.804,-0.109,74.8,green,247,TRUE
382,1660713259.776,3713,-2699,882,5.228,-1.35,-0.487,88.8,yellow,247,TRUE
383,1660713259.956,4022,6735,750,0.819,-1.418,1.963,88.8,red,247,TRUE
384,1660713260.046,3623,6274,3348,6.145,-1.393,-2.355,88.8,blue,247,TRUE
385,1660713260.136,2947,-2798,2526,5.371,-0.812,-0.108,74.4,green,247,TRUE
386,1660713260.526,3721,-2707,882,5.229,-1.357,-0.503,88.8,yellow,247,TRUE
387,1660713260.705,4014,6741,750,0.83,-1.419,1.79,88.8,red,247,TRUE
388,1660713260.796,3630,6222,3348,6.151,-1.389,-2.38,88.2,blue,247,TRUE
389,1660713260.885,2933,-2792,2526,5.379,-0.808,-0.109,73.8,green,247,TRUE
390,1660713261.274,3704,-2697,882,5.229,-1.354,-0.497,88.8,yellow,247,TRUE
391,1660713261.454,4011,6746,750,0.801,-1.428,1.808,88.6,red,247,TRUE
392,1660713261.546,3605,6172,3348,6.151,-1.392,-2.368,86.8,blue,247,TRUE
393,1660713261.633,2913,-2799,2526,5.372,-0.808,-0.113,73.8,green,247,TRUE
394,1660713261.992,3688,-2688,882,5.223,-1.348,-0.501,88.8,yellow,247,TRUE
395,1660713262.171,3995,6742,750,0.786,-1.438,1.83,90.1,red,247,TRUE
396,1660713262.263,3596,6128,3348,6.192,-1.408,-2.347,87.8,blue,247,TRUE
397,1660713262.352,2899,-2813,2526,5.36,-0.8,-0.131,73.8,green,247,TRUE
398,1660713262.711,3659,-2684,882,5.223,-1.344,-0.487,88.7,yellow,247,TRUE
399,1660713262.891,3986,6735,750,0.79,-1.433,1.862,88.7,red,247,TRUE
400,1660713262.993,3651,6067,3348,0.024,-1.41,-2.31,91.7,blue,247,TRUE
401,1660713263.085,2878,-2825,2526,5.355,-0.8,-0.122,73.8,green,247,TRUE
402,1660713263.459,3651,-2684,882,5.217,-1.345,-0.485,89.3,yellow,247,TRUE
403,1660713263.639,3978,6729,750,0.79,-1.434,1.83,89.2,red,247,TRUE
404,1660713263.729,3710,6053,3348,0.031,-1.421,-2.261,88.8,blue,247,TRUE
405,1660713263.821,2878,-2825,2526,5.363,-0.819,-0.115,72.0,green,247,TRUE
406,1660713264.194,3627,-2672,882,5.213,-1.337,-0.48,88.8,yellow,247,TRUE
407,1660713264.375,3978,6726,750,0.802,-1.434,1.829,88.1,red,247,TRUE
408,1660713264.464,3696,6065,3348,0.035,-1.429,-2.217,88.8,blue,247,TRUE
409,1660713264.554,2869,-2816,2526,5.377,-0.86,-0.103,72.8,green,247,TRUE
410,1660713264.928,3626,-2667,882,5.213,-1.336,-0.477,87.8,yellow,247,TRUE
411,1660713265.12,3961,6728,750,0.784,-1.442,1.886,90.8,red,247,TRUE
412,1660713265.212,3683,6112,3348,0.044,-1.428,-2.209,88.8,blue,247,TRUE
413,1660713265.301,2877,-2817,2526,5.38,-0.84,-0.098,73.8,green,247,TRUE
414,1660713265.677,3626,-2668,882,5.213,-1.335,-0.475,87.8,yellow,247,TRUE
415,1660713265.857,3955,6742,750,0.768,-1.446,1.885,86.7,red,247,TRUE
416,1660713265.945,3663,6124,3348,0.039,-1.424,-2.225,88.6,blue,247,TRUE
417,1660713266.047,2898,-2808,2526,5.389,-0.827,-0.096,75.8,green,247,TRUE
418,1660713266.423,3634,-2667,882,5.215,-1.337,-0.484,88.8,yellow,247,TRUE
419,1660713266.602,3952,6753,750,0.771,-1.451,3.025,88.8,red,247,TRUE
420,1660713266.692,3682,6123,3348,0.027,-1.422,-2.235,88.8,blue,247,TRUE
421,1660713266.782,2890,-2783,2526,5.387,-0.825,-0.097,88.8,green,247,TRUE
422,1660713267.171,3638,-2662,882,5.217,-1.341,-0.492,88.8,yellow,247,TRUE
423,1660713267.352,3953,6757,750,0.784,-1.439,1.943,87.8,red,247,TRUE
424,1660713267.441,3692,6123,3348,0.021,-1.434,-2.194,88.8,blue,247,TRUE
425,1660713267.532,2893,-2787,2526,5.385,-0.822,-0.099,72.0,green,247,TRUE
426,1660713267.904,3635,-2654,882,5.221,-1.35,-0.49,88.8,yellow,247,TRUE
427,1660713268.084,3956,6784,750,0.783,-1.439,2.002,90.9,red,247,TRUE
428,1660713268.175,3703,6123,3348,0.02,-1.432,-2.198,87.7,blue,247,TRUE
429,1660713268.263,2879,-2796,2526,5.385,-0.814,-0.101,73.8,green,247,TRUE
430,1660713268.654,3638,-2651,882,5.221,-1.348,-0.485,86.8,yellow,247,TRUE
431,1660713268.832,3940,6758,750,0.798,-1.432,1.98,88.7,red,247,TRUE
432,1660713268.924,3712,6116,3348,0.022,-1.432,-2.205,87.5,blue,247,TRUE
433,1660713269.012,2878,-2785,2526,5.388,-0.812,-0.103,73.8,green,247,TRUE
434,1660713269.402,3630,-2642,882,5.223,-1.347,-0.48,88.8,yellow,247,TRUE
435,1660713269.584,3939,6739,750,0.795,-1.442,1.89,86.5,red,247,TRUE
436,1660713269.671,3740,6102,3348,0.025,-1.432,-2.206,88.7,blue,247,TRUE
437,1660713269.761,2867,-2768,2526,5.38,-0.808,-0.085,73.8,green,247,TRUE
438,1660713270.15,3626,-2637,882,5.223,-1.35,-0.487,88.8,yellow,247,TRUE
439,1660713270.329,3938,6727,750,0.793,-1.438,1.9,88.7,red,247,TRUE
440,1660713270.42,3769,6090,3348,0.025,-1.432,-2.212,87.8,blue,247,TRUE
441,1660713270.511,2875,-2761,2526,5.393,-0.79,-0.101,86.8,green,247,TRUE
442,1660713270.898,3629,-2631,882,5.224,-1.344,-0.473,88.8,yellow,247,TRUE
443,1660713271.077,3947,6733,750,0.809,-1.429,1.859,88.9,red,247,TRUE
444,1660713271.18,3758,6059,3348,0.022,-1.433,-2.198,90.8,blue,247,TRUE
445,1660713272.64,3628,-2627,882,5.231,-1.323,-0.418,82.8,yellow,247,TRUE
446,1660713272.813,3942,6735,750,0.857,-1.416,1.949,89.8,red,247,TRUE
447,1660713272.904,3760,6074,3348,0.031,-1.433,-2.199,89.0,blue,247,TRUE
448,1660713272.996,2874,-2745,2526,5.395,-0.808,-0.092,87.0,green,247,TRUE
449,1660713273.383,3651,-2637,882,5.217,-1.326,-0.44,88.8,yellow,247,TRUE
450,1660713273.564,3940,6744,750,0.866,-1.417,1.951,87.8,red,247,TRUE
451,1660713273.653,3762,6084,3348,0.043,-1.442,-2.137,88.8,blue,247,TRUE
452,1660713273.755,2859,-2730,2526,5.401,-0.803,-0.091,90.8,green,247,TRUE
453,1660713274.163,3671,-2656,882,5.216,-1.326,-0.439,86.8,yellow,247,TRUE
454,1660713274.341,3940,6751,750,0.867,-1.422,1.878,88.8,red,247,TRUE
455,1660713274.43,3792,6076,3348,0.037,-1.444,-2.119,88.9,blue,247,TRUE
456,1660713274.523,2876,-2710,2526,5.402,-0.785,-0.089,85.8,green,247,TRUE
457,1660713274.908,3662,-2661,882,5.216,-1.325,-0.435,89.8,yellow,247,TRUE
458,1660713275.089,3922,6760,750,0.843,-1.432,1.941,88.8,red,247,TRUE
459,1660713275.192,3794,6060,3348,0.037,-1.441,-2.135,90.7,blue,247,TRUE
460,1660713275.296,2872,-2715,2526,5.402,-0.804,-0.092,90.7,green,247,TRUE
461,1660713275.69,3653,-2666,882,5.216,-1.322,-0.43,85.9,yellow,247,TRUE
462,1660713275.867,3941,6769,750,0.843,-1.436,1.95,88.8,red,247,TRUE
463,1660713275.957,3795,6043,3348,0.071,-1.438,-2.201,88.8,blue,247,TRUE
464,1660713276.048,2873,-2721,2526,5.403,-0.805,-0.093,86.5,green,247,TRUE
465,1660713276.435,3659,-2674,882,5.217,-1.323,-0.436,88.8,yellow,247,TRUE
466,1660713276.615,3936,6769,750,0.858,-1.429,1.968,88.8,red,247,TRUE
467,1660713276.717,3789,6027,3348,0.032,-1.43,-2.193,91.3,blue,247,TRUE
468,1660713276.817,2881,-2712,2526,5.369,-0.798,-0.086,81.8,green,247,TRUE
469,1660713277.183,3682,-2691,882,5.222,-1.316,-0.411,73.8,yellow,247,TRUE
470,1660713277.363,3954,6783,750,0.863,-1.431,1.918,88.6,red,247,TRUE
471,1660713277.453,3781,6006,3348,0.053,-1.436,-2.155,89.0,blue,247,TRUE
472,1660713277.546,2912,-2713,2526,5.364,-0.786,-0.081,85.2,green,247,TRUE
473,1660713277.931,3706,-2712,882,5.225,-1.311,-0.391,89.7,yellow,247,TRUE
474,1660713278.11,3950,6767,750,0.856,-1.446,1.971,88.7,red,247,TRUE
475,1660713278.213,3769,5987,3348,0.055,-1.43,-2.213,90.8,blue,247,TRUE
476,1660713278.318,2910,-2705,2526,5.37,-0.796,-0.081,90.8,green,247,TRUE
477,1660713278.726,3718,-2715,882,5.224,-1.324,-0.41,85.7,yellow,247,TRUE
478,1660713278.903,3965,6771,750,0.923,-1.409,2.016,89.1,red,247,TRUE
479,1660713278.993,3737,5984,3348,0.055,-1.431,-2.209,88.8,blue,247,TRUE
480,1660713279.084,2928,-2695,2526,5.372,-0.789,-0.087,87.8,green,247,TRUE
481,1660713279.472,3772,-2733,882,5.225,-1.33,-0.416,88.8,yellow,247,TRUE
482,1660713279.651,3964,6737,750,2.004,-1.35,1.671,88.8,red,247,TRUE
483,1660713279.754,3722,5955,3348,0.01,-1.372,-2.561,90.8,blue,247,TRUE
484,1660713279.859,2938,-2691,2526,5.373,-0.807,-0.089,90.8,green,247,TRUE
485,1660713280.25,3792,-2744,882,5.224,-1.328,-0.409,88.1,yellow,247,TRUE
486,1660713280.429,3953,6687,750,2.032,-1.396,1.216,88.8,red,247,TRUE
487,1660713280.519,3738,5913,3348,0.448,-1.337,-2.963,88.8,blue,247,TRUE
488,1660713280.612,2950,-2683,2526,5.375,-0.801,-0.087,85.9,green,247,TRUE
489,1660713280.997,3820,-2764,882,5.226,-1.343,-0.437,89.7,yellow,247,TRUE
490,1660713281.177,3930,6647,750,2.125,-1.502,3.075,88.8,red,247,TRUE
491,1660713281.28,3773,5837,3348,1.113,-1.354,-2.653,90.7,blue,247,TRUE
492,1660713281.372,2936,-2673,2526,5.376,-0.805,-0.087,88.8,green,247,TRUE
493,1660713281.778,3862,-2782,882,5.226,-1.344,-0.439,86.8,yellow,247,TRUE
494,1660713281.955,3912,6571,750,2.382,-1.45,1.894,88.8,red,247,TRUE
495,1660713282.045,3807,5737,3348,1.133,-1.364,-2.682,89.1,blue,247,TRUE
496,1660713282.136,2949,-2679,2526,5.379,-0.8,-0.087,87.8,green,247,TRUE
497,1660713282.524,3849,-2774,882,5.225,-1.344,-0.44,88.8,yellow,247,TRUE
498,1660713282.704,3907,6413,750,1.926,-1.482,3.077,89.2,red,247,TRUE
499,1660713282.807,3858,5591,3348,1.263,-1.396,-2.601,90.7,blue,247,TRUE
500,1660713282.912,2961,-2670,2526,5.379,-0.796,-0.086,90.8,green,247,TRUE
501,1660713283.304,3820,-2757,882,5.221,-1.335,-0.44,87.8,yellow,247,TRUE
502,1660713283.482,3912,6184,750,2.313,-1.37,1.712,88.8,red,247,TRUE
503,1660713283.574,3933,5405,3348,1.682,-1.381,-2.803,86.7,blue,247,TRUE
504,1660713283.664,2961,-2665,2526,5.379,-0.792,-0.087,87.0,green,247,TRUE
505,1660713284.051,3830,-2756,882,5.219,-1.329,-0.43,88.8,yellow,247,TRUE
506,1660713284.231,3956,5908,750,2.244,-1.444,0.852,88.8,red,247,TRUE
507,1660713284.334,4061,5188,3348,1.454,-1.415,-2.539,90.5,blue,247,TRUE
508,1660713284.425,2970,-2661,2526,5.381,-0.808,-0.088,88.8,green,247,TRUE
509,1660713285.952,3966,5561,750,1.924,-1.433,1.638,88.8,red,247,TRUE
510,1660713286.046,4150,4926,3348,1.691,-1.365,-2.559,84.8,blue,247,TRUE
511,1660713286.132,2973,-2650,2526,5.385,-0.795,-0.079,87.8,green,247,TRUE
512,1660713286.505,3862,-2768,882,5.219,-1.319,-0.419,88.8,yellow,247,TRUE
513,1660713286.687,3981,5253,750,1.426,-1.417,1.533,86.8,red,247,TRUE
514,1660713286.775,4226,4667,3348,2.189,-1.37,-2.551,88.8,blue,247,TRUE
515,1660713286.877,2984,-2641,2526,5.387,-0.789,-0.075,90.7,green,247,TRUE
516,1660713287.269,3849,-2760,882,5.217,-1.317,-0.417,88.8,yellow,247,TRUE
517,1660713287.448,4003,4886,750,1.661,-1.406,1.264,88.8,red,247,TRUE
518,1660713287.537,4285,4384,3348,2.066,-1.388,-2.548,88.8,blue,247,TRUE
519,1660713287.629,2981,-2645,2526,5.388,-0.81,-0.075,86.8,green,247,TRUE
520,1660713288.002,3815,-2743,882,5.225,-1.332,-0.444,88.8,yellow,247,TRUE
521,1660713288.183,4038,4556,750,1.436,-1.444,1.922,86.8,red,247,TRUE
522,1660713288.271,4344,4111,3348,2.089,-1.365,-2.667,88.8,blue,247,TRUE
523,1660713288.373,2991,-2643,2526,5.389,-0.797,-0.074,90.8,green,247,TRUE
524,1660713288.736,3803,-2729,882,5.227,-1.341,-0.453,86.8,yellow,247,TRUE
525,1660713288.914,4036,4243,750,1.44,-1.444,1.497,104.7,red,247,TRUE
526,1660713289.019,4437,3799,3348,2.143,-1.383,-2.858,89.4,blue,247,TRUE
527,1660713289.109,2981,-2641,2526,5.39,-0.795,-0.075,88.7,green,247,TRUE
528,1660713289.498,3827,-2742,882,5.228,-1.333,-0.436,88.8,yellow,247,TRUE
529,1660713289.678,4040,3929,750,1.541,-1.403,1.488,88.6,red,247,TRUE
530,1660713289.769,4556,3531,3348,1.566,-1.331,-2.566,87.7,blue,247,TRUE
531,1660713289.857,2984,-2633,2526,5.391,-0.814,-0.075,88.7,green,247,TRUE
532,1660713290.233,3819,-2730,882,5.228,-1.332,-0.432,87.5,yellow,247,TRUE
533,1660713290.411,3998,3664,750,1.504,-1.42,1.561,73.6,red,247,TRUE
534,1660713290.486,4609,3264,3348,1.899,-1.386,-2.595,88.8,blue,247,TRUE
535,1660713290.577,2974,-2650,2526,5.391,-0.801,-0.074,86.8,green,247,TRUE
536,1660713291.922,3823,-2737,882,5.229,-1.32,-0.393,88.8,yellow,247,TRUE
537,1660713292.107,4026,3372,750,1.467,-1.403,1.77,84.2,red,247,TRUE
538,1660713292.193,4658,3051,3348,2.218,-1.494,-3.131,87.8,blue,247,TRUE
539,1660713292.284,2977,-2652,2526,5.393,-0.813,-0.073,86.8,green,247,TRUE
540,1660713292.671,3795,-2718,882,5.224,-1.318,-0.405,89.4,yellow,247,TRUE
541,1660713292.851,4078,3112,750,1.476,-1.378,1.683,88.8,red,247,TRUE
542,1660713292.954,4693,2871,3348,2.214,-1.497,-3.133,90.8,blue,247,TRUE
543,1660713293.058,2972,-2669,2526,5.404,-0.795,-0.072,90.8,green,247,TRUE
544,1660713293.466,3802,-2714,882,5.224,-1.317,-0.403,86.7,yellow,247,TRUE
545,1660713293.646,4133,2913,750,1.48,-1.368,1.646,86.8,red,247,TRUE
546,1660713293.734,4700,2746,3348,2.191,-1.5,-3.127,89.1,blue,247,TRUE
547,1660713295.204,3808,-2705,882,5.373,-1.019,-0.301,84.8,yellow,247,TRUE
548,1660713295.381,4151,2810,750,1.475,-1.369,1.66,87.7,red,247,TRUE
549,1660713295.47,4681,2635,3348,2.166,-1.501,-3.126,89.1,blue,247,TRUE
550,1660713295.56,2977,-2657,2526,5.359,-0.809,-0.083,88.8,green,247,TRUE
551,1660713295.935,3861,-2717,882,5.423,-1.281,-0.431,87.8,yellow,247,TRUE
552,1660713296.127,4141,2757,750,1.464,-1.377,1.661,90.8,red,247,TRUE
553,1660713296.219,4631,2542,3348,2.167,-1.501,-3.129,88.8,blue,247,TRUE
554,1660713296.308,2977,-2657,2526,5.347,-0.803,-0.084,73.8,green,247,TRUE
555,1660713296.682,3825,-2721,882,5.401,-1.458,3.131,73.7,yellow,247,TRUE
556,1660713296.849,4161,2737,750,1.475,-1.372,1.612,86.8,red,247,TRUE
557,1660713296.938,4660,2494,3348,2.171,-1.506,-3.127,87.8,blue,247,TRUE
558,1660713297.039,2975,-2677,2526,5.356,-0.8,-0.089,75.8,green,247,TRUE
559,1660713297.4,3781,-2706,882,5.335,-1.417,-0.285,73.9,yellow,247,TRUE
560,1660713297.567,4190,2683,750,1.48,-1.37,1.59,86.9,red,247,TRUE
561,1660713297.655,4678,2448,3348,2.17,-1.508,-3.126,88.8,blue,247,TRUE
562,1660713300.394,4103,2717,750,1.477,-1.379,1.601,73.8,red,247,TRUE
563,1660713300.474,4698,2467,3348,2.214,-1.48,-3.133,82.8,blue,247,TRUE
564,1660713302.0,3781,-2706,882,5.367,-1.56,-0.004,84.8,yellow,247,TRUE
565,1660713302.175,4096,2701,750,1.47,-1.383,1.67,88.7,red,247,TRUE
566,1660713302.265,4710,2472,3348,2.219,-1.478,-3.135,88.7,blue,247,TRUE
567,1660713303.738,3784,-2736,882,5.377,-1.566,0.001,82.8,yellow,247,TRUE
568,1660713303.911,4087,2658,750,1.434,-1.389,1.547,88.7,red,247,TRUE
569,1660713304.002,4708,2504,3348,2.224,-1.476,-3.135,87.7,blue,247,TRUE
570,1660713304.105,2975,-2677,2526,5.39,-0.81,-0.05,89.9,green,247,TRUE
571,1660713304.525,3777,-2753,882,5.375,-1.559,-3.139,74.8,yellow,247,TRUE
572,1660713304.69,4053,2673,750,1.419,-1.39,1.736,88.8,red,247,TRUE
573,1660713304.792,4664,2517,3348,2.222,-1.476,-3.136,91.2,blue,247,TRUE
574,1660713304.885,2975,-2677,2526,5.388,-0.807,-0.063,73.8,green,247,TRUE
575,1660713305.275,3747,-2761,882,5.373,-1.568,-0.001,87.8,yellow,247,TRUE
576,1660713305.454,4159,2644,750,1.41,-1.388,1.689,88.8,red,247,TRUE
577,1660713305.545,4659,2543,3348,2.231,-1.481,-3.138,86.6,blue,247,TRUE
578,1660713305.635,2975,-2677,2526,5.391,-0.808,-0.062,71.8,green,247,TRUE
579,1660713306.022,3699,-2769,882,5.371,-1.558,-0.003,88.7,yellow,247,TRUE
580,1660713306.201,4148,2619,750,1.426,-1.391,1.581,88.8,red,247,TRUE
581,1660713306.304,4650,2551,3348,2.281,-1.478,-3.141,91.3,blue,247,TRUE
582,1660713306.396,2975,-2677,2526,5.393,-0.807,-0.063,73.8,green,247,TRUE
583,1660713306.773,3633,-2771,882,5.368,-1.548,-0.007,86.8,yellow,247,TRUE
584,1660713306.95,4123,2610,750,1.47,-1.382,1.535,88.6,red,247,TRUE
585,1660713307.042,4674,2548,3348,2.333,-1.476,3.137,86.8,blue,247,TRUE
586,1660713307.13,2975,-2683,2526,5.397,-0.816,-0.061,89.0,green,247,TRUE
587,1660713307.549,3633,-2771,882,5.368,-1.56,-0.007,73.8,yellow,247,TRUE
588,1660713307.714,4213,2579,750,1.433,-1.391,1.546,73.8,red,247,TRUE
589,1660713307.802,4742,2607,3348,2.333,-1.475,3.137,90.7,blue,247,TRUE
590,1660713307.893,2970,-2693,2526,5.397,-0.814,-0.063,73.8,green,247,TRUE
591,1660713308.252,3605,-2774,882,5.368,-1.561,-0.007,89.6,yellow,247,TRUE
592,1660713308.448,4205,2539,750,1.431,-1.397,1.599,88.7,red,247,TRUE
593,1660713308.537,4736,2614,3348,2.323,-1.486,-3.141,88.8,blue,247,TRUE
594,1660713308.63,2970,-2693,2526,5.399,-0.824,-0.065,70.8,green,247,TRUE
595,1660713309.001,3582,-2781,882,5.368,-1.56,-0.007,88.8,yellow,247,TRUE
596,1660713309.181,4152,2538,750,1.43,-1.395,1.581,88.8,red,247,TRUE
597,1660713309.284,4753,2641,3348,2.259,-1.491,3.139,91.7,blue,247,TRUE
598,1660713309.375,2986,-2696,2526,5.4,-0.82,-0.06,88.7,green,247,TRUE
599,1660713309.75,3504,-2768,882,5.368,-1.557,-0.007,87.8,yellow,247,TRUE
600,1660713309.929,4097,2533,750,1.444,-1.382,1.552,88.8,red,247,TRUE
601,1660713310.019,4720,2669,3348,2.286,-1.504,3.139,89.4,blue,247,TRUE
602,1660713310.111,2986,-2702,2526,5.404,-0.824,-0.068,86.7,green,247,TRUE
603,1660713310.498,3465,-2776,882,5.37,-1.56,-0.005,74.3,yellow,247,TRUE
604,1660713310.665,4008,2565,750,1.446,-1.373,1.559,71.6,red,247,TRUE
605,1660713310.738,4687,2707,3348,2.237,-1.509,-3.127,88.8,blue,247,TRUE
606,1660713310.84,2984,-2697,2526,5.406,-0.816,-0.065,90.7,green,247,TRUE
607,1660713311.218,3403,-2773,882,5.372,-1.566,-3.137,71.8,yellow,247,TRUE
608,1660713311.394,4013,2561,750,1.437,-1.379,1.587,75.8,red,247,TRUE
609,1660713311.471,4674,2706,3348,2.242,-1.501,-3.125,88.7,blue,247,TRUE
610,1660713311.56,2979,-2699,2526,5.412,-0.81,-0.071,88.8,green,247,TRUE
611,1660713311.934,3416,-2772,882,5.373,-1.566,-3.137,73.8,yellow,247,TRUE
612,1660713313.074,4019,2589,750,1.427,-1.425,2.237,86.8,red,247,TRUE
613,1660713313.162,4676,2709,3348,2.249,-1.498,-3.129,89.1,blue,247,TRUE
614,1660713313.257,2989,-2710,2526,5.42,-0.795,-0.087,83.7,green,247,TRUE
615,1660713313.626,3413,-2780,882,5.373,-1.56,-0.004,73.8,yellow,247,TRUE
616,1660713313.79,4046,2600,750,1.48,-1.445,1.845,88.8,red,247,TRUE
617,1660713313.893,4671,2706,3348,2.244,-1.499,-3.127,90.8,blue,247,TRUE
618,1660713313.985,2999,-2701,2526,5.427,-0.779,-0.072,88.8,green,247,TRUE
619,1660713314.374,3394,-2758,882,5.378,-1.562,0.0,74.8,yellow,247,TRUE
620,1660713314.538,4072,2551,750,2.673,-1.314,1.673,88.8,red,247,TRUE
621,1660713314.632,4675,2689,3348,2.245,-1.498,-3.13,84.8,blue,247,TRUE
622,1660713314.718,3011,-2704,2526,5.428,-0.791,-0.068,103.7,green,247,TRUE
623,1660713315.122,3394,-2758,882,5.38,-1.568,3.141,73.8,yellow,247,TRUE
624,1660713315.286,4052,2554,750,1.835,-1.378,2.114,88.8,red,247,TRUE
625,1660713315.389,4711,2682,3348,2.247,-1.499,-3.131,90.7,blue,247,TRUE
626,1660713315.481,3005,-2688,2526,5.411,-0.786,-0.065,103.7,green,247,TRUE
627,1660713315.87,3402,-2768,882,5.379,-1.57,3.141,88.8,yellow,247,TRUE
628,1660713316.064,4068,2555,750,1.187,-1.384,2.707,89.3,red,247,TRUE
629,1660713316.155,4709,2677,3348,2.242,-1.5,-3.133,88.8,blue,247,TRUE
630,1660713316.245,3000,-2694,2526,5.379,-0.79,-0.059,87.8,green,247,TRUE
631,1660713316.603,3409,-2776,882,5.378,-1.557,0.0,88.8,yellow,247,TRUE
632,1660713316.783,4088,2544,750,1.277,-1.432,1.923,88.6,red,247,TRUE
633,1660713316.885,4690,2669,3348,2.246,-1.499,-3.133,91.1,blue,247,TRUE
634,1660713316.991,3001,-2678,2526,5.363,-0.786,-0.065,90.8,green,247,TRUE
635,1660713317.353,3387,-2776,882,5.38,-1.557,0.001,72.8,yellow,247,TRUE
636,1660713317.516,4004,2590,750,1.605,-1.433,2.064,88.8,red,247,TRUE
637,1660713317.606,4623,2601,3348,2.249,-1.5,-3.133,88.7,blue,247,TRUE
638,1660713317.699,3011,-2670,2526,5.36,-0.795,-0.07,85.8,green,247,TRUE
639,1660713318.1,3424,-2791,882,5.38,-1.569,0.001,73.8,yellow,247,TRUE
640,1660713318.264,4045,2596,750,1.936,-1.369,1.707,88.8,red,247,TRUE
641,1660713318.367,4605,2607,3348,2.242,-1.504,-3.134,90.8,blue,247,TRUE
642,1660713318.459,3031,-2659,2526,5.366,-0.786,-0.08,88.8,green,247,TRUE
643,1660713318.85,3444,-2798,882,5.379,-1.564,0.0,71.8,yellow,247,TRUE
644,1660713319.025,4116,2583,750,1.889,-1.415,1.919,91.7,red,247,TRUE
645,1660713319.117,4571,2616,3348,2.248,-1.5,-3.131,88.8,blue,247,TRUE
646,1660713319.207,3017,-2681,2526,5.372,-0.771,-0.08,118.7,green,247,TRUE
647,1660713319.625,3428,-2801,882,5.38,-1.561,0.001,73.8,yellow,247,TRUE
648,1660713319.79,4135,2612,750,1.818,-1.418,1.763,88.8,red,247,TRUE
649,1660713319.893,4558,2619,3348,2.25,-1.498,-3.134,90.8,blue,247,TRUE
650,1660713319.997,3008,-2679,2526,5.382,-0.801,-0.084,90.8,green,247,TRUE
651,1660713320.405,3493,-2834,882,5.379,-1.554,0.0,71.8,yellow,247,TRUE
652,1660713320.568,4187,2617,750,1.818,-1.415,1.812,88.8,red,247,TRUE
653,1660713320.66,4554,2614,3348,2.26,-1.514,-3.137,86.9,blue,247,TRUE
654,1660713320.75,3009,-2692,2526,5.384,-0.84,-0.087,86.8,green,247,TRUE
655,1660713321.151,3487,-2840,882,5.382,-1.568,3.138,73.8,yellow,247,TRUE
656,1660713321.316,4267,2591,750,1.846,-1.4,1.917,88.8,red,247,TRUE
657,1660713321.406,4534,2608,3348,2.26,-1.52,-3.137,88.5,blue,247,TRUE
658,1660713321.495,3028,-2689,2526,5.389,-0.828,-0.094,88.8,green,247,TRUE
659,1660713321.872,3490,-2858,882,5.382,-1.568,3.138,86.7,yellow,247,TRUE
660,1660713322.062,4270,2560,750,1.856,-1.39,1.975,90.8,red,247,TRUE
661,1660713322.154,4510,2597,3348,2.262,-1.516,-3.133,88.8,blue,247,TRUE
662,1660713322.243,3030,-2678,2526,5.393,-0.798,-0.095,88.7,green,247,TRUE
663,1660713322.618,3501,-2875,882,5.382,-1.563,0.002,88.8,yellow,247,TRUE
664,1660713322.799,4274,2562,750,1.869,-1.396,1.902,86.6,red,247,TRUE
665,1660713322.887,4497,2589,3348,2.262,-1.52,-3.133,89.0,blue,247,TRUE
666,1660713322.99,3043,-2667,2526,5.393,-0.784,-0.091,90.9,green,247,TRUE
667,1660713323.396,3500,-2875,882,5.379,-1.558,-0.001,88.7,yellow,247,TRUE
668,1660713323.576,4303,2601,750,1.872,-1.398,1.874,88.8,red,247,TRUE
669,1660713323.666,4481,2589,3348,2.291,-1.515,-3.139,87.8,blue,247,TRUE
670,1660713323.755,3032,-2662,2526,5.401,-0.797,-0.079,88.8,green,247,TRUE
671,1660713324.144,3503,-2887,882,5.383,-1.566,0.002,89.1,yellow,247,TRUE
672,1660713324.327,4296,2596,750,1.862,-1.395,1.878,85.8,red,247,TRUE
673,1660713324.414,4426,2582,3348,2.287,-1.515,-3.139,88.7,blue,247,TRUE
674,1660713324.504,3045,-2651,2526,5.403,-0.796,-0.079,88.6,green,247,TRUE
675,1660713324.892,3488,-2867,882,5.384,-1.562,3.137,88.8,yellow,247,TRUE
676,1660713325.072,4275,2610,750,1.899,-1.362,2.04,89.0,red,247,TRUE
677,1660713325.162,4417,2580,3348,2.306,-1.514,3.133,88.8,blue,247,TRUE
678,1660713325.252,3037,-2655,2526,5.411,-0.791,-0.089,88.8,green,247,TRUE
679,1660713325.641,3472,-2848,882,5.384,-1.565,0.003,88.8,yellow,247,TRUE
680,1660713325.821,4245,2632,750,1.93,-1.358,1.932,87.8,red,247,TRUE
681,1660713325.91,4384,2572,3348,2.369,-1.501,3.121,88.8,blue,247,TRUE
682,1660713326.013,3039,-2650,2526,5.413,-0.783,-0.089,90.7,green,247,TRUE
683,1660713326.419,3486,-2833,882,5.382,-1.563,0.001,88.7,yellow,247,TRUE
684,1660713326.598,4217,2633,750,1.929,-1.374,1.863,88.8,red,247,TRUE
685,1660713326.69,4368,2562,3348,2.362,-1.505,3.125,86.7,blue,247,TRUE
686,1660713326.778,3024,-2643,2526,5.409,-0.793,-0.08,88.8,green,247,TRUE
687,1660713327.168,3419,-2816,882,5.382,-1.545,0.002,87.7,yellow,247,TRUE
688,1660713327.347,4192,2642,750,1.906,-1.378,1.944,87.7,red,247,TRUE
689,1660713327.436,4363,2561,3348,2.373,-1.499,3.124,88.8,blue,247,TRUE
690,1660713327.526,3016,-2640,2526,5.413,-0.802,-0.081,88.8,green,247,TRUE
691,1660713327.93,3381,-2802,882,5.391,-1.563,3.134,88.5,yellow,247,TRUE
692,1660713328.109,4164,2624,750,1.906,-1.379,1.957,88.8,red,247,TRUE
693,1660713328.199,4350,2545,3348,2.385,-1.514,3.129,88.8,blue,247,TRUE
694,1660713328.289,3000,-2609,2526,5.415,-0.801,-0.08,103.7,green,247,TRUE
695,1660713328.708,3397,-2798,882,5.392,-1.563,0.007,73.8,yellow,247,TRUE
696,1660713328.874,4166,2609,750,1.898,-1.379,1.925,86.8,red,247,TRUE
697,1660713328.962,4336,2543,3348,2.394,-1.514,3.129,88.8,blue,247,TRUE
698,1660713329.065,3026,-2607,2526,5.428,-0.793,-0.067,90.7,green,247,TRUE
699,1660713329.456,3397,-2798,882,5.392,-1.562,0.007,73.8,yellow,247,TRUE
700,1660713329.62,4179,2585,750,1.915,-1.386,1.751,89.8,red,247,TRUE
701,1660713329.712,4321,2525,3348,2.341,-1.525,3.132,86.8,blue,247,TRUE
702,1660713329.8,3036,-2603,2526,5.425,-0.805,-0.052,88.8,green,247,TRUE
703,1660713330.217,3350,-2770,882,5.391,-1.563,0.005,90.8,yellow,247,TRUE
704,1660713330.398,4161,2583,750,1.9,-1.393,1.744,89.8,red,247,TRUE
705,1660713330.49,4339,2524,3348,2.263,-1.504,3.129,86.8,blue,247,TRUE
706,1660713330.578,3034,-2599,2526,5.43,-0.781,-0.092,73.8,green,247,TRUE
707,1660713330.952,3371,-2782,882,5.384,-1.545,0.0,88.8,yellow,247,TRUE
708,1660713331.131,4123,2580,750,1.893,-1.389,1.709,88.8,red,247,TRUE
709,1660713331.234,4341,2513,3348,2.29,-1.509,3.132,91.3,blue,247,TRUE
710,1660713331.326,3022,-2595,2526,5.43,-0.798,-0.083,88.7,green,247,TRUE
711,1660713331.73,3402,-2760,882,5.325,-1.337,-0.156,88.8,yellow,247,TRUE
712,1660713331.91,4117,2579,750,1.897,-1.386,1.652,88.8,red,247,TRUE
713,1660713332.001,4336,2503,3348,2.301,-1.499,3.135,86.8,blue,247,TRUE
714,1660713333.44,3378,-2684,882,4.955,-1.193,2.806,83.8,yellow,247,TRUE
715,1660713333.615,4112,2577,750,1.887,-1.382,1.668,88.7,red,247,TRUE
716,1660713333.706,4338,2514,3348,2.306,-1.509,3.133,87.8,blue,247,TRUE
717,1660713333.794,3000,-2597,2526,5.432,-0.784,-0.082,88.8,green,247,TRUE
718,1660713334.183,3258,-2614,882,4.138,-1.258,2.798,73.8,yellow,247,TRUE
719,1660713334.363,4105,2584,750,1.869,-1.395,1.618,89.4,red,247,TRUE
720,1660713334.453,4347,2508,3348,2.309,-1.509,3.13,88.8,blue,247,TRUE
721,1660713334.545,2989,-2609,2526,5.433,-0.776,-0.088,87.1,green,247,TRUE
722,1660713336.176,4137,2585,750,1.93,-1.396,1.536,88.7,red,247,TRUE
723,1660713336.271,4378,2499,3348,2.074,-1.414,-2.787,83.8,blue,247,TRUE
724,1660713336.357,2996,-2623,2526,5.438,-0.795,-0.089,86.8,green,247,TRUE
725,1660713337.972,4164,2601,750,1.882,-1.43,1.662,88.8,red,247,TRUE
726,1660713338.068,4403,2518,3348,2.918,-1.345,-2.682,82.8,blue,247,TRUE
727,1660713338.153,2990,-2627,2526,5.445,-0.805,-0.091,87.8,green,247,TRUE
728,1660713339.74,4160,2594,750,1.854,-1.395,1.788,86.8,red,247,TRUE
729,1660713339.832,4423,2537,3348,2.971,-1.338,-2.786,83.8,blue,247,TRUE
730,1660713339.918,2978,-2639,2526,5.463,-0.837,-0.113,72.8,green,247,TRUE
731,1660713340.471,4152,2610,750,0.939,-1.325,2.509,88.8,red,247,TRUE
732,1660713340.561,4479,2591,3348,3.011,-1.332,-2.821,88.7,blue,247,TRUE
733,1660713340.652,2977,-2651,2526,5.465,-0.82,-0.105,86.8,green,247,TRUE
734,1660713341.144,4146,2648,750,6.081,-1.493,3.101,88.8,red,247,TRUE
735,1660713341.247,4529,2614,3348,3.3,-1.313,-3.073,90.8,blue,247,TRUE
736,1660713341.351,2962,-2654,2526,5.468,-0.806,-0.099,91.2,green,247,TRUE
737,1660713343.0,4135,2694,750,0.275,-1.437,2.122,89.4,red,247,TRUE
738,1660713343.095,4474,2686,3348,3.555,-1.374,-3.137,83.7,blue,247,TRUE
739,1660713343.183,2962,-2654,2526,5.476,-0.8,-0.096,70.8,green,247,TRUE
740,1660713344.724,4177,2711,750,1.82,-1.426,2.214,86.7,red,247,TRUE
741,1660713344.817,4330,2762,3348,3.288,-1.32,-2.842,97.6,blue,247,TRUE
742,1660713344.917,2974,-2654,2526,5.477,-0.825,-0.092,88.4,green,247,TRUE
743,1660713345.307,3258,-2614,882,3.851,-1.312,-3.141,71.8,yellow,247,TRUE
744,1660713345.483,4199,2714,750,2.477,-1.232,2.056,91.0,red,247,TRUE
745,1660713345.575,4165,2809,3348,3.099,-1.353,-2.686,88.8,blue,247,TRUE
746,1660713345.665,2965,-2646,2526,5.478,-0.804,-0.089,88.8,green,247,TRUE
747,1660713346.054,3258,-2614,882,3.725,-1.337,3.123,73.4,yellow,247,TRUE
748,1660713346.22,4231,2732,750,1.65,-1.374,2.449,86.7,red,247,TRUE
749,1660713346.308,4019,2869,3348,3.131,-1.356,-2.722,88.8,blue,247,TRUE
750,1660713346.41,2947,-2645,2526,5.48,-0.81,-0.087,90.7,green,247,TRUE
751,1660713346.802,3258,-2614,882,3.871,-1.364,2.774,72.8,yellow,247,TRUE
752,1660713346.966,4225,2747,750,1.271,-1.415,2.722,88.8,red,247,TRUE
753,1660713347.056,3924,2976,3348,2.667,-1.237,-2.704,88.8,blue,247,TRUE
754,1660713347.145,2935,-2645,2526,5.481,-0.815,-0.086,88.8,green,247,TRUE
755,1660713347.52,3304,-2572,882,4.055,-1.277,-3.117,73.8,yellow,247,TRUE
756,1660713347.687,4266,2728,750,1.491,-1.372,2.149,86.7,red,247,TRUE
757,1660713347.777,3802,3003,3348,2.173,-1.348,-2.686,86.8,blue,247,TRUE
758,1660713347.865,2922,-2653,2526,5.484,-0.81,-0.085,88.8,green,247,TRUE
759,1660713349.422,4383,2738,750,1.254,-1.345,2.254,88.8,red,247,TRUE
760,1660713349.515,3599,2956,3348,3.796,-1.388,-2.575,84.5,blue,247,TRUE
761,1660713349.602,2924,-2652,2526,5.489,-0.813,-0.085,87.8,green,247,TRUE
762,1660713351.216,4530,2760,750,1.297,-1.394,2.068,88.8,red,247,TRUE
763,1660713351.426,2925,-2647,2526,5.497,-0.834,-0.085,102.7,green,247,TRUE
764,1660713353.042,4689,2799,750,0.788,-1.316,2.376,88.7,red,247,TRUE
765,1660713353.137,2942,3048,3348,4.54,-1.341,-2.633,83.8,blue,247,TRUE
766,1660713353.222,2896,-2645,2526,5.503,-0.833,-0.085,72.5,green,247,TRUE
767,1660713353.761,4905,2840,750,1.616,-1.494,3.112,87.7,red,247,TRUE
768,1660713353.852,2667,3065,3348,4.283,-1.334,-2.663,86.8,blue,247,TRUE
769,1660713353.94,2909,-2653,2526,5.505,-0.814,-0.085,73.8,green,247,TRUE
770,1660713354.418,5105,2853,750,2.442,-1.433,1.876,88.8,red,247,TRUE
771,1660713354.521,2361,3060,3348,4.023,-1.22,-2.784,90.7,blue,247,TRUE
772,1660713354.613,2890,-2641,2526,5.507,-0.812,-0.084,88.8,green,247,TRUE
773,1660713355.167,5311,2826,750,2.853,-1.341,1.985,88.8,red,247,TRUE
774,1660713355.257,2023,3104,3348,4.322,-1.259,-2.698,88.7,blue,247,TRUE
775,1660713356.796,3340,-2569,882,5.12,-1.397,-0.649,90.3,yellow,247,TRUE
776,1660713356.978,5483,2742,750,2.759,-1.368,2.202,88.8,red,247,TRUE
777,1660713357.08,1798,3055,3348,4.928,-1.334,-2.497,90.7,blue,247,TRUE
778,1660713357.185,2871,-2637,2526,5.515,-0.821,-0.091,90.7,green,247,TRUE
779,1660713357.563,3381,-2578,882,5.173,-1.382,-0.208,86.8,yellow,247,TRUE
780,1660713357.743,5622,2724,750,2.836,-1.346,2.162,86.8,red,247,TRUE
781,1660713357.83,1650,3031,3348,5.041,-1.346,-2.507,88.5,blue,247,TRUE
782,1660713357.922,2885,-2640,2526,5.525,-0.841,-0.096,86.8,green,247,TRUE
783,1660713358.309,3412,-2582,882,5.165,-1.388,-0.283,88.8,yellow,247,TRUE
784,1660713358.488,5751,2704,750,2.928,-1.263,2.195,88.8,red,247,TRUE
785,1660713358.578,1500,3021,3348,5.091,-1.352,-2.49,88.8,blue,247,TRUE
786,1660713358.667,2885,-2640,2526,5.523,-0.824,-0.108,74.8,green,247,TRUE
787,1660713359.027,3464,-2595,882,5.126,-1.355,-0.276,88.3,yellow,247,TRUE
788,1660713359.219,5908,2707,750,2.747,-1.355,2.603,90.7,red,247,TRUE
789,1660713359.311,1348,3008,3348,5.107,-1.352,-2.494,88.8,blue,247,TRUE
790,1660713359.401,2875,-2643,2526,5.503,-0.818,-0.075,88.7,green,247,TRUE
791,1660713359.775,3482,-2591,882,5.131,-1.356,-0.293,88.5,yellow,247,TRUE
792,1660713359.957,6024,2724,750,3.354,-1.36,2.04,86.8,red,247,TRUE
793,1660713360.044,1148,2953,3348,5.13,-1.355,-2.502,88.8,blue,247,TRUE
794,1660713360.147,2861,-2641,2526,5.505,-0.845,-0.082,91.2,green,247,TRUE
795,1660713360.525,3499,-2584,882,5.123,-1.346,-0.301,86.8,yellow,247,TRUE
796,1660713360.703,6113,2746,750,2.269,-1.374,2.244,88.8,red,247,TRUE
797,1660713360.793,959,2963,3348,5.132,-1.365,-2.458,87.8,blue,247,TRUE
798,1660713360.882,2862,-2625,2526,5.508,-0.812,-0.088,118.7,green,247,TRUE
799,1660713361.301,3497,-2592,882,5.133,-1.345,-0.275,89.3,yellow,247,TRUE
800,1660713361.482,6129,2709,750,2.178,-1.367,2.578,87.8,red,247,TRUE
801,1660713361.571,849,3055,3348,5.144,-1.366,-2.441,88.8,blue,247,TRUE
802,1660713361.66,2862,-2625,2526,5.527,-0.826,-0.084,89.6,green,247,TRUE
803,1660713362.048,3500,-2576,882,5.112,-1.309,-0.287,89.8,yellow,247,TRUE
804,1660713362.228,6106,2649,750,2.389,-1.413,2.23,88.8,red,247,TRUE
805,1660713362.318,794,3106,3348,5.111,-1.383,-2.433,88.8,blue,247,TRUE
806,1660713362.408,2869,-2617,2526,5.535,-0.81,-0.064,88.8,green,247,TRUE
807,1660713362.812,3502,-2599,882,5.1,-1.297,-0.274,88.8,yellow,247,TRUE
808,1660713362.993,6089,2582,750,2.727,-1.338,2.281,86.8,red,247,TRUE
809,1660713363.081,799,3098,3348,5.13,-1.388,-2.426,88.7,blue,247,TRUE
810,1660713363.184,2868,-2616,2526,5.54,-0.827,-0.072,90.7,green,247,TRUE
811,1660713364.746,6031,2553,750,1.773,-1.384,2.886,85.8,red,247,TRUE
812,1660713364.837,785,3067,3348,5.94,-1.344,-3.009,83.8,blue,247,TRUE
813,1660713364.922,2863,-2606,2526,5.545,-0.802,-0.074,89.0,green,247,TRUE
814,1660713366.482,6009,2534,750,2.052,-1.358,2.605,86.8,red,247,TRUE
815,1660713366.575,898,2978,3348,0.644,-1.439,3.091,82.8,blue,247,TRUE
816,1660713366.66,2873,-2597,2526,5.547,-0.817,-0.079,87.8,green,247,TRUE
817,1660713367.063,3517,-2658,882,5.233,-1.44,-3.127,88.8,yellow,247,TRUE
818,1660713367.243,5953,2524,750,2.869,-1.28,2.303,88.8,red,247,TRUE
819,1660713367.346,1058,2861,3348,5.227,-1.247,-2.885,91.8,blue,247,TRUE
820,1660713367.438,2865,-2578,2526,5.55,-0.815,-0.082,87.8,green,247,TRUE
821,1660713367.812,3672,-2765,882,5.186,-1.533,-0.035,73.8,yellow,247,TRUE
822,1660713367.976,5845,2573,750,3.98,-1.405,2.188,88.8,red,247,TRUE
823,1660713368.068,1256,2888,3348,4.911,-1.344,3.118,86.8,blue,247,TRUE
824,1660713368.156,2878,-2592,2526,5.551,-0.814,-0.084,73.8,green,247,TRUE
825,1660713368.529,3687,-2825,882,5.186,-1.516,-0.034,89.7,yellow,247,TRUE
826,1660713368.71,5654,2550,750,3.377,-1.322,2.452,88.7,red,247,TRUE
