,timestamp,x,y,z,yaw,roll,pitch,latency,student,session,success
0,1660716934.673,1178,-1164,750,3.898,-1.469,3.04,83.8,red,248,TRUE
1,1660716934.758,1777,-789,3348,4.182,-1.383,2.93,88.8,blue,248,TRUE
2,1660716936.377,1305,-927,750,4.847,-1.404,1.329,84.7,red,248,TRUE
3,1660716936.464,1866,-498,3348,5.31,-1.32,2.86,87.7,blue,248,TRUE
4,1660716937.031,1465,-627,750,5.083,-1.476,0.082,88.8,red,248,TRUE
5,1660716937.134,1970,-144,3348,5.528,-1.379,3.1,90.7,blue,248,TRUE
6,1660716937.689,1610,-275,750,5.156,-1.398,0.922,89.1,red,248,TRUE
7,1660716937.792,2107,253,3348,5.155,-1.367,2.674,90.8,blue,248,TRUE
8,1660716938.348,1771,98,750,4.844,-1.393,1.046,88.8,red,248,TRUE
9,1660716938.437,2279,701,3348,4.95,-1.367,2.829,89.3,blue,248,TRUE
10,1660716939.008,1920,536,750,4.914,-1.401,1.196,87.7,red,248,TRUE
11,1660716939.097,2398,1170,3348,4.812,-1.302,2.825,88.8,blue,248,TRUE
12,1660716939.216,3395,-2489,2526,5.263,-1.247,-0.127,89.7,green,248,TRUE
13,1660716939.71,2059,969,750,4.347,-1.417,1.439,88.7,red,248,TRUE
14,1660716939.813,2537,1620,3348,4.241,-1.317,2.826,90.8,blue,248,TRUE
15,1660716939.905,3436,-2487,2526,5.264,-1.23,-0.12,89.0,green,248,TRUE
16,1660716940.429,2185,1365,750,4.207,-1.409,1.941,88.7,red,248,TRUE
17,1660716940.52,2664,2038,3348,4.312,-1.4,2.613,88.3,blue,248,TRUE
18,1660716940.611,3460,-2498,2526,5.262,-1.223,-0.11,86.8,green,248,TRUE
19,1660716941.088,2328,1733,750,4.32,-1.404,1.653,88.8,red,248,TRUE
20,1660716941.19,2806,2377,3348,4.625,-1.466,3.105,90.7,blue,248,TRUE
21,1660716941.295,3472,-2507,2526,5.26,-1.209,-0.103,92.5,green,248,TRUE
22,1660716941.85,2411,2035,750,4.335,-1.41,1.641,90.8,red,248,TRUE
23,1660716941.942,2902,2652,3348,4.585,-1.394,2.559,89.2,blue,248,TRUE
24,1660716942.032,3489,-2511,2526,5.261,-1.21,-0.106,88.8,green,248,TRUE
25,1660716942.498,2495,2296,750,4.854,-1.344,1.458,86.8,red,248,TRUE
26,1660716942.586,2986,2884,3348,4.54,-1.404,2.485,88.7,blue,248,TRUE
27,1660716942.688,3490,-2506,2526,5.26,-1.205,-0.103,90.6,green,248,TRUE
28,1660716943.244,2532,2492,750,4.773,-1.37,1.091,88.9,red,248,TRUE
29,1660716943.334,3012,3073,3348,4.532,-1.418,2.514,88.8,blue,248,TRUE
30,1660716943.424,3503,-2510,2526,5.26,-1.205,-0.103,88.8,green,248,TRUE
31,1660716943.916,2582,2779,750,4.667,-1.389,0.675,90.7,red,248,TRUE
32,1660716944.008,3052,3249,3348,4.494,-1.409,2.611,88.8,blue,248,TRUE
33,1660716944.098,3513,-2513,2526,5.26,-1.205,-0.104,88.8,green,248,TRUE
34,1660716945.746,2612,2964,750,4.828,-1.395,0.953,86.8,red,248,TRUE
35,1660716945.838,3065,3365,3348,4.379,-1.391,2.761,83.8,blue,248,TRUE
36,1660716945.924,3495,-2505,2526,5.26,-1.206,-0.104,87.8,green,248,TRUE
37,1660716947.538,2584,3108,750,4.599,-1.406,0.78,88.8,red,248,TRUE
38,1660716947.634,3065,3418,3348,4.362,-1.382,2.758,82.8,blue,248,TRUE
39,1660716947.719,3472,-2498,2526,5.26,-1.206,-0.104,86.8,green,248,TRUE
40,1660716949.349,2572,3138,750,4.355,-1.418,0.974,88.8,red,248,TRUE
41,1660716949.444,3040,3448,3348,4.223,-1.413,3.036,84.7,blue,248,TRUE
42,1660716949.531,3493,-2503,2526,5.26,-1.206,-0.104,86.0,green,248,TRUE
43,1660716950.098,2553,3135,750,4.433,-1.431,0.651,88.9,red,248,TRUE
44,1660716950.187,3013,3413,3348,4.108,-1.46,3.132,88.8,blue,248,TRUE
45,1660716950.279,3549,-2523,2526,5.26,-1.206,-0.104,86.8,green,248,TRUE
46,1660716950.771,2526,3075,750,4.433,-1.425,0.651,88.7,red,248,TRUE
47,1660716950.874,2965,3282,3348,4.143,-1.456,3.119,90.8,blue,248,TRUE
48,1660716950.979,3558,-2534,2526,5.26,-1.206,-0.104,90.7,green,248,TRUE
49,1660716951.522,2522,3018,750,4.434,-1.422,0.494,86.7,red,248,TRUE
50,1660716951.609,2938,3207,3348,4.164,-1.475,3.119,88.8,blue,248,TRUE
51,1660716951.699,3522,-2532,2526,5.26,-1.205,-0.104,88.8,green,248,TRUE
52,1660716952.179,2531,3004,750,4.434,-1.415,0.446,88.3,red,248,TRUE
53,1660716952.269,2940,3159,3348,4.18,-1.464,3.118,88.5,blue,248,TRUE
54,1660716952.358,3501,-2533,2526,5.26,-1.205,-0.104,88.6,green,248,TRUE
55,1660716952.897,2523,2964,750,4.434,-1.419,0.461,88.8,red,248,TRUE
56,1660716953.0,2923,3142,3348,4.216,-1.453,3.113,91.5,blue,248,TRUE
57,1660716953.092,3492,-2536,2526,5.26,-1.204,-0.103,87.8,green,248,TRUE
58,1660716953.554,2518,2900,750,4.433,-1.417,0.454,88.8,red,248,TRUE
59,1660716953.644,2901,3145,3348,4.202,-1.442,2.817,88.8,blue,248,TRUE
60,1660716953.734,3500,-2532,2526,5.259,-1.203,-0.103,88.8,green,248,TRUE
61,1660716955.383,2509,2853,750,4.431,-1.417,0.457,86.8,red,248,TRUE
62,1660716955.476,2874,3120,3348,3.757,-1.358,2.467,83.8,blue,248,TRUE
63,1660716955.563,3496,-2546,2526,5.259,-1.203,-0.101,85.7,green,248,TRUE
64,1660716957.191,2488,2799,750,4.427,-1.42,0.475,88.8,red,248,TRUE
65,1660716957.285,2852,3042,3348,3.714,-1.354,2.428,84.8,blue,248,TRUE
66,1660716957.373,3501,-2555,2526,5.259,-1.203,-0.103,87.2,green,248,TRUE
67,1660716958.988,2457,2681,750,4.428,-1.413,0.445,88.1,red,248,TRUE
68,1660716959.082,2847,2988,3348,3.639,-1.354,2.4,84.8,blue,248,TRUE
69,1660716959.168,3504,-2562,2526,5.259,-1.202,-0.103,87.8,green,248,TRUE
70,1660716959.69,2444,2632,750,4.43,-1.417,0.459,89.1,red,248,TRUE
71,1660716959.781,2850,2996,3348,3.634,-1.36,2.375,89.3,blue,248,TRUE
72,1660716959.871,3510,-2568,2526,5.259,-1.196,-0.101,88.8,green,248,TRUE
73,1660716960.352,2436,2563,750,4.429,-1.414,0.449,86.6,red,248,TRUE
74,1660716960.439,2847,2981,3348,3.619,-1.37,2.333,88.8,blue,248,TRUE
75,1660716960.529,3517,-2578,2526,5.259,-1.194,-0.1,88.8,green,248,TRUE
76,1660716961.083,2425,2557,750,4.429,-1.409,0.435,88.9,red,248,TRUE
77,1660716961.185,2846,2966,3348,3.631,-1.366,2.345,90.8,blue,248,TRUE
78,1660716961.277,3513,-2580,2526,5.259,-1.193,-0.1,88.8,green,248,TRUE
79,1660716961.771,2414,2545,750,4.428,-1.409,0.433,88.8,red,248,TRUE
80,1660716961.861,2847,2973,3348,3.613,-1.368,2.342,88.8,blue,248,TRUE
81,1660716961.953,3517,-2592,2526,5.258,-1.192,-0.099,86.7,green,248,TRUE
82,1660716962.49,2417,2539,750,4.42,-1.417,0.467,88.8,red,248,TRUE
83,1660716962.582,2916,3049,3348,3.625,-1.362,2.316,86.7,blue,248,TRUE
84,1660716962.669,3526,-2592,2526,5.258,-1.192,-0.099,89.8,green,248,TRUE
85,1660716963.161,2409,2528,750,4.42,-1.413,0.446,90.8,red,248,TRUE
86,1660716963.266,2938,3079,3348,3.62,-1.354,2.342,90.7,blue,248,TRUE
87,1660716963.357,3534,-2591,2526,5.258,-1.193,-0.099,88.8,green,248,TRUE
88,1660716963.896,2412,2499,750,4.423,-1.404,0.409,88.5,red,248,TRUE
89,1660716963.987,2950,3106,3348,3.624,-1.348,2.352,86.8,blue,248,TRUE
90,1660716964.075,3534,-2598,2526,5.258,-1.198,-0.101,88.8,green,248,TRUE
91,1660716964.554,2393,2488,750,4.417,-1.404,0.381,88.8,red,248,TRUE
92,1660716964.657,2925,3101,3348,3.634,-1.361,2.31,90.7,blue,248,TRUE
93,1660716964.761,3552,-2591,2526,5.259,-1.198,-0.101,90.8,green,248,TRUE
94,1660716965.303,2398,2499,750,4.412,-1.409,0.388,87.8,red,248,TRUE
95,1660716965.392,2943,3088,3348,3.637,-1.361,2.313,88.8,blue,248,TRUE
96,1660716965.483,3534,-2605,2526,5.259,-1.191,-0.1,86.8,green,248,TRUE
97,1660716965.962,2391,2492,750,4.409,-1.417,0.406,87.8,red,248,TRUE
98,1660716966.05,2939,3098,3348,3.631,-1.361,2.323,88.8,blue,248,TRUE
99,1660716966.153,3545,-2603,2526,5.26,-1.189,-0.101,90.7,green,248,TRUE
100,1660716966.709,2391,2490,750,4.415,-1.416,0.415,89.8,red,248,TRUE
101,1660716966.812,2935,3088,3348,3.654,-1.369,2.281,90.8,blue,248,TRUE
102,1660716966.903,3536,-2600,2526,5.26,-1.19,-0.101,88.8,green,248,TRUE
103,1660716967.382,2394,2500,750,4.409,-1.415,0.411,88.8,red,248,TRUE
104,1660716967.472,2897,3069,3348,3.747,-1.357,2.307,88.8,blue,248,TRUE
105,1660716967.565,3538,-2601,2526,5.26,-1.19,-0.101,86.0,green,248,TRUE
106,1660716968.086,2393,2488,750,4.411,-1.417,0.42,88.8,red,248,TRUE
107,1660716968.189,2882,3035,3348,3.648,-1.361,2.322,92.0,blue,248,TRUE
108,1660716968.294,3540,-2599,2526,5.26,-1.19,-0.101,91.7,green,248,TRUE
109,1660716968.787,2403,2474,750,4.408,-1.415,0.411,90.7,red,248,TRUE
110,1660716968.879,2833,2993,3348,3.648,-1.367,2.244,88.8,blue,248,TRUE
111,1660716968.969,3536,-2595,2526,5.261,-1.187,-0.101,88.8,green,248,TRUE
112,1660716969.508,2415,2478,750,4.408,-1.415,0.405,88.8,red,248,TRUE
113,1660716969.601,2817,2964,3348,3.652,-1.358,2.292,85.8,blue,248,TRUE
114,1660716969.688,3534,-2594,2526,5.261,-1.185,-0.101,88.8,green,248,TRUE
115,1660716970.182,2424,2481,750,4.395,-1.418,0.374,88.8,red,248,TRUE
116,1660716970.285,2800,2931,3348,3.559,-1.367,2.772,90.7,blue,248,TRUE
117,1660716970.387,3543,-2586,2526,5.261,-1.184,-0.101,93.8,green,248,TRUE
118,1660716970.93,2427,2482,750,4.41,-1.415,0.346,89.8,red,248,TRUE
119,1660716971.021,2756,2899,3348,3.783,-1.345,2.772,87.8,blue,248,TRUE
120,1660716971.111,3541,-2588,2526,5.262,-1.184,-0.103,87.8,green,248,TRUE
121,1660716971.589,2440,2489,750,4.409,-1.412,0.34,88.8,red,248,TRUE
122,1660716971.692,2715,2898,3348,3.848,-1.364,2.654,90.8,blue,248,TRUE
123,1660716971.796,3532,-2590,2526,5.262,-1.185,-0.103,90.5,green,248,TRUE
124,1660716972.337,2448,2494,750,4.408,-1.41,0.339,89.8,red,248,TRUE
125,1660716972.427,2665,2902,3348,3.862,-1.381,2.639,87.8,blue,248,TRUE
126,1660716972.516,3542,-2583,2526,5.262,-1.185,-0.103,88.7,green,248,TRUE
127,1660716973.025,2473,2497,750,4.408,-1.412,0.34,88.8,red,248,TRUE
128,1660716973.115,2670,2919,3348,3.883,-1.379,2.618,88.8,blue,248,TRUE
129,1660716973.206,3537,-2588,2526,5.261,-1.181,-0.101,87.8,green,248,TRUE
130,1660716973.758,2491,2489,750,4.408,-1.413,0.347,88.8,red,248,TRUE
131,1660716973.861,2656,2947,3348,3.891,-1.371,2.573,91.7,blue,248,TRUE
132,1660716973.953,3557,-2578,2526,5.261,-1.18,-0.1,88.7,green,248,TRUE
133,1660716974.462,2501,2526,750,4.491,-1.393,0.597,87.8,red,248,TRUE
134,1660716974.551,2652,2961,3348,3.905,-1.374,2.514,88.8,blue,248,TRUE
135,1660716974.644,3537,-2589,2526,5.261,-1.18,-0.099,85.8,green,248,TRUE
136,1660716975.21,2506,2548,750,4.587,-1.355,0.779,88.0,red,248,TRUE
137,1660716975.3,2669,3001,3348,3.884,-1.38,2.47,88.7,blue,248,TRUE
138,1660716975.402,3543,-2583,2526,5.26,-1.179,-0.099,91.1,green,248,TRUE
139,1660716975.896,2521,2597,750,4.997,-1.302,0.833,91.7,red,248,TRUE
140,1660716975.989,2701,3046,3348,3.724,-1.377,2.63,87.9,blue,248,TRUE
141,1660716976.078,3548,-2580,2526,5.26,-1.177,-0.098,89.0,green,248,TRUE
142,1660716976.633,2548,2631,750,4.925,-1.37,0.803,87.1,red,248,TRUE
143,1660716976.723,2703,3075,3348,3.725,-1.372,2.686,86.8,blue,248,TRUE
144,1660716976.811,3527,-2585,2526,5.26,-1.176,-0.097,88.8,green,248,TRUE
145,1660716977.29,2565,2656,750,4.661,-1.397,0.648,88.8,red,248,TRUE
146,1660716977.393,2742,3120,3348,4.048,-1.373,2.547,90.8,blue,248,TRUE
147,1660716977.485,3506,-2598,2526,5.26,-1.177,-0.097,88.8,green,248,TRUE
148,1660716978.022,2575,2679,750,4.697,-1.401,0.776,90.7,red,248,TRUE
149,1660716978.114,2750,3149,3348,4.495,-1.381,2.751,88.8,blue,248,TRUE
150,1660716978.204,3495,-2603,2526,5.26,-1.176,-0.097,88.7,green,248,TRUE
151,1660716978.699,2616,2712,750,5.186,-1.432,0.94,86.8,red,248,TRUE
152,1660716978.787,2797,3213,3348,4.909,-1.432,2.903,88.7,blue,248,TRUE
153,1660716978.89,3487,-2610,2526,5.26,-1.174,-0.096,90.7,green,248,TRUE
154,1660716979.446,2645,2763,750,5.561,-1.353,0.982,89.3,red,248,TRUE
155,1660716979.536,2854,3326,3348,5.229,-1.424,2.951,88.8,blue,248,TRUE
156,1660716979.628,3477,-2612,2526,5.26,-1.175,-0.096,86.8,green,248,TRUE
157,1660716980.119,2681,2841,750,5.222,-1.358,1.293,88.8,red,248,TRUE
158,1660716980.208,2909,3431,3348,4.972,-1.419,2.45,89.7,blue,248,TRUE
159,1660716980.3,3471,-2627,2526,5.259,-1.178,-0.096,87.8,green,248,TRUE
160,1660716980.823,2717,2972,750,5.167,-1.344,0.897,88.8,red,248,TRUE
161,1660716980.925,2980,3521,3348,4.567,-1.389,-3.048,90.8,blue,248,TRUE
162,1660716981.03,3445,-2640,2526,5.259,-1.179,-0.097,90.8,green,248,TRUE
163,1660716981.512,2759,3081,750,5.621,-1.364,0.617,87.7,red,248,TRUE
164,1660716981.6,2990,3629,3348,5.092,-1.422,2.825,88.8,blue,248,TRUE
165,1660716981.69,3416,-2658,2526,5.259,-1.179,-0.096,88.8,green,248,TRUE
166,1660716982.244,2790,3210,750,6.006,-1.323,0.913,88.8,red,248,TRUE
167,1660716982.335,3007,3734,3348,5.159,-1.46,3.065,88.0,blue,248,TRUE
168,1660716982.423,3413,-2661,2526,5.258,-1.181,-0.095,88.7,green,248,TRUE
169,1660716982.887,2834,3306,750,5.933,-1.335,0.941,88.8,red,248,TRUE
170,1660716982.99,3047,3838,3348,4.933,-1.436,-3.125,90.7,blue,248,TRUE
171,1660716983.095,3406,-2662,2526,5.257,-1.187,-0.096,90.7,green,248,TRUE
172,1660716983.637,2873,3410,750,5.898,-1.347,0.942,86.8,red,248,TRUE
173,1660716983.725,3068,3982,3348,4.938,-1.4,2.698,88.8,blue,248,TRUE
174,1660716983.816,3387,-2681,2526,5.257,-1.187,-0.096,87.8,green,248,TRUE
175,1660716984.31,2934,3492,750,5.802,-1.365,0.85,87.8,red,248,TRUE
176,1660716984.398,3082,4144,3348,4.88,-1.41,2.709,88.9,blue,248,TRUE
177,1660716984.488,3353,-2700,2526,5.257,-1.187,-0.096,88.8,green,248,TRUE
178,1660716985.026,2943,3610,750,5.354,-1.388,1.169,89.0,red,248,TRUE
179,1660716985.129,3058,4348,3348,4.961,-1.398,2.902,90.7,blue,248,TRUE
180,1660716985.221,3354,-2706,2526,5.257,-1.188,-0.097,88.8,green,248,TRUE
181,1660716985.715,2925,3774,750,4.752,-1.383,0.845,88.8,red,248,TRUE
182,1660716985.805,3037,4635,3348,5.055,-1.414,2.531,88.8,blue,248,TRUE
183,1660716985.896,3383,-2698,2526,5.257,-1.185,-0.097,87.8,green,248,TRUE
184,1660716986.433,2929,3954,750,5.295,-1.421,0.528,88.6,red,248,TRUE
185,1660716986.523,3021,4890,3348,5.226,-1.398,2.905,88.8,blue,248,TRUE
186,1660716986.615,3383,-2705,2526,5.257,-1.182,-0.096,86.7,green,248,TRUE
187,1660716987.104,2901,4162,750,5.216,-1.402,0.937,90.7,red,248,TRUE
188,1660716987.196,2965,5097,3348,5.175,-1.407,2.643,73.8,blue,248,TRUE
189,1660716987.271,3387,-2697,2526,5.257,-1.18,-0.096,88.8,green,248,TRUE
190,1660716987.809,2900,4393,750,5.738,-1.386,1.025,88.8,red,248,TRUE
191,1660716987.901,2886,5316,3348,4.105,-1.328,-3.136,86.8,blue,248,TRUE
192,1660716987.989,3384,-2703,2526,5.257,-1.178,-0.095,88.8,green,248,TRUE
193,1660716988.467,2898,4599,750,0.013,-1.336,1.214,88.8,red,248,TRUE
194,1660716988.557,2888,5506,3348,3.366,-1.331,2.971,88.8,blue,248,TRUE
195,1660716988.648,3383,-2705,2526,5.257,-1.177,-0.095,87.8,green,248,TRUE
196,1660716989.198,2903,4698,750,0.669,-1.331,1.168,90.9,red,248,TRUE
197,1660716989.29,2895,5679,3348,3.253,-1.334,2.681,88.9,blue,248,TRUE
198,1660716989.38,3389,-2706,2526,5.257,-1.18,-0.096,88.8,green,248,TRUE
199,1660716989.846,2874,4801,750,1.265,-1.413,0.944,86.8,red,248,TRUE
200,1660716989.934,2932,5824,3348,2.923,-1.306,2.914,88.8,blue,248,TRUE
201,1660716990.036,3398,-2705,2526,5.257,-1.179,-0.096,90.8,green,248,TRUE
202,1660716990.593,2874,4852,750,1.566,-1.335,0.855,87.7,red,248,TRUE
203,1660716990.682,2946,5950,3348,2.676,-1.333,3.066,88.8,blue,248,TRUE
204,1660716990.771,3380,-2718,2526,5.257,-1.176,-0.096,88.8,green,248,TRUE
205,1660716991.265,2881,4901,750,1.384,-1.346,1.059,88.5,red,248,TRUE
206,1660716991.354,2939,6082,3348,2.606,-1.337,3.13,89.7,blue,248,TRUE
207,1660716991.447,3392,-2708,2526,5.257,-1.176,-0.096,86.7,green,248,TRUE
208,1660716991.971,2888,4939,750,1.175,-1.412,1.122,86.7,red,248,TRUE
209,1660716992.058,2949,6200,3348,2.605,-1.352,3.05,88.8,blue,248,TRUE
210,1660716992.161,3383,-2711,2526,5.258,-1.178,-0.097,91.4,green,248,TRUE
211,1660716992.657,2860,4924,750,1.726,-1.469,0.083,88.8,red,248,TRUE
212,1660716992.76,2976,6251,3348,2.412,-1.27,-3.095,91.1,blue,248,TRUE
213,1660716992.852,3389,-2706,2526,5.258,-1.179,-0.098,88.8,green,248,TRUE
214,1660716993.376,2889,4817,750,1.814,-1.329,0.89,88.8,red,248,TRUE
215,1660716993.468,3058,6239,3348,2.51,-1.333,2.848,86.8,blue,248,TRUE
216,1660716993.555,3380,-2709,2526,5.258,-1.178,-0.097,88.8,green,248,TRUE
217,1660716994.034,2956,4631,750,1.794,-1.374,0.53,88.6,red,248,TRUE
218,1660716994.137,3138,6110,3348,2.541,-1.346,2.909,92.2,blue,248,TRUE
219,1660716994.243,3363,-2717,2526,5.258,-1.182,-0.099,90.7,green,248,TRUE
220,1660716994.784,3016,4370,750,1.678,-1.347,0.512,88.6,red,248,TRUE
221,1660716994.873,3228,5959,3348,2.65,-1.385,2.856,88.7,blue,248,TRUE
222,1660716994.962,3362,-2715,2526,5.258,-1.185,-0.1,90.8,green,248,TRUE
223,1660716995.444,3102,4039,750,1.407,-1.419,1.82,86.8,red,248,TRUE
224,1660716995.532,3353,5809,3348,2.294,-1.345,3.006,88.8,blue,248,TRUE
225,1660716995.621,3343,-2727,2526,5.259,-1.185,-0.101,88.8,green,248,TRUE
226,1660716996.175,3150,3656,750,0.578,-1.39,2.317,88.8,red,248,TRUE
227,1660716996.278,3531,5545,3348,2.298,-1.361,2.879,90.8,blue,248,TRUE
228,1660716996.369,3347,-2729,2526,5.259,-1.186,-0.101,88.8,green,248,TRUE
229,1660716996.863,3250,3298,750,0.809,-1.156,1.78,89.4,red,248,TRUE
230,1660716996.954,3651,5257,3348,2.429,-1.357,2.87,88.8,blue,248,TRUE
231,1660716997.046,3339,-2723,2526,5.259,-1.189,-0.103,86.8,green,248,TRUE
232,1660716998.706,3383,2931,750,0.149,-1.263,1.522,86.8,red,248,TRUE
233,1660716998.8,3742,4959,3348,2.678,-1.383,2.67,83.8,blue,248,TRUE
234,1660716998.885,3346,-2722,2526,5.258,-1.188,-0.1,87.2,green,248,TRUE
235,1660717000.53,3612,2664,750,5.205,-1.362,2.514,88.6,red,248,TRUE
236,1660717000.626,3858,4635,3348,2.309,-1.41,3.001,82.8,blue,248,TRUE
237,1660717000.713,3347,-2717,2526,5.26,-1.191,-0.104,85.9,green,248,TRUE
238,1660717002.326,3822,2417,750,5.325,-1.283,2.629,88.7,red,248,TRUE
239,1660717002.42,3964,4323,3348,2.113,-1.398,-3.114,84.7,blue,248,TRUE
240,1660717002.506,3339,-2721,2526,5.26,-1.188,-0.099,87.8,green,248,TRUE
241,1660717003.045,4013,2174,750,5.345,-1.263,2.637,88.8,red,248,TRUE
242,1660717003.135,4042,4030,3348,2.104,-1.402,-3.085,88.8,blue,248,TRUE
243,1660717003.225,3343,-2728,2526,5.261,-1.186,-0.099,87.5,green,248,TRUE
244,1660717003.689,4216,1954,750,5.345,-1.298,2.58,87.8,red,248,TRUE
245,1660717003.791,4119,3730,3348,2.122,-1.405,-3.098,90.8,blue,248,TRUE
246,1660717003.896,3347,-2731,2526,5.261,-1.185,-0.099,90.8,green,248,TRUE
247,1660717004.449,4410,1775,750,5.357,-1.302,2.583,90.8,red,248,TRUE
248,1660717004.541,4189,3465,3348,2.167,-1.419,-3.094,89.1,blue,248,TRUE
249,1660717004.631,3352,-2737,2526,5.262,-1.188,-0.101,89.2,green,248,TRUE
250,1660717005.098,4604,1670,750,5.419,-1.343,2.488,86.8,red,248,TRUE
251,1660717005.185,4243,3240,3348,2.202,-1.417,-3.12,88.8,blue,248,TRUE
252,1660717005.288,3357,-2739,2526,5.263,-1.19,-0.105,90.7,green,248,TRUE
253,1660717005.844,4775,1629,750,5.441,-1.352,2.364,88.7,red,248,TRUE
254,1660717005.947,4281,3058,3348,2.217,-1.409,3.117,90.8,blue,248,TRUE
255,1660717006.039,3343,-2742,2526,5.264,-1.192,-0.106,89.2,green,248,TRUE
256,1660717006.518,4954,1665,750,5.426,-1.343,2.394,88.9,red,248,TRUE
257,1660717006.608,4300,2882,3348,2.248,-1.42,3.113,88.8,blue,248,TRUE
258,1660717006.7,3342,-2747,2526,5.264,-1.191,-0.106,86.8,green,248,TRUE
259,1660717007.223,5210,1700,750,5.417,-1.367,2.291,86.8,red,248,TRUE
260,1660717007.311,4302,2769,3348,2.259,-1.406,3.124,88.8,blue,248,TRUE
261,1660717007.414,3347,-2748,2526,5.265,-1.192,-0.101,91.2,green,248,TRUE
262,1660717007.881,5408,1791,750,5.409,-1.361,2.339,89.0,red,248,TRUE
263,1660717007.983,4281,2700,3348,2.221,-1.415,-3.114,90.7,blue,248,TRUE
264,1660717008.075,3338,-2750,2526,5.267,-1.191,-0.099,88.8,green,248,TRUE
265,1660717008.599,5502,1785,750,5.393,-1.382,2.244,88.8,red,248,TRUE
266,1660717008.69,4235,2652,3348,2.241,-1.415,-3.132,86.8,blue,248,TRUE
267,1660717008.78,3349,-2752,2526,5.265,-1.188,-0.097,86.8,green,248,TRUE
268,1660717009.257,5572,1845,750,5.408,-1.38,2.226,88.8,red,248,TRUE
269,1660717009.36,4228,2658,3348,2.328,-1.418,3.055,90.7,blue,248,TRUE
270,1660717009.465,3363,-2740,2526,5.267,-1.184,-0.094,91.2,green,248,TRUE
271,1660717010.021,5583,1844,750,5.419,-1.377,2.223,88.8,red,248,TRUE
272,1660717010.11,4197,2695,3348,2.369,-1.406,2.989,88.8,blue,248,TRUE
273,1660717010.2,3360,-2741,2526,5.267,-1.185,-0.094,88.8,green,248,TRUE
274,1660717010.681,5583,1834,750,5.405,-1.376,2.244,87.1,red,248,TRUE
275,1660717010.77,4174,2719,3348,2.413,-1.402,2.958,87.8,blue,248,TRUE
276,1660717010.872,3362,-2742,2526,5.267,-1.184,-0.093,90.4,green,248,TRUE
277,1660717012.564,5587,1818,750,5.389,-1.349,2.417,88.8,red,248,TRUE
278,1660717012.659,4181,2714,3348,2.234,-1.372,3.038,83.8,blue,248,TRUE
279,1660717012.746,3360,-2738,2526,5.268,-1.19,-0.096,86.7,green,248,TRUE
280,1660717014.377,5581,1812,750,5.335,-1.379,2.337,86.8,red,248,TRUE
281,1660717014.47,4189,2724,3348,2.243,-1.382,3.04,83.8,blue,248,TRUE
282,1660717014.556,3361,-2732,2526,5.27,-1.184,-0.094,87.8,green,248,TRUE
283,1660717016.171,5594,1802,750,5.353,-1.364,2.371,88.8,red,248,TRUE
284,1660717016.265,4197,2741,3348,2.263,-1.383,3.026,83.8,blue,248,TRUE
285,1660717016.35,3365,-2724,2526,5.27,-1.191,-0.096,88.8,green,248,TRUE
286,1660717016.876,5594,1791,750,5.352,-1.381,2.267,86.6,red,248,TRUE
287,1660717016.964,4204,2726,3348,2.273,-1.381,3.022,88.8,blue,248,TRUE
288,1660717017.067,3398,-2709,2526,5.271,-1.185,-0.093,90.7,green,248,TRUE
289,1660717017.562,5601,1777,750,5.382,-1.39,2.123,88.8,red,248,TRUE
290,1660717017.651,4214,2725,3348,2.244,-1.38,3.049,90.7,blue,248,TRUE
291,1660717017.744,3413,-2708,2526,5.271,-1.185,-0.092,86.8,green,248,TRUE
292,1660717018.296,5579,1731,750,5.391,-1.374,2.183,88.7,red,248,TRUE
293,1660717018.385,4229,2752,3348,2.273,-1.382,3.027,88.7,blue,248,TRUE
294,1660717018.477,3420,-2703,2526,5.27,-1.188,-0.092,86.8,green,248,TRUE
295,1660717018.939,5481,1724,750,5.36,-1.392,2.157,88.8,red,248,TRUE
296,1660717019.041,4228,2735,3348,2.292,-1.381,3.009,90.8,blue,248,TRUE
297,1660717019.146,3425,-2701,2526,5.27,-1.188,-0.092,91.8,green,248,TRUE
298,1660717019.688,5449,1673,750,5.38,-1.394,2.166,87.8,red,248,TRUE
299,1660717019.777,4237,2739,3348,2.298,-1.382,3.002,88.7,blue,248,TRUE
300,1660717019.867,3437,-2696,2526,5.27,-1.188,-0.091,88.8,green,248,TRUE
301,1660717020.347,5460,1689,750,5.379,-1.392,2.194,86.8,red,248,TRUE
302,1660717020.435,4271,2744,3348,2.296,-1.392,2.992,89.7,blue,248,TRUE
303,1660717020.525,3434,-2698,2526,5.27,-1.186,-0.091,88.8,green,248,TRUE
304,1660717021.064,5471,1646,750,5.377,-1.368,2.29,88.8,red,248,TRUE
305,1660717021.167,4267,2739,3348,2.327,-1.39,2.974,90.8,blue,248,TRUE
306,1660717021.272,3416,-2711,2526,5.27,-1.184,-0.088,90.8,green,248,TRUE
307,1660717021.767,5460,1627,750,5.383,-1.379,2.191,88.6,red,248,TRUE
308,1660717021.857,4265,2737,3348,2.334,-1.389,2.968,88.8,blue,248,TRUE
309,1660717021.947,3419,-2710,2526,5.27,-1.184,-0.088,88.8,green,248,TRUE
310,1660717022.487,5455,1636,750,5.379,-1.38,2.183,87.8,red,248,TRUE
311,1660717022.576,4271,2753,3348,2.329,-1.386,2.973,88.8,blue,248,TRUE
312,1660717022.666,3437,-2698,2526,5.271,-1.179,-0.091,88.8,green,248,TRUE
313,1660717023.145,5456,1649,750,5.378,-1.383,2.159,88.6,red,248,TRUE
314,1660717023.247,4272,2777,3348,2.34,-1.392,2.958,90.7,blue,248,TRUE
315,1660717023.339,3446,-2693,2526,5.271,-1.176,-0.089,88.8,green,248,TRUE
316,1660717023.893,5462,1641,750,5.378,-1.385,2.154,88.7,red,248,TRUE
317,1660717023.982,4276,2792,3348,2.34,-1.393,2.956,88.8,blue,248,TRUE
318,1660717024.073,3418,-2698,2526,5.271,-1.178,-0.089,87.8,green,248,TRUE
319,1660717024.551,5452,1644,750,5.376,-1.385,2.153,88.6,red,248,TRUE
320,1660717024.639,4297,2832,3348,2.354,-1.396,2.94,89.8,blue,248,TRUE
321,1660717024.731,3392,-2704,2526,5.271,-1.178,-0.089,87.8,green,248,TRUE
322,1660717025.268,5447,1649,750,5.372,-1.392,2.122,88.8,red,248,TRUE
323,1660717025.358,4294,2849,3348,2.355,-1.398,2.935,88.7,blue,248,TRUE
324,1660717025.447,3356,-2714,2526,5.271,-1.178,-0.089,90.7,green,248,TRUE
325,1660717025.927,5452,1641,750,5.395,-1.393,2.113,88.8,red,248,TRUE
326,1660717026.017,4288,2852,3348,2.323,-1.406,2.954,88.8,blue,248,TRUE
327,1660717026.107,3358,-2701,2526,5.271,-1.179,-0.091,87.7,green,248,TRUE
328,1660717026.645,5455,1655,750,5.301,-1.404,2.232,88.8,red,248,TRUE
329,1660717026.737,4283,2844,3348,2.334,-1.402,2.95,86.8,blue,248,TRUE
330,1660717026.824,3371,-2687,2526,5.271,-1.18,-0.091,89.1,green,248,TRUE
331,1660717027.316,5447,1646,750,5.335,-1.382,2.358,90.8,red,248,TRUE
332,1660717027.408,4305,2852,3348,2.128,-1.394,3.036,88.8,blue,248,TRUE
333,1660717027.498,3376,-2676,2526,5.271,-1.177,-0.089,88.8,green,248,TRUE
334,1660717028.022,5453,1641,750,5.281,-1.388,2.397,88.6,red,248,TRUE
335,1660717028.113,4338,2841,3348,2.169,-1.401,2.966,86.8,blue,248,TRUE
336,1660717028.201,3364,-2680,2526,5.271,-1.177,-0.089,88.8,green,248,TRUE
337,1660717028.683,5456,1627,750,5.286,-1.373,2.388,88.4,red,248,TRUE
338,1660717028.771,4315,2850,3348,2.313,-1.385,3.007,88.7,blue,248,TRUE
339,1660717028.874,3380,-2665,2526,5.273,-1.177,-0.088,90.8,green,248,TRUE
340,1660717029.412,5443,1676,750,5.335,-1.355,2.4,90.7,red,248,TRUE
341,1660717029.504,4310,2859,3348,2.26,-1.386,3.046,88.8,blue,248,TRUE
342,1660717029.594,3382,-2648,2526,5.312,-1.167,-0.016,88.8,green,248,TRUE
343,1660717030.059,5447,1686,750,5.317,-1.357,2.39,87.8,red,248,TRUE
344,1660717030.147,4313,2856,3348,2.278,-1.4,3.021,88.8,blue,248,TRUE
345,1660717030.25,3388,-2640,2526,5.368,-1.249,0.06,90.4,green,248,TRUE
346,1660717030.806,5444,1699,750,5.318,-1.365,2.363,88.8,red,248,TRUE
347,1660717030.908,4272,2833,3348,2.537,-1.407,2.85,90.8,blue,248,TRUE
348,1660717031.0,3362,-2629,2526,5.216,-1.333,0.11,88.8,green,248,TRUE
349,1660717031.479,5446,1702,750,5.315,-1.372,2.341,88.7,red,248,TRUE
350,1660717031.569,4263,2824,3348,2.434,-1.42,2.967,88.8,blue,248,TRUE
351,1660717031.66,3364,-2617,2526,5.236,-1.341,0.471,86.8,green,248,TRUE
352,1660717032.183,5438,1719,750,5.333,-1.398,2.225,87.8,red,248,TRUE
353,1660717032.272,4253,2809,3348,2.285,-1.427,3.06,89.4,blue,248,TRUE
354,1660717032.375,3402,-2598,2526,5.324,-1.281,0.728,91.7,green,248,TRUE
355,1660717032.856,5444,1708,750,5.363,-1.398,2.122,88.8,red,248,TRUE
356,1660717032.959,4225,2759,3348,2.179,-1.416,3.052,90.6,blue,248,TRUE
357,1660717033.05,3431,-2578,2526,5.367,-1.288,0.736,88.8,green,248,TRUE
358,1660717034.726,5445,1710,750,5.369,-1.385,2.244,88.8,red,248,TRUE
359,1660717034.823,4232,2762,3348,2.173,-1.389,2.954,95.8,blue,248,TRUE
360,1660717034.921,3433,-2529,2526,3.958,-0.683,-2.628,102.7,green,248,TRUE
361,1660717036.567,5436,1700,750,5.345,-1.388,2.236,88.6,red,248,TRUE
362,1660717036.661,4240,2753,3348,2.261,-1.38,2.929,84.4,blue,248,TRUE
363,1660717036.752,3453,-2530,2526,5.317,-1.453,-0.007,83.8,green,248,TRUE
364,1660717038.378,5449,1685,750,5.352,-1.379,2.241,88.8,red,248,TRUE
365,1660717038.473,4245,2774,3348,2.395,-1.379,2.92,82.8,blue,248,TRUE
366,1660717038.558,3467,-2537,2526,5.251,-1.368,-0.206,87.8,green,248,TRUE
367,1660717039.082,5450,1695,750,5.345,-1.381,2.212,87.8,red,248,TRUE
368,1660717039.171,4228,2786,3348,2.437,-1.364,2.896,88.8,blue,248,TRUE
369,1660717039.263,3481,-2535,2526,5.283,-1.263,-0.089,86.7,green,248,TRUE
370,1660717039.758,5454,1701,750,5.355,-1.381,2.227,85.8,red,248,TRUE
371,1660717039.845,4205,2760,3348,2.426,-1.359,2.851,88.8,blue,248,TRUE
372,1660717039.947,3528,-2523,2526,5.286,-1.205,-0.056,90.7,green,248,TRUE
373,1660717040.487,5459,1716,750,5.352,-1.382,2.217,89.8,red,248,TRUE
374,1660717040.577,4224,2774,3348,2.409,-1.359,2.806,88.7,blue,248,TRUE
375,1660717040.667,3519,-2531,2526,5.291,-1.187,-0.008,88.8,green,248,TRUE
376,1660717041.161,5460,1715,750,5.347,-1.385,2.193,88.8,red,248,TRUE
377,1660717041.25,4239,2762,3348,2.452,-1.355,2.741,88.7,blue,248,TRUE
378,1660717041.341,3539,-2532,2526,5.276,-1.114,-0.028,87.8,green,248,TRUE
379,1660717041.864,5466,1669,750,5.339,-1.388,2.191,89.0,red,248,TRUE
380,1660717041.967,4259,2752,3348,2.211,-1.392,2.765,90.8,blue,248,TRUE
381,1660717042.071,3547,-2532,2526,5.286,-1.114,-0.028,90.5,green,248,TRUE
382,1660717042.552,5467,1657,750,5.321,-1.383,2.263,89.7,red,248,TRUE
383,1660717042.641,4278,2734,3348,2.799,-1.35,2.863,88.8,blue,248,TRUE
384,1660717042.731,3576,-2542,2526,5.3,-1.112,0.001,88.8,green,248,TRUE
385,1660717043.284,5468,1657,750,5.316,-1.382,2.277,88.7,red,248,TRUE
386,1660717043.375,4277,2749,3348,4.504,-1.341,3.007,87.8,blue,248,TRUE
387,1660717043.464,3586,-2550,2526,5.332,-1.143,0.046,88.7,green,248,TRUE
388,1660717043.987,5478,1645,750,5.309,-1.383,2.285,88.8,red,248,TRUE
389,1660717044.09,4293,2790,3348,0.436,-1.293,2.897,90.7,blue,248,TRUE
390,1660717046.821,5458,1663,750,5.355,-1.391,2.063,83.2,red,248,TRUE
391,1660717046.908,4335,2812,3348,0.441,-1.316,-3.014,85.8,blue,248,TRUE
392,1660717046.995,3593,-2560,2526,5.073,-1.314,0.021,88.8,green,248,TRUE
393,1660717048.601,5446,1671,750,5.508,-1.396,1.645,83.8,red,248,TRUE
394,1660717048.687,4334,2844,3348,5.297,-1.349,-2.91,87.8,blue,248,TRUE
395,1660717048.777,3605,-2596,2526,5.073,-1.309,-0.045,87.7,green,248,TRUE
396,1660717051.414,5450,1687,750,5.349,-1.337,2.039,83.8,red,248,TRUE
397,1660717051.507,4363,2857,3348,1.489,-1.365,2.904,96.7,blue,248,TRUE
398,1660717051.606,3568,-2591,2526,5.073,-1.304,-0.035,86.8,green,248,TRUE
399,1660717053.25,5456,1659,750,5.271,-1.36,0.95,88.8,red,248,TRUE
400,1660717053.344,4370,2827,3348,2.184,-1.349,2.956,84.9,blue,248,TRUE
401,1660717053.431,3526,-2583,2526,5.072,-1.297,-0.033,87.8,green,248,TRUE
402,1660717055.06,5469,1642,750,5.363,-1.34,1.209,88.7,red,248,TRUE
403,1660717055.156,4389,2807,3348,1.824,-1.329,2.94,82.8,blue,248,TRUE
404,1660717055.241,3501,-2583,2526,5.072,-1.292,-0.027,88.1,green,248,TRUE
405,1660717055.812,5469,1642,750,5.389,-1.357,1.54,86.1,red,248,TRUE
406,1660717055.899,4421,2822,3348,1.179,-1.316,-3.018,88.7,blue,248,TRUE
407,1660717055.988,3459,-2579,2526,5.071,-1.29,-0.023,88.8,green,248,TRUE
408,1660717056.468,5467,1631,750,5.383,-1.354,1.733,88.3,red,248,TRUE
409,1660717056.557,4491,2831,3348,0.876,-1.334,-3.125,88.8,blue,248,TRUE
410,1660717056.647,3437,-2569,2526,5.071,-1.289,-0.023,88.8,green,248,TRUE
411,1660717057.186,5465,1630,750,5.344,-1.349,1.861,89.2,red,248,TRUE
412,1660717057.289,4595,2839,3348,1.137,-1.346,-3.011,90.8,blue,248,TRUE
413,1660717057.394,3439,-2572,2526,5.087,-1.286,0.029,90.7,green,248,TRUE
414,1660717057.875,5450,1664,750,5.33,-1.35,1.754,88.8,red,248,TRUE
415,1660717057.965,4693,2818,3348,1.678,-1.413,-3.027,88.5,blue,248,TRUE
416,1660717058.055,3442,-2572,2526,5.03,-1.313,0.743,103.7,green,248,TRUE
417,1660717058.625,5453,1656,750,5.313,-1.354,1.69,86.8,red,248,TRUE
418,1660717058.713,4843,2830,3348,1.82,-1.36,2.901,88.8,blue,248,TRUE
419,1660717060.359,5452,1646,750,5.334,-1.352,1.678,89.8,red,248,TRUE
420,1660717060.449,4964,2789,3348,1.869,-1.325,2.982,87.8,blue,248,TRUE
421,1660717060.538,3439,-2573,2526,5.193,-1.141,0.227,88.7,green,248,TRUE
422,1660717061.017,5449,1646,750,5.337,-1.344,1.725,88.5,red,248,TRUE
423,1660717061.107,5082,2729,3348,1.871,-1.338,2.969,88.8,blue,248,TRUE
424,1660717061.197,3419,-2572,2526,5.021,-1.269,-0.038,87.6,green,248,TRUE
425,1660717061.735,5468,1630,750,5.345,-1.341,1.65,89.4,red,248,TRUE
426,1660717061.826,5160,2665,3348,1.887,-1.345,2.951,87.8,blue,248,TRUE
427,1660717061.915,3432,-2567,2526,5.03,-1.232,-0.016,88.8,green,248,TRUE
428,1660717062.406,5482,1617,750,5.33,-1.346,1.732,91.3,red,248,TRUE
429,1660717062.499,5261,2604,3348,1.883,-1.344,2.954,88.8,blue,248,TRUE
430,1660717062.589,3485,-2570,2526,5.028,-1.225,-0.019,88.8,green,248,TRUE
431,1660717063.112,5478,1609,750,5.443,-1.379,1.886,88.8,red,248,TRUE
432,1660717063.204,5335,2571,3348,1.869,-1.343,2.966,86.8,blue,248,TRUE
433,1660717063.292,3527,-2571,2526,5.028,-1.217,-0.021,88.8,green,248,TRUE
434,1660717063.772,5468,1633,750,5.503,-1.413,1.716,86.8,red,248,TRUE
435,1660717063.86,5463,2596,3348,1.469,-1.254,-2.943,88.8,blue,248,TRUE
436,1660717063.963,3585,-2572,2526,5.029,-1.21,-0.016,90.8,green,248,TRUE
437,1660717064.502,5467,1644,750,5.332,-1.341,2.842,90.7,red,248,TRUE
438,1660717064.593,5619,2661,3348,0.284,-1.28,-2.917,88.8,blue,248,TRUE
439,1660717064.683,3645,-2574,2526,5.029,-1.202,-0.014,88.8,green,248,TRUE
440,1660717065.148,5483,1630,750,5.319,-1.359,2.762,87.8,red,248,TRUE
441,1660717065.237,5714,2765,3348,0.179,-1.298,2.813,88.9,blue,248,TRUE
442,1660717065.34,3697,-2577,2526,5.03,-1.201,-0.014,91.0,green,248,TRUE
443,1660717065.911,5496,1650,750,5.332,-1.379,2.676,89.2,red,248,TRUE
444,1660717066.014,5860,2853,3348,0.504,-1.386,2.942,90.8,blue,248,TRUE
445,1660717066.106,3740,-2576,2526,5.03,-1.198,-0.011,88.8,green,248,TRUE
446,1660717066.614,5499,1606,750,5.497,-1.365,2.476,88.8,red,248,TRUE
447,1660717066.704,5916,2947,3348,0.995,-1.297,2.981,88.8,blue,248,TRUE
448,1660717066.796,3800,-2581,2526,5.031,-1.192,-0.011,86.8,green,248,TRUE
449,1660717067.348,5499,1590,750,5.462,-1.392,1.436,88.8,red,248,TRUE
450,1660717067.45,5964,3078,3348,0.999,-1.312,2.989,91.7,blue,248,TRUE
451,1660717067.555,3823,-2580,2526,5.031,-1.19,-0.012,91.7,green,248,TRUE
452,1660717068.049,5512,1593,750,5.442,-1.358,1.963,90.8,red,248,TRUE
453,1660717068.141,5964,3177,3348,1.494,-1.234,3.105,88.8,blue,248,TRUE
454,1660717068.23,3856,-2579,2526,5.032,-1.184,-0.008,89.5,green,248,TRUE
455,1660717068.785,5537,1592,750,5.26,-1.284,1.75,88.8,red,248,TRUE
456,1660717068.876,5900,3260,3348,2.316,-1.25,3.05,87.0,blue,248,TRUE
457,1660717068.964,3889,-2576,2526,5.033,-1.162,-0.004,88.5,green,248,TRUE
458,1660717069.473,5581,1602,750,5.159,-1.319,1.826,88.8,red,248,TRUE
459,1660717069.576,5819,3304,3348,1.91,-1.287,2.907,90.7,blue,248,TRUE
460,1660717069.668,3925,-2577,2526,5.031,-1.148,-0.008,88.8,green,248,TRUE
461,1660717071.343,5580,1587,750,5.558,-1.355,0.88,88.7,red,248,TRUE
462,1660717071.439,5759,3356,3348,0.353,-1.392,-2.951,82.8,blue,248,TRUE
463,1660717071.524,3920,-2577,2526,5.008,-1.061,-0.032,87.9,green,248,TRUE
464,1660717073.169,5579,1599,750,5.261,-1.364,2.074,88.8,red,248,TRUE
465,1660717073.263,5699,3379,3348,0.682,-1.314,2.693,83.7,blue,248,TRUE
466,1660717073.35,3882,-2588,2526,4.938,-1.002,-0.033,86.0,green,248,TRUE
467,1660717074.983,5586,1586,750,5.296,-1.361,2.013,85.8,red,248,TRUE
468,1660717075.073,5643,3399,3348,0.82,-1.324,2.733,85.0,blue,248,TRUE
469,1660717075.159,3854,-2590,2526,5.059,-1.136,-0.089,88.8,green,248,TRUE
470,1660717075.698,5592,1613,750,5.44,-1.342,2.126,88.8,red,248,TRUE
471,1660717075.788,5592,3420,3348,1.036,-1.319,2.604,88.8,blue,248,TRUE
472,1660717075.88,3827,-2599,2526,5.07,-1.168,-0.081,86.8,green,248,TRUE
473,1660717076.357,5585,1627,750,5.431,-1.34,2.134,87.7,red,248,TRUE
474,1660717076.446,5465,3381,3348,0.448,-1.242,2.963,88.8,blue,248,TRUE
475,1660717076.549,3812,-2601,2526,5.075,-1.146,-0.074,90.8,green,248,TRUE
476,1660717077.105,5565,1636,750,5.429,-1.338,2.147,89.3,red,248,TRUE
477,1660717077.208,5367,3310,3348,0.326,-1.206,2.97,90.7,blue,248,TRUE
478,1660717077.3,3790,-2601,2526,5.065,-1.138,-0.062,88.7,green,248,TRUE
479,1660717077.765,5559,1617,750,5.438,-1.337,2.15,87.9,red,248,TRUE
480,1660717077.854,5189,3227,3348,0.358,-1.234,2.905,88.8,blue,248,TRUE
481,1660717077.946,3774,-2601,2526,5.063,-1.13,-0.07,86.8,green,248,TRUE
482,1660717078.5,5565,1654,750,5.44,-1.334,2.146,86.8,red,248,TRUE
483,1660717078.588,5105,3141,3348,1.193,-1.269,2.652,89.8,blue,248,TRUE
484,1660717078.678,3758,-2602,2526,5.061,-1.12,-0.072,89.7,green,248,TRUE
485,1660717079.17,5587,1659,750,5.409,-1.341,2.148,90.8,red,248,TRUE
486,1660717079.275,5037,3033,3348,1.727,-1.298,2.93,90.7,blue,248,TRUE
487,1660717079.367,3739,-2602,2526,5.063,-1.133,-0.08,88.8,green,248,TRUE
488,1660717079.907,5587,1666,750,5.364,-1.354,2.176,86.8,red,248,TRUE
489,1660717079.997,5012,2934,3348,1.944,-1.146,2.968,86.8,blue,248,TRUE
490,1660717080.085,3722,-2603,2526,5.064,-1.137,-0.074,88.8,green,248,TRUE
491,1660717080.593,5561,1678,750,5.405,-1.352,2.114,88.8,red,248,TRUE
492,1660717080.683,5080,2849,3348,2.054,-1.186,2.998,88.8,blue,248,TRUE
493,1660717080.773,3704,-2604,2526,5.064,-1.142,-0.073,89.8,green,248,TRUE
494,1660717081.311,5505,1670,750,5.004,-1.342,2.458,88.7,red,248,TRUE
495,1660717081.401,5130,2790,3348,2.218,-1.317,2.943,88.8,blue,248,TRUE
496,1660717081.492,3685,-2604,2526,5.069,-1.146,-0.072,88.8,green,248,TRUE
497,1660717081.971,5491,1705,750,5.133,-1.298,2.053,87.8,red,248,TRUE
498,1660717082.06,5181,2754,3348,2.301,-1.329,2.79,88.8,blue,248,TRUE
499,1660717082.163,3683,-2606,2526,5.07,-1.144,-0.068,90.7,green,248,TRUE
500,1660717082.718,5463,1675,750,4.335,-1.397,2.658,88.8,red,248,TRUE
501,1660717082.808,5245,2690,3348,2.083,-1.324,2.906,88.8,blue,248,TRUE
502,1660717082.9,3698,-2591,2526,5.07,-1.143,-0.068,86.8,green,248,TRUE
503,1660717083.392,5404,1637,750,3.845,-1.429,1.275,88.7,red,248,TRUE
504,1660717083.481,5299,2661,3348,2.28,-1.3,2.783,88.7,blue,248,TRUE
505,1660717083.572,3697,-2591,2526,5.07,-1.142,-0.068,87.8,green,248,TRUE
506,1660717084.126,5302,1575,750,4.489,-1.488,3.067,89.1,red,248,TRUE
507,1660717084.229,5295,2596,3348,2.319,-1.294,2.759,90.8,blue,248,TRUE
508,1660717084.333,3697,-2583,2526,5.071,-1.138,-0.063,90.9,green,248,TRUE
509,1660717084.815,5157,1530,750,5.519,-1.32,1.781,87.8,red,248,TRUE
510,1660717084.904,5310,2549,3348,3.229,-1.298,2.627,88.8,blue,248,TRUE
511,1660717084.993,3686,-2585,2526,5.071,-1.134,-0.061,89.8,green,248,TRUE
512,1660717085.534,5016,1493,750,5.509,-1.382,1.277,86.5,red,248,TRUE
513,1660717085.622,5337,2499,3348,3.552,-1.293,2.635,88.8,blue,248,TRUE
514,1660717085.712,3677,-2587,2526,5.07,-1.137,-0.06,88.8,green,248,TRUE
515,1660717086.191,4862,1470,750,5.522,-1.39,1.136,88.8,red,248,TRUE
516,1660717086.294,5353,2460,3348,3.19,-1.27,2.717,90.7,blue,248,TRUE
517,1660717086.398,3675,-2590,2526,5.072,-1.132,-0.05,90.7,green,248,TRUE
518,1660717086.939,4720,1441,750,5.546,-1.374,0.964,88.8,red,248,TRUE
519,1660717087.028,5334,2425,3348,2.836,-1.298,2.813,89.1,blue,248,TRUE
520,1660717087.121,3663,-2589,2526,5.072,-1.131,-0.053,86.8,green,248,TRUE
521,1660717087.598,4564,1416,750,5.325,-1.407,0.852,88.3,red,248,TRUE
522,1660717087.701,5268,2419,3348,3.925,-1.289,2.843,90.8,blue,248,TRUE
523,1660717087.792,3661,-2590,2526,5.072,-1.133,-0.052,88.8,green,248,TRUE
524,1660717089.424,4401,1381,750,0.226,-1.342,0.962,88.8,red,248,TRUE
525,1660717089.519,5319,2441,3348,1.43,-1.295,2.892,84.2,blue,248,TRUE
526,1660717089.605,3651,-2588,2526,5.06,-1.128,-0.062,87.5,green,248,TRUE
527,1660717091.237,4244,1347,750,6.073,-1.32,1.562,86.8,red,248,TRUE
528,1660717091.33,5308,2435,3348,2.727,-1.211,2.685,83.7,blue,248,TRUE
529,1660717091.416,3635,-2587,2526,5.059,-1.1,-0.051,88.0,green,248,TRUE
530,1660717093.017,4101,1313,750,6.064,-1.326,1.45,86.7,red,248,TRUE
531,1660717093.11,5316,2456,3348,2.137,-1.1,2.989,83.9,blue,248,TRUE
532,1660717093.198,3630,-2587,2526,5.056,-1.119,-0.048,85.8,green,248,TRUE
533,1660717093.765,3958,1272,750,6.066,-1.328,1.509,86.5,red,248,TRUE
534,1660717093.853,5379,2472,3348,1.865,-1.096,2.989,88.7,blue,248,TRUE
535,1660717093.944,3623,-2594,2526,5.058,-1.118,-0.053,87.7,green,248,TRUE
536,1660717094.449,3833,1266,750,6.063,-1.328,1.47,91.7,red,248,TRUE
537,1660717094.542,5388,2501,3348,2.177,-1.287,2.988,87.8,blue,248,TRUE
538,1660717094.631,3610,-2592,2526,5.045,-1.125,-0.067,88.8,green,248,TRUE
539,1660717095.184,3736,1294,750,6.064,-1.328,1.44,88.8,red,248,TRUE
540,1660717095.276,5369,2502,3348,2.442,-1.213,2.837,86.8,blue,248,TRUE
541,1660717095.363,3613,-2587,2526,5.046,-1.113,-0.057,88.8,green,248,TRUE
542,1660717095.845,3678,1309,750,6.067,-1.325,1.509,86.8,red,248,TRUE
543,1660717095.933,5386,2486,3348,2.332,-1.162,2.938,88.8,blue,248,TRUE
544,1660717096.035,3609,-2583,2526,5.044,-1.117,-0.057,90.8,green,248,TRUE
545,1660717096.591,3666,1314,750,6.06,-1.332,1.458,88.7,red,248,TRUE
546,1660717096.68,5417,2466,3348,2.508,-0.917,2.95,88.8,blue,248,TRUE
547,1660717096.772,3614,-2580,2526,5.044,-1.121,-0.058,86.7,green,248,TRUE
548,1660717097.251,3656,1326,750,6.053,-1.336,1.535,87.4,red,248,TRUE
549,1660717097.339,5443,2424,3348,2.865,-0.798,2.946,88.8,blue,248,TRUE
550,1660717097.442,3617,-2573,2526,5.044,-1.121,-0.058,90.8,green,248,TRUE
551,1660717097.955,3653,1330,750,6.049,-1.337,1.499,86.8,red,248,TRUE
552,1660717098.056,5479,2364,3348,2.855,-0.864,2.967,90.7,blue,248,TRUE
553,1660717098.148,3614,-2568,2526,5.045,-1.157,-0.062,88.8,green,248,TRUE
554,1660717098.642,3641,1338,750,6.056,-1.338,1.486,88.7,red,248,TRUE
555,1660717098.732,5491,2330,3348,2.807,-1.047,2.97,89.1,blue,248,TRUE
556,1660717098.824,3609,-2570,2526,5.078,-1.26,-0.161,86.4,green,248,TRUE
557,1660717099.347,3632,1352,750,6.05,-1.34,1.487,86.8,red,248,TRUE
558,1660717099.435,5552,2320,3348,2.32,-1.295,-3.108,88.8,blue,248,TRUE
559,1660717099.537,3581,-2565,2526,5.072,-1.25,-0.123,91.7,green,248,TRUE
560,1660717100.003,3643,1354,750,6.073,-1.355,1.521,88.7,red,248,TRUE
561,1660717100.106,5483,2243,3348,2.233,-1.316,-3.134,90.7,blue,248,TRUE
562,1660717100.197,3572,-2562,2526,4.995,-1.187,-0.194,88.8,green,248,TRUE
563,1660717101.859,3568,1286,750,2.047,-1.321,0.962,88.6,red,248,TRUE
564,1660717101.956,5484,2241,3348,1.745,-1.167,-3.027,96.8,blue,248,TRUE
565,1660717104.731,3486,1130,750,1.894,-1.27,0.717,88.8,red,248,TRUE
566,1660717104.826,5486,2235,3348,1.82,-1.169,-2.993,83.8,blue,248,TRUE
567,1660717107.605,3395,984,750,1.897,-1.306,0.81,88.8,red,248,TRUE
568,1660717107.7,5400,2176,3348,2.303,-1.093,3.121,83.8,blue,248,TRUE
569,1660717107.785,3600,-2568,2526,5.068,-1.164,-0.093,87.8,green,248,TRUE
570,1660717108.323,3306,822,750,1.761,-1.326,0.803,88.8,red,248,TRUE
571,1660717108.413,5396,2141,3348,2.499,-1.012,3.012,88.6,blue,248,TRUE
572,1660717108.505,3625,-2574,2526,5.068,-1.162,-0.088,116.8,green,248,TRUE
573,1660717108.996,3253,635,750,1.582,-1.323,0.541,88.7,red,248,TRUE
574,1660717109.099,5413,2153,3348,2.316,-1.127,3.084,91.3,blue,248,TRUE
575,1660717109.204,3650,-2572,2526,5.067,-1.165,-0.088,91.8,green,248,TRUE
576,1660717109.758,3199,453,750,1.686,-1.367,0.62,90.8,red,248,TRUE
577,1660717109.85,5425,2170,3348,2.139,-1.137,3.137,88.8,blue,248,TRUE
578,1660717109.939,3656,-2571,2526,5.067,-1.165,-0.088,118.7,green,248,TRUE
579,1660717110.435,3124,311,750,1.703,-1.406,0.836,86.4,red,248,TRUE
580,1660717110.523,5440,2145,3348,2.403,-0.908,2.92,88.8,blue,248,TRUE
581,1660717110.625,3657,-2573,2526,5.069,-1.155,-0.088,90.7,green,248,TRUE
582,1660717111.181,3044,170,750,1.733,-1.394,0.841,88.8,red,248,TRUE
583,1660717111.284,5452,2160,3348,2.405,-0.935,2.923,90.7,blue,248,TRUE
584,1660717112.886,2964,25,750,1.805,-1.35,0.757,88.8,red,248,TRUE
585,1660717112.978,5463,2182,3348,2.188,-1.199,3.103,86.8,blue,248,TRUE
586,1660717113.068,3674,-2575,2526,5.078,-1.151,-0.104,101.5,green,248,TRUE
587,1660717113.559,2897,-152,750,1.39,-1.357,0.437,88.8,red,248,TRUE
588,1660717113.662,5495,2198,3348,2.17,-1.286,3.095,90.6,blue,248,TRUE
589,1660717115.355,2801,-278,750,0.466,-1.369,0.613,88.7,red,248,TRUE
590,1660717115.445,5520,2188,3348,1.903,-1.186,3.129,88.8,blue,248,TRUE
591,1660717115.535,3680,-2585,2526,5.075,-1.121,-0.068,88.6,green,248,TRUE
592,1660717117.053,2691,-404,750,0.478,-1.342,0.664,82.8,red,248,TRUE
593,1660717117.138,5534,2188,3348,2.547,-0.963,2.897,86.8,blue,248,TRUE
594,1660717117.226,3696,-2597,2526,5.081,-1.098,-0.069,88.8,green,248,TRUE
595,1660717117.72,2668,-461,750,0.463,-1.332,0.686,88.8,red,248,TRUE
596,1660717117.81,5524,2150,3348,2.64,-0.964,2.862,88.7,blue,248,TRUE
597,1660717117.899,3709,-2608,2526,5.075,-1.106,-0.059,89.8,green,248,TRUE
598,1660717118.451,2649,-427,750,0.463,-1.313,0.642,90.7,red,248,TRUE
599,1660717118.542,5524,2108,3348,2.647,-0.976,2.862,88.5,blue,248,TRUE
600,1660717118.632,3706,-2603,2526,5.109,-1.121,-0.109,88.8,green,248,TRUE
601,1660717119.127,2641,-405,750,0.487,-1.299,0.608,86.8,red,248,TRUE
602,1660717119.215,5544,2112,3348,2.591,-0.952,2.978,88.8,blue,248,TRUE
603,1660717122.06,2663,-408,750,1.669,-1.296,0.488,88.7,red,248,TRUE
604,1660717122.156,5533,2130,3348,2.676,-0.675,3.112,82.8,blue,248,TRUE
605,1660717124.833,2643,-363,750,0.821,-1.301,0.422,86.8,red,248,TRUE
606,1660717124.925,5547,2134,3348,2.129,-1.137,-3.088,83.8,blue,248,TRUE
607,1660717127.704,2605,-300,750,0.568,-1.312,0.356,88.8,red,248,TRUE
608,1660717127.8,5537,2125,3348,2.496,-0.828,-3.09,97.8,blue,248,TRUE
609,1660717127.912,3721,-2628,2526,5.071,-1.178,-0.064,119.7,green,248,TRUE
610,1660717129.604,2586,-266,750,0.326,-1.343,0.387,88.8,red,248,TRUE
611,1660717129.699,5536,2178,3348,2.004,-1.217,-3.058,83.8,blue,248,TRUE
612,1660717129.784,3704,-2625,2526,5.072,-1.166,-0.062,118.7,green,248,TRUE
613,1660717131.462,2581,-259,750,2.362,-1.238,0.487,86.8,red,248,TRUE
614,1660717131.555,5516,2210,3348,1.978,-1.182,-3.109,83.8,blue,248,TRUE
615,1660717134.244,2597,-289,750,2.272,-1.367,1.011,88.8,red,248,TRUE
616,1660717134.338,5517,2243,3348,1.96,-1.157,3.106,84.8,blue,248,TRUE
617,1660717136.027,2575,-270,750,2.163,-1.455,0.087,86.8,red,248,TRUE
618,1660717136.115,5527,2260,3348,1.858,-1.105,3.049,88.8,blue,248,TRUE
619,1660717136.217,3686,-2652,2526,5.119,-1.224,-0.007,105.8,green,248,TRUE
620,1660717136.726,2596,-319,750,2.146,-1.449,0.755,90.8,red,248,TRUE
621,1660717136.818,5539,2258,3348,1.84,-1.098,3.041,88.7,blue,248,TRUE
622,1660717136.908,3674,-2658,2526,5.091,-1.228,-0.034,88.8,green,248,TRUE
623,1660717138.541,2681,-228,750,1.42,-1.409,1.379,87.3,red,248,TRUE
624,1660717138.634,5552,2305,3348,1.949,-1.176,3.01,83.8,blue,248,TRUE
625,1660717138.719,3650,-2663,2526,5.095,-1.206,-0.019,88.9,green,248,TRUE
626,1660717140.351,2946,-137,750,0.529,-1.401,0.277,88.7,red,248,TRUE
627,1660717140.446,5578,2344,3348,1.903,-1.113,-3.01,83.8,blue,248,TRUE
628,1660717140.532,3616,-2662,2526,5.096,-1.197,-0.02,86.8,green,248,TRUE
629,1660717142.162,3258,-43,750,5.629,-1.499,-0.068,87.8,red,248,TRUE
630,1660717142.255,5573,2354,3348,2.647,-0.783,3.015,84.9,blue,248,TRUE
631,1660717142.342,3592,-2657,2526,5.095,-1.194,-0.017,87.8,green,248,TRUE
632,1660717142.895,3516,51,750,4.435,-1.425,0.423,88.8,red,248,TRUE
633,1660717142.985,5571,2368,3348,2.473,-0.764,3.062,88.9,blue,248,TRUE
634,1660717143.078,3558,-2650,2526,5.094,-1.189,-0.017,85.8,green,248,TRUE
635,1660717143.554,3698,163,750,3.893,-1.376,0.596,89.1,red,248,TRUE
636,1660717143.657,5589,2339,3348,2.44,-0.736,3.006,90.7,blue,248,TRUE
637,1660717143.762,3525,-2644,2526,5.094,-1.187,-0.017,91.7,green,248,TRUE
638,1660717144.302,3794,266,750,3.974,-1.429,0.327,89.7,red,248,TRUE
639,1660717144.393,5577,2301,3348,2.803,-0.816,2.956,87.8,blue,248,TRUE
640,1660717144.482,3490,-2634,2526,5.094,-1.186,-0.017,88.8,green,248,TRUE
641,1660717144.962,3927,356,750,4.741,-1.473,0.019,87.7,red,248,TRUE
642,1660717145.05,5574,2315,3348,2.784,-0.997,3.015,88.8,blue,248,TRUE
643,1660717145.141,3472,-2635,2526,5.094,-1.185,-0.016,87.8,green,248,TRUE
644,1660717145.679,4037,445,750,6.126,-1.487,0.051,88.7,red,248,TRUE
645,1660717145.781,5550,2294,3348,2.399,-1.201,-3.025,90.8,blue,248,TRUE
646,1660717145.873,3450,-2621,2526,5.094,-1.185,-0.016,88.6,green,248,TRUE
647,1660717146.35,4128,567,750,0.376,-1.428,0.773,90.8,red,248,TRUE
648,1660717146.441,5577,2258,3348,2.193,-1.191,-3.134,88.8,blue,248,TRUE
649,1660717146.531,3423,-2622,2526,5.094,-1.179,-0.016,88.8,green,248,TRUE
650,1660717147.056,4208,729,750,0.368,-1.426,1.748,87.8,red,248,TRUE
651,1660717147.147,5552,2270,3348,2.599,-1.154,2.917,86.8,blue,248,TRUE
652,1660717147.235,3399,-2607,2526,5.094,-1.178,-0.016,88.8,green,248,TRUE
653,1660717147.714,4350,866,750,0.664,-1.45,1.961,88.7,red,248,TRUE
654,1660717147.817,5518,2282,3348,1.622,-1.176,-3.024,90.7,blue,248,TRUE
655,1660717147.909,3349,-2591,2526,5.094,-1.178,-0.016,88.8,green,248,TRUE
656,1660717148.445,4551,1003,750,0.793,-1.477,0.073,90.7,red,248,TRUE
657,1660717148.537,5475,2336,3348,0.441,-1.248,-2.875,88.8,blue,248,TRUE
658,1660717148.627,3334,-2588,2526,5.094,-1.178,-0.016,88.8,green,248,TRUE
659,1660717150.144,4842,994,750,6.086,-1.511,0.046,83.8,red,248,TRUE
660,1660717150.231,5416,2355,3348,0.358,-1.29,2.966,86.7,blue,248,TRUE
661,1660717150.318,3324,-2586,2526,5.094,-1.178,-0.016,88.8,green,248,TRUE
662,1660717150.798,4942,981,750,5.973,-1.51,-0.016,89.4,red,248,TRUE
663,1660717150.888,5361,2402,3348,0.356,-1.306,2.963,88.8,blue,248,TRUE
664,1660717150.978,3325,-2580,2526,5.094,-1.173,-0.015,88.8,green,248,TRUE
665,1660717151.516,4993,955,750,5.888,-1.485,0.01,88.8,red,248,TRUE
666,1660717151.606,5323,2445,3348,0.622,-1.335,3.075,89.0,blue,248,TRUE
667,1660717151.697,3309,-2579,2526,5.095,-1.169,-0.014,87.8,green,248,TRUE
668,1660717152.178,5115,935,750,5.839,-1.486,0.015,87.0,red,248,TRUE
669,1660717152.266,5319,2487,3348,1.419,-1.259,-2.981,88.8,blue,248,TRUE
670,1660717152.368,3306,-2579,2526,5.095,-1.17,-0.014,90.8,green,248,TRUE
671,1660717152.924,5257,924,750,5.832,-1.491,0.017,88.8,red,248,TRUE
672,1660717153.014,5287,2529,3348,1.876,-1.17,-2.938,89.7,blue,248,TRUE
673,1660717153.105,3332,-2590,2526,5.095,-1.169,-0.014,87.1,green,248,TRUE
674,1660717153.597,5476,899,750,5.48,-1.533,-3.126,88.7,red,248,TRUE
675,1660717153.687,5291,2531,3348,1.974,-1.14,-2.959,88.8,blue,248,TRUE
676,1660717153.779,3332,-2592,2526,5.095,-1.166,-0.013,86.8,green,248,TRUE
677,1660717154.315,5619,878,750,4.679,-1.482,0.025,88.8,red,248,TRUE
678,1660717154.418,5279,2532,3348,2.179,-1.14,-3.036,90.8,blue,248,TRUE
679,1660717154.523,3354,-2611,2526,5.095,-1.162,-0.012,90.8,green,248,TRUE
680,1660717155.004,5760,927,750,5.226,-1.504,0.065,87.8,red,248,TRUE
681,1660717155.093,5306,2550,3348,2.246,-1.082,-3.082,88.8,blue,248,TRUE
682,1660717155.183,3354,-2613,2526,5.095,-1.163,-0.011,88.8,green,248,TRUE
683,1660717155.737,5903,965,750,5.029,-1.512,0.058,88.8,red,248,TRUE
684,1660717155.828,5290,2560,3348,2.296,-1.086,3.115,87.8,blue,248,TRUE
685,1660717155.916,3351,-2612,2526,5.096,-1.165,-0.012,88.8,green,248,TRUE
686,1660717156.411,5991,963,750,4.095,-1.489,-3.097,88.8,red,248,TRUE
687,1660717156.513,5290,2551,3348,2.247,-1.144,3.024,92.2,blue,248,TRUE
688,1660717156.606,3344,-2614,2526,5.096,-1.165,-0.013,88.6,green,248,TRUE
689,1660717157.159,5892,867,750,3.592,-1.473,0.025,88.8,red,248,TRUE
690,1660717157.248,5317,2513,3348,2.335,-1.189,3.065,89.7,blue,248,TRUE
691,1660717157.339,3363,-2618,2526,5.096,-1.167,-0.013,87.8,green,248,TRUE
692,1660717157.818,5748,891,750,5.065,-1.462,0.068,88.8,red,248,TRUE
693,1660717157.907,5323,2466,3348,2.553,-0.996,3.06,88.8,blue,248,TRUE
694,1660717157.997,3367,-2614,2526,5.096,-1.166,-0.012,88.8,green,248,TRUE
695,1660717158.536,5458,973,750,5.732,-1.514,0.046,88.8,red,248,TRUE
696,1660717158.639,5354,2420,3348,2.493,-0.74,3.081,90.7,blue,248,TRUE
697,1660717158.73,3362,-2615,2526,5.096,-1.164,-0.012,89.4,green,248,TRUE
698,1660717159.226,5199,1115,750,6.157,-1.45,1.264,87.8,red,248,TRUE
699,1660717159.315,5358,2350,3348,2.53,-0.694,3.098,89.3,blue,248,TRUE
700,1660717159.407,3364,-2612,2526,5.093,-1.167,-0.015,86.8,green,248,TRUE
701,1660717161.037,5096,1439,750,0.854,-1.472,0.027,88.7,red,248,TRUE
702,1660717161.133,5384,2306,3348,2.459,-0.746,3.013,83.0,blue,248,TRUE
703,1660717161.218,3377,-2613,2526,5.012,-1.177,0.019,88.1,green,248,TRUE
704,1660717162.804,5039,1756,750,1.23,-1.4,1.426,87.8,red,248,TRUE
705,1660717162.897,5358,2246,3348,2.486,-0.984,3.114,84.7,blue,248,TRUE
706,1660717162.985,3372,-2620,2526,5.048,-1.258,0.063,86.8,green,248,TRUE
707,1660717165.637,4853,2061,750,1.553,-1.453,3.03,83.8,red,248,TRUE
708,1660717165.727,5360,2214,3348,2.748,-0.917,2.918,83.5,blue,248,TRUE
709,1660717165.812,3389,-2615,2526,5.107,-1.148,-0.046,87.7,green,248,TRUE
710,1660717167.417,4614,2309,750,0.475,-1.14,2.52,83.6,red,248,TRUE
711,1660717167.504,5364,2203,3348,2.318,-0.734,3.011,102.7,blue,248,TRUE
712,1660717167.608,3414,-2607,2526,5.105,-1.141,-0.041,87.8,green,248,TRUE
713,1660717170.394,5379,2180,3348,2.762,-0.934,2.961,83.8,blue,248,TRUE
714,1660717170.479,3423,-2585,2526,5.105,-1.109,-0.025,88.8,green,248,TRUE
715,1660717173.104,4193,2306,750,0.674,-1.344,2.515,96.7,red,248,TRUE
716,1660717173.207,5354,2172,3348,2.333,-0.974,3.129,82.8,blue,248,TRUE
717,1660717173.291,3417,-2534,2526,4.375,-1.537,3.121,118.7,green,248,TRUE
718,1660717174.938,4078,2260,750,0.632,-1.503,3.138,88.8,red,248,TRUE
719,1660717175.033,5364,2209,3348,2.284,-1.121,3.108,83.8,blue,248,TRUE
720,1660717175.121,3417,-2534,2526,3.991,-1.442,-2.787,70.8,green,248,TRUE
721,1660717175.657,3963,2262,750,6.171,-1.361,1.875,87.8,red,248,TRUE
722,1660717175.746,5375,2206,3348,2.281,-1.065,-3.12,89.8,blue,248,TRUE
723,1660717175.849,3265,-2450,2526,4.523,-1.429,-2.353,75.7,green,248,TRUE
724,1660717176.315,4015,2376,750,5.789,-1.426,1.702,88.6,red,248,TRUE
725,1660717176.418,5364,2205,3348,2.294,-1.064,-3.141,90.7,blue,248,TRUE
726,1660717179.113,4180,2287,750,5.265,-1.356,2.329,88.8,red,248,TRUE
727,1660717179.209,5368,2206,3348,2.258,-0.97,-3.117,96.7,blue,248,TRUE
728,1660717179.308,3131,-2247,2526,5.333,-1.467,-3.117,87.8,green,248,TRUE
729,1660717180.968,4325,2184,750,6.087,-1.337,2.007,88.8,red,248,TRUE
730,1660717181.062,5378,2235,3348,2.169,-1.176,3.102,84.8,blue,248,TRUE
731,1660717181.15,3087,-1951,2526,0.16,-1.504,-3.085,85.8,green,248,TRUE
732,1660717182.798,4447,2048,750,6.27,-1.361,2.839,86.8,red,248,TRUE
733,1660717182.89,5420,2274,3348,2.182,-1.088,3.019,98.8,blue,248,TRUE
734,1660717182.991,3119,-1604,2526,0.559,-1.513,3.093,87.8,green,248,TRUE
735,1660717183.542,4381,1785,750,5.404,-1.489,0.073,90.7,red,248,TRUE
736,1660717183.633,5451,2275,3348,2.133,-1.138,3.019,88.8,blue,248,TRUE
737,1660717183.723,3169,-1255,2526,6.222,-1.482,-3.084,88.8,green,248,TRUE
738,1660717186.467,4218,1531,750,5.195,-1.289,2.619,83.8,red,248,TRUE
739,1660717186.671,3179,-877,2526,0.299,-1.468,-3.071,88.8,green,248,TRUE
740,1660717189.28,4191,1305,750,0.052,-1.45,0.764,84.8,red,248,TRUE
741,1660717189.373,5558,2341,3348,2.149,-1.032,3.106,96.6,blue,248,TRUE
742,1660717189.472,3202,-504,2526,0.444,-1.487,-3.064,87.4,green,248,TRUE
743,1660717192.184,4238,1156,750,0.024,-1.452,0.072,83.8,red,248,TRUE
744,1660717192.373,3239,-128,2526,0.459,-1.492,-3.065,88.8,green,248,TRUE
745,1660717192.928,4341,1182,750,0.027,-1.444,0.911,87.6,red,248,TRUE
746,1660717193.017,5483,2387,3348,2.316,-0.989,3.099,88.2,blue,248,TRUE
747,1660717193.107,3248,242,2526,0.461,-1.493,-3.065,88.8,green,248,TRUE
748,1660717193.585,4398,1228,750,0.025,-1.455,0.106,88.8,red,248,TRUE
749,1660717193.688,5507,2363,3348,2.554,-0.83,3.081,90.7,blue,248,TRUE
750,1660717193.78,3256,612,2526,0.459,-1.493,-3.065,89.3,green,248,TRUE
751,1660717194.319,4384,1266,750,5.76,-1.563,0.001,88.8,red,248,TRUE
752,1660717194.408,5495,2350,3348,2.574,-0.729,3.036,88.7,blue,248,TRUE
753,1660717194.499,3262,985,2526,0.482,-1.496,-3.069,87.7,green,248,TRUE
754,1660717194.977,4413,1320,750,5.64,-1.512,-3.121,88.7,red,248,TRUE
755,1660717195.067,5505,2329,3348,2.653,-0.687,3.035,88.8,blue,248,TRUE
756,1660717195.157,3299,1307,2526,0.492,-1.498,-3.071,88.8,green,248,TRUE
757,1660717195.696,4435,1342,750,5.789,-1.509,3.127,89.8,red,248,TRUE
758,1660717195.785,5509,2333,3348,2.663,-0.685,3.024,88.8,blue,248,TRUE
759,1660717195.875,3491,1598,2526,0.48,-1.496,-3.069,88.8,green,248,TRUE
760,1660717196.386,4325,1463,750,0.039,-1.489,0.076,86.8,red,248,TRUE
761,1660717196.474,5532,2341,3348,2.897,-0.832,3.027,88.8,blue,248,TRUE
762,1660717196.576,3661,1767,2526,0.509,-1.497,-3.071,91.3,green,248,TRUE
763,1660717197.088,4235,1568,750,0.083,-1.484,0.073,89.7,red,248,TRUE
764,1660717197.177,5547,2318,3348,2.986,-0.921,2.988,88.8,blue,248,TRUE
765,1660717197.268,3739,1840,2526,0.499,-1.498,-3.07,88.7,green,248,TRUE
766,1660717197.744,4149,1640,750,0.073,-1.474,0.08,90.8,red,248,TRUE
767,1660717197.835,5544,2271,3348,3.12,-0.882,2.971,88.6,blue,248,TRUE
768,1660717197.925,3738,1855,2526,0.489,-1.493,-3.069,89.3,green,248,TRUE
769,1660717198.449,4099,1662,750,6.002,-1.51,0.037,88.7,red,248,TRUE
770,1660717198.541,5543,2248,3348,3.161,-0.872,2.968,86.4,blue,248,TRUE
771,1660717198.628,3724,1878,2526,0.494,-1.493,-3.069,88.5,green,248,TRUE
772,1660717199.109,4074,1676,750,6.168,-1.488,0.05,86.7,red,248,TRUE
773,1660717199.197,5509,2203,3348,3.212,-0.857,2.949,89.4,blue,248,TRUE
774,1660717199.301,3747,1873,2526,0.5,-1.494,-3.07,90.8,green,248,TRUE
775,1660717199.839,4070,1682,750,6.157,-1.485,0.049,90.7,red,248,TRUE
776,1660717199.931,5491,2152,3348,3.231,-0.863,2.944,88.8,blue,248,TRUE
777,1660717200.021,3752,1871,2526,0.503,-1.499,-3.071,88.8,green,248,TRUE
778,1660717200.486,4063,1675,750,6.126,-1.491,0.043,87.7,red,248,TRUE
779,1660717200.575,5573,2095,3348,3.241,-0.876,2.938,88.8,blue,248,TRUE
780,1660717200.678,3758,1872,2526,0.506,-1.499,-3.071,90.7,green,248,TRUE
781,1660717201.235,4062,1672,750,6.165,-1.482,0.044,86.8,red,248,TRUE
782,1660717201.323,5569,2104,3348,3.266,-0.961,2.907,88.7,blue,248,TRUE
783,1660717201.413,3761,1879,2526,0.088,-1.481,-3.053,88.7,green,248,TRUE
784,1660717201.906,4096,1672,750,0.147,-1.428,1.549,88.7,red,248,TRUE
785,1660717201.996,5589,2075,3348,3.195,-1.139,2.884,89.3,blue,248,TRUE
786,1660717202.088,3775,1865,2526,0.271,-1.489,-3.064,86.8,green,248,TRUE
787,1660717202.612,4185,1645,750,1.145,-1.383,1.092,86.8,red,248,TRUE
788,1660717202.7,5606,2060,3348,3.121,-1.177,2.975,88.8,blue,248,TRUE
789,1660717202.802,3810,1920,2526,0.273,-1.432,-2.4,90.8,green,248,TRUE
790,1660717203.298,4334,1538,750,1.416,-1.388,1.299,88.8,red,248,TRUE
791,1660717203.401,5622,2067,3348,3.076,-1.173,2.99,91.7,blue,248,TRUE
792,1660717203.492,3820,1925,2526,0.417,-1.429,-2.883,88.8,green,248,TRUE
793,1660717204.031,4470,1474,750,0.704,-1.41,2.158,88.8,red,248,TRUE
794,1660717204.122,5633,2060,3348,3.06,-1.127,3.009,87.8,blue,248,TRUE
795,1660717204.212,3837,1927,2526,6.249,-1.371,-2.559,86.8,green,248,TRUE
796,1660717204.69,4540,1431,750,6.27,-1.42,2.095,87.7,red,248,TRUE
797,1660717204.792,5610,2023,3348,3.057,-1.11,3.006,90.7,blue,248,TRUE
798,1660717204.896,3823,1915,2526,6.117,-1.311,-2.362,90.7,green,248,TRUE
799,1660717205.437,4605,1375,750,0.1,-1.345,2.505,88.5,red,248,TRUE
800,1660717205.526,5587,1998,3348,3.093,-1.07,2.976,88.7,blue,248,TRUE
801,1660717205.616,3858,1913,2526,6.102,-1.278,-2.316,88.7,green,248,TRUE
802,1660717206.096,4699,1311,750,0.43,-1.365,2.55,87.7,red,248,TRUE
803,1660717206.184,5575,1988,3348,3.161,-0.913,2.976,88.8,blue,248,TRUE
804,1660717206.275,3889,1899,2526,5.92,-1.32,-2.213,87.7,green,248,TRUE
805,1660717206.813,4787,1271,750,1.008,-1.413,2.205,88.8,red,248,TRUE
806,1660717206.916,5567,2022,3348,3.227,-0.926,2.946,90.8,blue,248,TRUE
807,1660717207.008,3902,1883,2526,5.541,-1.309,-2.038,88.9,green,248,TRUE
808,1660717207.502,4932,1218,750,1.012,-1.441,2.253,88.8,red,248,TRUE
809,1660717207.591,5555,2035,3348,3.253,-0.933,2.944,88.8,blue,248,TRUE
810,1660717207.683,3874,1909,2526,5.116,-1.293,-2.328,86.8,green,248,TRUE
811,1660717208.239,5071,1124,750,1.041,-1.421,2.258,85.8,red,248,TRUE
812,1660717208.325,5544,2073,3348,2.966,-0.737,2.985,88.8,blue,248,TRUE
813,1660717208.428,3826,1970,2526,5.054,-1.46,-3.05,90.7,green,248,TRUE
814,1660717208.922,5165,1083,750,0.942,-1.437,2.39,91.7,red,248,TRUE
815,1660717209.014,5551,2101,3348,2.964,-0.713,2.992,88.8,blue,248,TRUE
816,1660717209.104,3747,2015,2526,5.77,-1.382,2.719,88.8,green,248,TRUE
817,1660717209.656,5265,1019,750,0.764,-1.429,2.328,89.8,red,248,TRUE
818,1660717209.748,5535,2127,3348,2.959,-0.73,2.977,87.8,blue,248,TRUE
819,1660717209.837,3676,2033,2526,6.218,-1.431,2.773,89.9,green,248,TRUE
820,1660717210.316,5341,984,750,0.653,-1.39,2.611,88.8,red,248,TRUE
821,1660717210.418,5518,2148,3348,3.235,-0.889,2.974,90.8,blue,248,TRUE
822,1660717210.523,3647,2007,2526,1.092,-1.462,-3.103,90.7,green,248,TRUE
823,1660717211.064,5412,965,750,0.766,-1.376,2.316,88.8,red,248,TRUE
824,1660717211.153,5524,2164,3348,3.103,-1.033,3.009,89.0,blue,248,TRUE
825,1660717211.246,3590,1888,2526,1.008,-1.476,0.038,85.8,green,248,TRUE
826,1660717211.724,5417,1024,750,0.651,-1.4,2.058,86.8,red,248,TRUE
827,1660717211.812,5504,2140,3348,2.789,-1.042,3.069,88.8,blue,248,TRUE
828,1660717211.915,3588,1816,2526,1.173,-1.546,-3.119,90.8,green,248,TRUE
829,1660717212.471,5411,1069,750,0.289,-1.443,1.326,88.8,red,248,TRUE
830,1660717212.573,5502,2127,3348,2.755,-0.993,3.027,91.1,blue,248,TRUE
831,1660717212.665,3581,1747,2526,1.162,-1.528,-0.041,88.8,green,248,TRUE
832,1660717213.131,5473,1109,750,6.248,-1.362,1.424,87.3,red,248,TRUE
833,1660717213.219,5528,2117,3348,2.721,-0.984,3.027,88.8,blue,248,TRUE
834,1660717213.31,3618,1702,2526,0.68,-1.523,-3.114,87.8,green,248,TRUE
835,1660717213.848,5596,1045,750,5.395,-1.38,2.903,90.3,red,248,TRUE
