,timestamp,x,y,z,yaw,roll,pitch,latency,student,session,success
0,1660778400.765,3650,-2795,882,4.994,-1.342,0.964,93.7,yellow,249,TRUE
1,1660778401.062,1816,160,3348,3.33,-1.42,-0.608,97.4,blue,249,TRUE
2,1660778403.697,1885,-218,750,5.083,-1.412,2.119,93.7,red,249,TRUE
3,1660778403.806,1952,643,3348,4.094,-1.342,-0.525,94.0,blue,249,TRUE
4,1660778403.9,3138,-2907,2526,5.28,-1.061,0.307,93.7,green,249,TRUE
5,1660778404.215,3577,-2754,882,4.256,-1.071,-2.425,78.1,yellow,249,TRUE
6,1660778404.386,1970,126,750,5.067,-1.34,2.21,93.8,red,249,TRUE
7,1660778404.496,2078,1086,3348,4.248,-1.385,-0.581,93.7,blue,249,TRUE
8,1660778404.589,3114,-2912,2526,5.284,-0.964,0.232,95.7,green,249,TRUE
9,1660778404.878,3577,-2754,882,4.232,-1.052,-2.401,89.2,yellow,249,TRUE
10,1660778405.061,2048,417,750,5.557,-1.354,1.992,97.0,red,249,TRUE
11,1660778405.16,2204,1469,3348,4.263,-1.371,-0.496,92.8,blue,249,TRUE
12,1660778405.253,3114,-2912,2526,5.296,-0.932,0.255,93.8,green,249,TRUE
13,1660778405.612,3577,-2754,882,4.276,-1.066,-2.401,83.4,yellow,249,TRUE
14,1660778407.532,2196,1228,750,5.285,-1.376,1.947,93.8,red,249,TRUE
15,1660778407.626,2273,1859,3348,3.492,-1.39,-0.467,88.0,blue,249,TRUE
16,1660778409.182,2296,1681,750,4.743,-1.341,2.29,88.8,red,249,TRUE
17,1660778409.271,2438,2321,3348,3.162,-1.394,-0.958,78.2,blue,249,TRUE
18,1660778409.349,3074,-2925,2526,5.108,-1.032,0.197,78.2,green,249,TRUE
19,1660778410.902,2385,2124,750,4.728,-1.373,2.211,93.7,red,249,TRUE
20,1660778411.011,2642,2696,3348,3.315,-1.382,-0.744,78.4,blue,249,TRUE
21,1660778411.089,3058,-2916,2526,5.162,-0.953,0.087,79.6,green,249,TRUE
22,1660778411.398,3470,-2726,882,3.951,-1.17,-3.083,79.3,yellow,249,TRUE
23,1660778411.572,2480,2512,750,4.788,-1.348,2.087,96.2,red,249,TRUE
24,1660778411.669,2853,3102,3348,3.318,-1.39,-0.83,83.6,blue,249,TRUE
25,1660778411.753,3000,-2879,2526,5.163,-0.952,0.088,93.6,green,249,TRUE
26,1660778413.061,3470,-2726,882,4.791,-1.352,-0.357,79.8,yellow,249,TRUE
27,1660778413.243,2546,2804,750,4.182,-1.326,2.182,94.1,red,249,TRUE
28,1660778413.337,3014,3465,3348,3.35,-1.392,-0.774,93.8,blue,249,TRUE
29,1660778413.431,2934,-2856,2526,5.183,-0.968,0.106,78.0,green,249,TRUE
30,1660778414.967,2586,3064,750,3.769,-1.331,2.111,93.7,red,249,TRUE
31,1660778415.076,3123,3683,3348,3.295,-1.385,-0.784,83.1,blue,249,TRUE
32,1660778415.161,2843,-2859,2526,5.183,-0.951,0.07,86.0,green,249,TRUE
33,1660778416.721,2657,3326,750,3.654,-1.331,2.092,95.7,red,249,TRUE
34,1660778416.926,2791,-2825,2526,5.181,-0.946,0.071,79.6,green,249,TRUE
35,1660778418.401,2644,3495,750,3.604,-1.331,2.092,93.7,red,249,TRUE
36,1660778420.17,2630,3500,750,3.605,-1.332,2.085,93.4,red,249,TRUE
37,1660778420.263,3152,3860,3348,3.277,-1.395,-0.916,93.7,blue,249,TRUE
38,1660778420.357,2767,-2821,2526,5.178,-0.939,0.153,93.6,green,249,TRUE
39,1660778420.674,3455,-2730,882,4.547,-1.356,-2.325,93.2,yellow,249,TRUE
40,1660778420.861,2619,3515,750,3.605,-1.332,2.083,94.8,red,249,TRUE
41,1660778420.959,3179,3961,3348,3.278,-1.393,-0.905,82.0,blue,249,TRUE
42,1660778421.041,2726,-2819,2526,5.198,-0.879,0.159,93.8,green,249,TRUE
43,1660778421.32,3450,-2734,882,4.627,-1.385,-2.239,93.7,yellow,249,TRUE
44,1660778421.507,2597,3518,750,3.605,-1.333,2.08,93.7,red,249,TRUE
45,1660778421.601,3229,4023,3348,3.247,-1.392,-0.887,97.3,blue,249,TRUE
46,1660778421.7,2690,-2810,2526,5.19,-0.863,0.161,82.1,green,249,TRUE
47,1660778421.993,3464,-2722,882,4.621,-1.505,-0.062,93.8,yellow,249,TRUE
48,1660778422.186,2606,3442,750,3.606,-1.332,2.081,95.3,red,249,TRUE
49,1660778422.281,3237,4045,3348,3.256,-1.386,-0.794,78.5,blue,249,TRUE
50,1660778422.36,2690,-2810,2526,5.2,-0.849,0.165,78.1,green,249,TRUE
51,1660778422.641,3484,-2722,882,4.566,-1.504,-3.075,80.8,yellow,249,TRUE
52,1660778422.817,2561,3410,750,3.606,-1.332,2.082,93.7,red,249,TRUE
53,1660778422.911,3179,3975,3348,3.279,-1.378,-0.793,82.7,blue,249,TRUE
54,1660778422.994,2689,-2831,2526,5.197,-0.869,0.142,78.0,green,249,TRUE
55,1660778423.291,3542,-2717,882,4.548,-1.504,-0.064,93.8,yellow,249,TRUE
56,1660778423.478,2474,3378,750,3.604,-1.334,2.07,93.7,red,249,TRUE
57,1660778423.572,3156,4005,3348,3.235,-1.381,-0.783,97.5,blue,249,TRUE
58,1660778423.672,2674,-2816,2526,5.198,-0.882,0.149,82.4,green,249,TRUE
59,1660778423.961,3518,-2705,882,4.539,-1.5,-0.063,79.5,yellow,249,TRUE
60,1660778424.15,2465,3357,750,3.595,-1.336,2.061,104.3,red,249,TRUE
61,1660778424.254,3219,4039,3348,3.21,-1.388,-0.834,93.7,blue,249,TRUE
62,1660778424.348,2716,-2801,2526,5.2,-0.875,0.156,78.2,green,249,TRUE
63,1660778424.645,3527,-2689,882,4.533,-1.496,-0.063,87.3,yellow,249,TRUE
64,1660778424.826,2473,3359,750,3.593,-1.336,2.062,93.6,red,249,TRUE
65,1660778424.919,3164,3998,3348,3.16,-1.388,-0.875,91.8,blue,249,TRUE
66,1660778425.011,2746,-2788,2526,5.196,-0.87,0.139,94.8,green,249,TRUE
67,1660778425.31,3557,-2682,882,4.523,-1.499,-0.068,78.4,yellow,249,TRUE
68,1660778425.482,2487,3357,750,3.593,-1.337,2.052,93.7,red,249,TRUE
69,1660778425.576,3173,4040,3348,3.139,-1.388,-0.842,82.9,blue,249,TRUE
70,1660778425.661,2729,-2774,2526,5.196,-0.869,0.142,77.8,green,249,TRUE
71,1660778425.942,3583,-2661,882,4.497,-1.487,-0.079,85.3,yellow,249,TRUE
72,1660778426.121,2509,3354,750,3.584,-1.338,2.055,90.9,red,249,TRUE
73,1660778426.212,3175,4050,3348,3.135,-1.388,-0.854,93.8,blue,249,TRUE
74,1660778426.306,2727,-2789,2526,5.195,-0.868,0.141,93.7,green,249,TRUE
75,1660778426.65,3633,-2682,882,4.502,-1.494,-0.075,91.4,yellow,249,TRUE
76,1660778426.882,2492,3357,750,3.567,-1.337,2.076,100.2,red,249,TRUE
77,1660778426.982,3193,4073,3348,3.162,-1.39,-0.815,78.1,blue,249,TRUE
78,1660778427.06,2705,-2802,2526,5.2,-0.877,0.143,78.1,green,249,TRUE
79,1660778427.348,3718,-2703,882,4.686,-1.503,3.115,94.1,yellow,249,TRUE
80,1660778427.535,2452,3295,750,3.564,-1.338,2.076,93.6,red,249,TRUE
81,1660778427.629,3182,4091,3348,3.211,-1.382,-0.81,93.7,blue,249,TRUE
82,1660778427.723,2794,-2780,2526,5.203,-0.879,0.154,95.0,green,249,TRUE
83,1660778428.06,3664,-2699,882,4.947,-1.416,-2.726,93.7,yellow,249,TRUE
84,1660778428.264,2430,3271,750,3.564,-1.338,2.069,93.4,red,249,TRUE
85,1660778428.358,3133,4025,3348,3.257,-1.369,-0.834,94.1,blue,249,TRUE
86,1660778428.452,2802,-2790,2526,5.201,-0.874,0.14,93.7,green,249,TRUE
87,1660778428.787,3607,-2692,882,5.054,-1.542,-3.131,93.8,yellow,249,TRUE
88,1660778428.984,2404,3245,750,3.564,-1.34,2.066,93.7,red,249,TRUE
89,1660778429.078,3107,3992,3348,3.277,-1.376,-0.832,97.1,blue,249,TRUE
90,1660778429.178,2784,-2809,2526,5.205,-0.864,0.148,83.6,green,249,TRUE
91,1660778429.48,3563,-2691,882,5.051,-1.529,-3.121,93.8,yellow,249,TRUE
92,1660778429.807,3112,3997,3348,3.255,-1.378,-0.942,93.7,blue,249,TRUE
93,1660778429.901,2762,-2817,2526,5.207,-0.863,0.147,83.2,green,249,TRUE
94,1660778430.443,2375,3229,750,3.562,-1.34,2.066,93.7,red,249,TRUE
95,1660778430.537,3048,3943,3348,3.311,-1.373,-0.688,93.7,blue,249,TRUE
96,1660778430.63,2763,-2821,2526,5.207,-0.867,0.148,99.2,green,249,TRUE
97,1660778430.917,3525,-2686,882,4.732,-1.328,-2.959,83.2,yellow,249,TRUE
98,1660778431.095,2388,3237,750,3.556,-1.342,2.061,97.2,red,249,TRUE
99,1660778431.193,3066,3991,3348,3.279,-1.378,-0.672,83.8,blue,249,TRUE
100,1660778431.621,3483,-2694,882,5.025,-1.294,0.911,93.4,yellow,249,TRUE
101,1660778431.824,2461,3270,750,3.557,-1.343,2.053,93.8,red,249,TRUE
102,1660778431.917,3055,3984,3348,3.179,-1.396,-0.781,84.1,blue,249,TRUE
103,1660778432.001,2753,-2780,2526,5.202,-0.865,0.14,93.7,green,249,TRUE
104,1660778432.287,3510,-2700,882,4.963,-1.157,0.829,93.7,yellow,249,TRUE
105,1660778432.474,2467,3279,750,3.557,-1.342,2.063,93.7,red,249,TRUE
106,1660778432.568,3043,3897,3348,3.182,-1.393,-0.724,78.1,blue,249,TRUE
107,1660778432.955,3520,-2703,882,4.915,-1.166,0.828,94.3,yellow,249,TRUE
108,1660778433.377,2739,-2775,2526,5.204,-0.869,0.142,93.8,green,249,TRUE
109,1660778433.682,3545,-2709,882,4.883,-1.175,0.863,96.5,yellow,249,TRUE
110,1660778433.872,2383,3213,750,3.534,-1.343,2.065,95.9,red,249,TRUE
111,1660778433.97,3039,3916,3348,3.238,-1.374,-0.853,79.4,blue,249,TRUE
112,1660778434.049,2719,-2789,2526,5.207,-0.868,0.147,78.2,green,249,TRUE
113,1660778434.34,3567,-2714,882,4.867,-1.172,0.855,93.7,yellow,249,TRUE
114,1660778434.527,2372,3204,750,3.521,-1.342,2.09,93.5,red,249,TRUE
115,1660778434.621,2979,3844,3348,3.254,-1.37,-0.832,104.7,blue,249,TRUE
116,1660778434.726,2675,-2825,2526,5.209,-0.866,0.149,78.3,green,249,TRUE
117,1660778435.019,3607,-2726,882,4.868,-1.194,0.837,93.8,yellow,249,TRUE
118,1660778435.21,2396,3194,750,3.505,-1.34,2.106,94.0,red,249,TRUE
119,1660778435.304,2978,3829,3348,3.219,-1.378,-0.854,93.7,blue,249,TRUE
120,1660778435.398,2679,-2816,2526,5.209,-0.867,0.151,93.8,green,249,TRUE
121,1660778435.685,3626,-2725,882,4.881,-1.168,0.825,93.7,yellow,249,TRUE
122,1660778435.935,2425,3221,750,3.503,-1.34,2.109,86.4,red,249,TRUE
123,1660778436.021,2945,3782,3348,3.212,-1.385,-0.829,94.1,blue,249,TRUE
124,1660778436.115,2704,-2804,2526,5.21,-0.863,0.148,87.5,green,249,TRUE
125,1660778436.437,3682,-2725,882,4.871,-1.18,0.854,93.8,yellow,249,TRUE
126,1660778436.625,2450,3241,750,3.503,-1.34,2.105,87.2,red,249,TRUE
127,1660778436.712,2997,3865,3348,3.24,-1.379,-0.782,93.7,blue,249,TRUE
128,1660778437.146,3737,-2726,882,4.869,-1.173,0.831,98.2,yellow,249,TRUE
129,1660778437.462,3019,3930,3348,3.252,-1.379,-0.806,94.0,blue,249,TRUE
130,1660778437.556,2686,-2814,2526,5.209,-0.857,0.146,93.8,green,249,TRUE
131,1660778439.054,2478,3268,750,3.5,-1.338,2.109,93.8,red,249,TRUE
132,1660778439.261,2643,-2827,2526,5.209,-0.858,0.147,93.7,green,249,TRUE
133,1660778439.574,3795,-2729,882,4.871,-1.172,0.841,95.0,yellow,249,TRUE
134,1660778439.765,2450,3234,750,3.5,-1.337,2.11,93.7,red,249,TRUE
135,1660778439.859,2890,3858,3348,3.444,-1.406,-0.682,95.9,blue,249,TRUE
136,1660778439.956,2634,-2825,2526,5.207,-0.862,0.146,83.5,green,249,TRUE
137,1660778440.268,3845,-2726,882,4.872,-1.178,0.874,93.7,yellow,249,TRUE
138,1660778440.456,2495,3249,750,3.498,-1.341,2.086,93.7,red,249,TRUE
139,1660778440.549,2930,3924,3348,3.615,-1.39,-0.695,78.0,blue,249,TRUE
140,1660778440.628,2640,-2819,2526,5.207,-0.863,0.147,94.7,green,249,TRUE
141,1660778440.925,3863,-2736,882,4.88,-1.169,0.857,99.7,yellow,249,TRUE
142,1660778441.12,2497,3254,750,3.497,-1.343,2.087,94.5,red,249,TRUE
143,1660778441.214,2930,3962,3348,3.355,-1.354,-0.629,93.6,blue,249,TRUE
144,1660778441.308,2587,-2835,2526,5.207,-0.863,0.147,78.1,green,249,TRUE
145,1660778441.606,3925,-2730,882,4.884,-1.161,0.852,95.2,yellow,249,TRUE
146,1660778441.801,2498,3248,750,3.498,-1.343,2.086,93.7,red,249,TRUE
147,1660778441.894,2943,3955,3348,3.123,-1.39,-0.766,100.3,blue,249,TRUE
148,1660778441.995,2580,-2840,2526,5.207,-0.863,0.147,93.8,green,249,TRUE
149,1660778442.306,3921,-2731,882,4.881,-1.162,0.836,93.7,yellow,249,TRUE
150,1660778442.494,2500,3249,750,3.497,-1.343,2.083,93.7,red,249,TRUE
151,1660778442.587,2982,4064,3348,2.991,-1.406,-0.922,78.7,blue,249,TRUE
152,1660778442.667,2608,-2833,2526,5.213,-0.861,0.157,85.4,green,249,TRUE
153,1660778444.151,2553,3283,750,3.496,-1.343,2.086,87.6,red,249,TRUE
154,1660778444.348,2530,-2861,2526,5.213,-0.858,0.159,78.1,green,249,TRUE
155,1660778445.895,2554,3304,750,4.054,-1.23,1.892,101.2,red,249,TRUE
156,1660778446.012,2871,4019,3348,4.688,-1.307,-0.55,93.7,blue,249,TRUE
157,1660778446.106,2520,-2871,2526,5.214,-0.863,0.154,94.3,green,249,TRUE
158,1660778447.587,2603,3431,750,5.063,-1.299,1.671,94.2,red,249,TRUE
159,1660778447.806,2602,-2849,2526,5.215,-0.858,0.157,109.3,green,249,TRUE
160,1660778448.156,3935,-2733,882,4.868,-1.16,0.846,96.2,yellow,249,TRUE
161,1660778448.347,2620,3595,750,5.512,-1.355,1.903,94.0,red,249,TRUE
162,1660778449.835,3941,-2737,882,4.876,-1.151,0.848,94.0,yellow,249,TRUE
163,1660778450.255,2612,-2848,2526,5.217,-0.854,0.149,78.1,green,249,TRUE
164,1660778450.567,3946,-2747,882,4.879,-1.145,0.846,98.6,yellow,249,TRUE
165,1660778450.761,2560,4051,750,5.52,-1.372,1.52,93.7,red,249,TRUE
166,1660778450.87,2777,4822,3348,4.141,-1.414,-0.349,78.1,blue,249,TRUE
167,1660778450.948,2642,-2838,2526,5.217,-0.856,0.149,84.4,green,249,TRUE
168,1660778451.281,3948,-2750,882,4.878,-1.143,0.84,93.8,yellow,249,TRUE
169,1660778451.468,2534,4352,750,5.728,-1.373,1.963,93.7,red,249,TRUE
170,1660778451.562,2699,5014,3348,4.117,-1.419,-0.656,95.1,blue,249,TRUE
171,1660778451.658,2666,-2826,2526,5.221,-0.915,0.171,73.8,green,249,TRUE
172,1660778451.921,3945,-2757,882,4.879,-1.136,0.826,95.4,yellow,249,TRUE
173,1660778452.126,2558,4705,750,5.789,-1.362,1.994,99.9,red,249,TRUE
174,1660778452.226,2641,5193,3348,4.058,-1.396,-0.585,78.1,blue,249,TRUE
175,1660778452.304,2665,-2827,2526,5.22,-0.88,0.164,95.1,green,249,TRUE
176,1660778452.618,3948,-2771,882,4.878,-1.148,0.842,98.1,yellow,249,TRUE
177,1660778452.811,2540,4962,750,5.624,-1.379,2.059,93.7,red,249,TRUE
178,1660778452.905,2711,5499,3348,3.991,-1.413,-0.672,93.7,blue,249,TRUE
179,1660778452.998,2695,-2819,2526,5.219,-0.87,0.153,93.5,green,249,TRUE
180,1660778453.313,3948,-2782,882,4.874,-1.14,0.815,93.7,yellow,249,TRUE
181,1660778453.5,2526,5243,750,5.712,-1.377,2.021,93.7,red,249,TRUE
182,1660778453.594,2653,5711,3348,4.022,-1.371,-1.045,81.7,blue,249,TRUE
183,1660778453.678,2665,-2833,2526,5.216,-0.878,0.143,82.1,green,249,TRUE
184,1660778453.979,3956,-2780,882,4.872,-1.146,0.821,93.7,yellow,249,TRUE
185,1660778454.185,2494,5527,750,5.757,-1.354,2.015,90.4,red,249,TRUE
186,1660778454.276,2579,5963,3348,4.112,-1.374,-0.861,78.1,blue,249,TRUE
187,1660778454.354,2683,-2830,2526,5.212,-0.87,0.146,93.7,green,249,TRUE
188,1660778454.651,3959,-2783,882,4.88,-1.138,0.826,87.9,yellow,249,TRUE
189,1660778454.832,2435,5802,750,5.639,-1.365,1.97,93.7,red,249,TRUE
190,1660778454.926,2551,6253,3348,4.28,-1.379,-0.808,93.7,blue,249,TRUE
191,1660778455.02,2642,-2849,2526,5.21,-0.868,0.141,95.3,green,249,TRUE
192,1660778455.313,3971,-2788,882,4.88,-1.146,0.85,93.7,yellow,249,TRUE
193,1660778455.5,2418,6149,750,5.931,-1.355,1.954,93.7,red,249,TRUE
194,1660778455.734,2597,-2867,2526,5.211,-0.862,0.143,77.9,green,249,TRUE
195,1660778456.277,2413,6462,750,5.853,-1.352,2.074,93.6,red,249,TRUE
196,1660778456.371,2494,6462,3348,4.442,-1.379,-0.81,78.2,blue,249,TRUE
197,1660778456.449,2634,-2862,2526,5.219,-0.879,0.151,93.7,green,249,TRUE
198,1660778456.776,3957,-2786,882,4.868,-1.145,0.804,78.1,yellow,249,TRUE
199,1660778456.948,2356,6664,750,5.889,-1.354,2.013,93.7,red,249,TRUE
200,1660778457.041,2518,6824,3348,4.452,-1.382,-0.845,95.3,blue,249,TRUE
201,1660778457.137,2623,-2860,2526,5.216,-0.9,0.145,104.0,green,249,TRUE
202,1660778457.444,3954,-2787,882,4.867,-1.138,0.757,93.7,yellow,249,TRUE
203,1660778457.631,2381,6809,750,5.933,-1.352,2.027,93.5,red,249,TRUE
204,1660778457.725,2494,6985,3348,4.444,-1.385,-0.873,78.2,blue,249,TRUE
205,1660778457.803,2601,-2869,2526,5.223,-0.874,0.155,93.6,green,249,TRUE
206,1660778458.132,3959,-2785,882,4.861,-1.134,0.729,101.5,yellow,249,TRUE
207,1660778458.328,2413,6942,750,5.929,-1.352,2.035,77.8,red,249,TRUE
208,1660778458.405,2451,6965,3348,4.429,-1.382,-0.797,94.1,blue,249,TRUE
209,1660778458.5,2626,-2875,2526,5.227,-0.865,0.185,78.0,green,249,TRUE
210,1660778459.956,2418,6970,750,5.926,-1.353,2.034,93.7,red,249,TRUE
211,1660778460.19,2580,-2898,2526,5.229,-0.857,0.197,78.7,green,249,TRUE
212,1660778461.638,2444,6972,750,5.914,-1.354,2.039,91.9,red,249,TRUE
213,1660778461.839,2563,-2904,2526,5.235,-0.904,0.208,95.4,green,249,TRUE
214,1660778462.382,2427,6949,750,5.904,-1.354,2.044,93.7,red,249,TRUE
215,1660778462.476,2456,7012,3348,4.31,-1.377,-0.849,93.7,blue,249,TRUE
216,1660778462.569,2605,-2891,2526,5.224,-0.946,0.184,96.2,green,249,TRUE
217,1660778464.051,2441,7004,750,5.835,-1.348,2.13,93.7,red,249,TRUE
218,1660778464.16,2453,7003,3348,4.298,-1.378,-0.852,86.3,blue,249,TRUE
219,1660778464.605,3946,-2768,882,4.871,-1.167,0.71,93.3,yellow,249,TRUE
220,1660778464.792,2431,7029,750,5.634,-1.367,2.206,93.5,red,249,TRUE
221,1660778464.886,2435,6958,3348,4.298,-1.373,-0.82,78.4,blue,249,TRUE
222,1660778464.964,2619,-2874,2526,5.245,-0.921,0.193,93.7,green,249,TRUE
223,1660778465.302,3934,-2756,882,4.873,-1.145,0.651,93.7,yellow,249,TRUE
224,1660778465.49,2434,7011,750,5.9,-1.353,2.113,78.1,red,249,TRUE
225,1660778465.568,2434,7026,3348,4.302,-1.372,-0.803,78.1,blue,249,TRUE
226,1660778465.988,3928,-2742,882,4.874,-1.145,0.693,93.8,yellow,249,TRUE
227,1660778466.182,2490,7050,750,5.935,-1.345,2.101,92.4,red,249,TRUE
228,1660778466.274,2414,7148,3348,4.304,-1.373,-0.806,93.8,blue,249,TRUE
229,1660778466.384,2602,-2877,2526,5.235,-0.9,0.207,78.1,green,249,TRUE
230,1660778466.672,3932,-2733,882,4.873,-1.151,0.729,87.1,yellow,249,TRUE
231,1660778466.884,2526,7045,750,5.916,-1.346,2.109,93.7,red,249,TRUE
232,1660778466.978,2427,7177,3348,4.295,-1.381,-0.815,78.1,blue,249,TRUE
233,1660778467.056,2584,-2876,2526,5.215,-0.908,0.164,82.2,green,249,TRUE
234,1660778467.362,3925,-2735,882,4.89,-1.157,0.769,95.3,yellow,249,TRUE
235,1660778467.551,2533,7056,750,5.877,-1.349,2.116,93.6,red,249,TRUE
236,1660778467.645,2467,7201,3348,4.31,-1.377,-0.801,83.1,blue,249,TRUE
237,1660778467.728,2568,-2876,2526,5.219,-0.951,0.161,79.3,green,249,TRUE
238,1660778468.01,3918,-2736,882,4.873,-1.163,0.755,93.7,yellow,249,TRUE
239,1660778468.201,2555,7098,750,5.864,-1.349,2.128,94.0,red,249,TRUE
240,1660778468.295,2478,7214,3348,4.314,-1.374,-0.78,78.2,blue,249,TRUE
241,1660778468.388,2588,-2861,2526,5.226,-0.916,0.203,77.7,green,249,TRUE
242,1660778468.694,3916,-2739,882,4.863,-1.176,0.754,93.8,yellow,249,TRUE
243,1660778468.881,2523,7148,750,5.865,-1.346,2.141,93.7,red,249,TRUE
244,1660778468.975,2453,7235,3348,4.31,-1.379,-0.818,93.7,blue,249,TRUE
245,1660778469.069,2614,-2853,2526,5.233,-0.949,0.181,97.7,green,249,TRUE
246,1660778469.382,3892,-2750,882,4.809,-1.203,0.746,93.7,yellow,249,TRUE
247,1660778469.569,2536,7198,750,5.864,-1.346,2.142,98.4,red,249,TRUE
248,1660778469.671,2478,7254,3348,4.316,-1.377,-0.783,70.4,blue,249,TRUE
249,1660778469.742,2625,-2851,2526,5.229,-0.898,0.193,93.7,green,249,TRUE
250,1660778470.054,3903,-2746,882,4.837,-1.186,0.707,97.7,yellow,249,TRUE
251,1660778470.267,2553,7247,750,5.849,-1.348,2.146,94.0,red,249,TRUE
252,1660778470.361,2494,7260,3348,4.311,-1.374,-0.784,78.2,blue,249,TRUE
253,1660778470.439,2599,-2844,2526,5.228,-0.894,0.18,93.8,green,249,TRUE
254,1660778470.757,3892,-2745,882,4.85,-1.155,0.676,93.7,yellow,249,TRUE
255,1660778470.945,2560,7284,750,5.847,-1.348,2.146,93.7,red,249,TRUE
256,1660778471.039,2530,7304,3348,4.3,-1.377,-0.796,78.1,blue,249,TRUE
257,1660778471.117,2644,-2818,2526,5.234,-0.86,0.192,97.6,green,249,TRUE
258,1660778471.37,3868,-2740,882,4.856,-1.16,0.707,94.7,yellow,249,TRUE
259,1660778471.559,2579,7328,750,5.847,-1.347,2.137,93.7,red,249,TRUE
260,1660778471.653,2533,7306,3348,4.306,-1.379,-0.819,83.7,blue,249,TRUE
261,1660778471.737,2647,-2821,2526,5.227,-0.85,0.183,93.8,green,249,TRUE
262,1660778472.033,3869,-2743,882,4.856,-1.16,0.708,93.7,yellow,249,TRUE
263,1660778472.225,2585,7371,750,5.851,-1.35,2.121,94.0,red,249,TRUE
264,1660778472.319,2517,7357,3348,4.31,-1.376,-0.783,78.1,blue,249,TRUE
265,1660778472.397,2655,-2818,2526,5.22,-0.868,0.159,95.2,green,249,TRUE
266,1660778472.697,3880,-2746,882,4.861,-1.144,0.674,94.1,yellow,249,TRUE
267,1660778472.886,2607,7391,750,5.844,-1.353,2.119,94.0,red,249,TRUE
268,1660778472.98,2554,7431,3348,4.294,-1.372,-0.803,93.7,blue,249,TRUE
269,1660778473.074,2662,-2827,2526,5.224,-0.882,0.141,79.4,green,249,TRUE
270,1660778473.379,3902,-2752,882,4.864,-1.15,0.675,93.7,yellow,249,TRUE
271,1660778473.566,2629,7464,750,5.826,-1.355,2.121,96.2,red,249,TRUE
272,1660778473.667,2559,7419,3348,4.279,-1.378,-0.851,85.4,blue,249,TRUE
273,1660778473.752,2674,-2823,2526,5.212,-0.932,0.148,93.7,green,249,TRUE
274,1660778474.049,3911,-2758,882,4.868,-1.139,0.651,93.7,yellow,249,TRUE
275,1660778474.248,2631,7509,750,5.832,-1.355,2.121,94.0,red,249,TRUE
276,1660778474.467,2721,-2808,2526,5.221,-0.934,0.185,93.7,green,249,TRUE
277,1660778474.793,3936,-2763,882,4.871,-1.13,0.636,93.7,yellow,249,TRUE
278,1660778474.981,2622,7481,750,5.829,-1.355,2.122,93.7,red,249,TRUE
279,1660778476.148,2803,-2790,2526,5.216,-0.924,0.167,86.6,green,249,TRUE
280,1660778476.484,3924,-2771,882,4.869,-1.117,0.658,93.7,yellow,249,TRUE
281,1660778476.674,2605,7468,750,5.805,-1.354,2.148,92.7,red,249,TRUE
282,1660778476.767,2624,7321,3348,4.296,-1.374,-0.839,78.2,blue,249,TRUE
283,1660778476.845,2843,-2781,2526,5.215,-0.947,0.163,93.8,green,249,TRUE
284,1660778477.159,3919,-2770,882,4.875,-1.124,0.627,82.9,yellow,249,TRUE
285,1660778477.336,2584,7418,750,5.791,-1.353,2.171,93.7,red,249,TRUE
286,1660778477.429,2619,7355,3348,4.306,-1.374,-0.81,78.1,blue,249,TRUE
287,1660778477.523,2838,-2787,2526,5.217,-0.937,0.153,78.2,green,249,TRUE
288,1660778477.839,3918,-2769,882,4.883,-1.113,0.636,93.7,yellow,249,TRUE
289,1660778478.042,2564,7378,750,5.796,-1.352,2.17,93.8,red,249,TRUE
290,1660778478.135,2614,7396,3348,4.324,-1.377,-0.783,84.5,blue,249,TRUE
291,1660778478.22,2824,-2792,2526,5.217,-0.911,0.153,93.7,green,249,TRUE
292,1660778478.532,3962,-2772,882,4.88,-1.121,0.65,93.8,yellow,249,TRUE
293,1660778478.719,2541,7340,750,5.794,-1.352,2.172,93.7,red,249,TRUE
294,1660778478.907,2812,-2798,2526,5.216,-0.909,0.154,93.8,green,249,TRUE
295,1660778479.2,3974,-2779,882,4.88,-1.114,0.646,78.1,yellow,249,TRUE
296,1660778479.372,2513,7300,750,5.796,-1.35,2.176,93.7,red,249,TRUE
297,1660778479.465,2588,7381,3348,4.22,-1.371,-0.732,78.1,blue,249,TRUE
298,1660778480.862,3989,-2784,882,4.871,-1.15,0.697,109.6,yellow,249,TRUE
299,1660778481.065,2490,7273,750,5.798,-1.35,2.177,95.9,red,249,TRUE
300,1660778481.162,2595,7361,3348,4.069,-1.377,-0.744,83.9,blue,249,TRUE
301,1660778482.748,2465,7237,750,5.799,-1.352,2.159,95.3,red,249,TRUE
302,1660778482.844,2576,7363,3348,4.008,-1.368,-0.772,78.1,blue,249,TRUE
303,1660778484.503,2432,7196,750,5.793,-1.356,2.161,93.6,red,249,TRUE
304,1660778484.596,2591,7338,3348,4.819,-1.377,-0.447,79.8,blue,249,TRUE
305,1660778484.69,2762,-2827,2526,5.212,-0.865,0.122,94.1,green,249,TRUE
306,1660778485.983,4026,-2779,882,4.893,-1.133,0.719,93.7,yellow,249,TRUE
307,1660778487.33,2694,7309,3348,0.912,-1.289,-0.632,93.7,blue,249,TRUE
308,1660778487.424,2762,-2827,2526,5.229,-0.893,0.172,78.1,green,249,TRUE
309,1660778487.753,4012,-2776,882,4.893,-1.133,0.719,95.1,yellow,249,TRUE
310,1660778489.079,2769,7268,3348,0.838,-1.396,-0.604,80.3,blue,249,TRUE
311,1660778489.16,2759,-2820,2526,5.223,-0.879,0.156,95.4,green,249,TRUE
312,1660778489.474,4009,-2776,882,4.891,-1.13,0.696,93.4,yellow,249,TRUE
313,1660778490.831,2892,7170,3348,0.839,-1.352,-0.697,77.7,blue,249,TRUE
314,1660778490.909,2769,-2808,2526,5.215,-0.85,0.145,94.1,green,249,TRUE
315,1660778492.567,2797,-2795,2526,5.215,-0.84,0.142,95.3,green,249,TRUE
316,1660778493.849,3987,-2772,882,4.893,-1.139,0.719,93.7,yellow,249,TRUE
317,1660778494.099,2966,7126,3348,0.704,-1.356,-0.583,97.7,blue,249,TRUE
318,1660778494.198,2802,-2798,2526,5.214,-0.837,0.142,79.1,green,249,TRUE
319,1660778494.48,3997,-2762,882,4.892,-1.134,0.709,93.7,yellow,249,TRUE
320,1660778494.684,3058,7071,3348,0.702,-1.353,-0.574,80.7,blue,249,TRUE
321,1660778494.78,2774,-2798,2526,5.214,-0.836,0.142,78.2,green,249,TRUE
322,1660778495.046,3999,-2761,882,4.892,-1.132,0.707,93.8,yellow,249,TRUE
323,1660778495.225,3125,7028,3348,0.706,-1.355,-0.584,93.4,blue,249,TRUE
324,1660778495.318,2771,-2798,2526,5.216,-0.832,0.144,94.1,green,249,TRUE
325,1660778495.615,4006,-2757,882,4.89,-1.13,0.705,94.1,yellow,249,TRUE
326,1660778495.866,3249,6962,3348,0.702,-1.356,-0.585,78.0,blue,249,TRUE
327,1660778495.944,2786,-2798,2526,5.223,-0.817,0.152,95.3,green,249,TRUE
328,1660778496.251,3984,-2753,882,4.889,-1.13,0.706,93.8,yellow,249,TRUE
329,1660778496.438,3368,6833,3348,0.705,-1.356,-0.585,93.7,blue,249,TRUE
330,1660778496.532,2790,-2794,2526,5.222,-0.819,0.152,77.8,green,249,TRUE
331,1660778496.838,3970,-2747,882,4.883,-1.143,0.731,93.7,yellow,249,TRUE
332,1660778497.026,3450,6782,3348,0.706,-1.354,-0.579,93.9,blue,249,TRUE
333,1660778498.716,3549,6759,3348,0.699,-1.366,-0.604,78.1,blue,249,TRUE
334,1660778498.809,2804,-2784,2526,5.222,-0.833,0.16,93.7,green,249,TRUE
335,1660778499.321,3641,6606,3348,0.69,-1.369,-0.628,78.2,blue,249,TRUE
336,1660778499.399,2834,-2769,2526,5.222,-0.834,0.16,93.7,green,249,TRUE
337,1660778499.721,3980,-2760,882,4.873,-1.142,0.726,93.7,yellow,249,TRUE
338,1660778499.908,3677,6568,3348,0.685,-1.376,-0.657,78.1,blue,249,TRUE
339,1660778499.986,2848,-2766,2526,5.222,-0.839,0.163,94.9,green,249,TRUE
340,1660778500.361,3956,-2756,882,4.871,-1.139,0.717,93.7,yellow,249,TRUE
341,1660778500.61,3679,6548,3348,0.685,-1.357,-0.6,103.2,blue,249,TRUE
342,1660778500.714,2869,-2756,2526,5.224,-0.84,0.165,93.6,green,249,TRUE
343,1660778501.043,3962,-2758,882,4.869,-1.134,0.709,93.8,yellow,249,TRUE
344,1660778501.386,2872,-2762,2526,5.225,-0.837,0.164,95.4,green,249,TRUE
345,1660778501.708,3958,-2754,882,4.866,-1.139,0.721,93.9,yellow,249,TRUE
346,1660778501.958,3715,6498,3348,0.516,-1.382,-0.65,78.1,blue,249,TRUE
347,1660778502.037,2873,-2766,2526,5.225,-0.836,0.158,93.8,green,249,TRUE
348,1660778502.395,3958,-2753,882,4.867,-1.137,0.718,93.8,yellow,249,TRUE
349,1660778502.702,2846,-2783,2526,5.224,-0.834,0.157,93.7,green,249,TRUE
350,1660778503.016,3958,-2756,882,4.866,-1.132,0.702,94.0,yellow,249,TRUE
351,1660778503.29,3730,6464,3348,0.479,-1.379,-0.629,95.3,blue,249,TRUE
352,1660778503.385,2844,-2782,2526,5.224,-0.833,0.166,93.7,green,249,TRUE
353,1660778503.728,3972,-2759,882,4.861,-1.129,0.685,94.0,yellow,249,TRUE
354,1660778503.931,3772,6429,3348,0.479,-1.378,-0.607,78.4,blue,249,TRUE
355,1660778504.009,2876,-2777,2526,5.224,-0.832,0.166,93.4,green,249,TRUE
356,1660778504.302,3971,-2764,882,4.856,-1.138,0.697,93.7,yellow,249,TRUE
357,1660778504.489,3785,6405,3348,0.476,-1.382,-0.614,93.8,blue,249,TRUE
358,1660778504.583,2902,-2765,2526,5.224,-0.834,0.167,123.5,green,249,TRUE
359,1660778504.91,3971,-2761,882,4.853,-1.134,0.695,93.8,yellow,249,TRUE
360,1660778505.162,3783,6374,3348,0.475,-1.38,-0.598,87.4,blue,249,TRUE
361,1660778506.865,3770,6354,3348,0.472,-1.379,-0.603,93.7,blue,249,TRUE
362,1660778508.287,3958,-2758,882,4.865,-1.13,0.709,109.4,yellow,249,TRUE
363,1660778508.552,3759,6425,3348,0.469,-1.379,-0.595,93.7,blue,249,TRUE
364,1660778508.646,2905,-2761,2526,5.222,-0.843,0.161,93.4,green,249,TRUE
365,1660778511.862,3738,6419,3348,0.625,-1.362,-0.616,93.7,blue,249,TRUE
366,1660778514.512,3759,6518,3348,0.685,-1.364,-0.723,93.8,blue,249,TRUE
367,1660778514.606,2899,-2764,2526,5.219,-0.854,0.148,93.3,green,249,TRUE
368,1660778514.939,3951,-2742,882,4.851,-1.134,0.687,93.7,yellow,249,TRUE
369,1660778515.128,3821,6549,3348,0.687,-1.365,-0.724,98.0,blue,249,TRUE
370,1660778515.226,2895,-2763,2526,5.219,-0.855,0.153,93.7,green,249,TRUE
371,1660778515.523,3952,-2741,882,4.851,-1.129,0.678,93.7,yellow,249,TRUE
372,1660778515.717,3825,6565,3348,0.701,-1.35,-0.669,93.4,blue,249,TRUE
373,1660778515.81,2872,-2767,2526,5.22,-0.856,0.154,94.1,green,249,TRUE
374,1660778517.386,3818,6602,3348,0.681,-1.356,-0.669,78.4,blue,249,TRUE
375,1660778517.465,2872,-2769,2526,5.217,-0.854,0.147,109.3,green,249,TRUE
376,1660778517.798,3959,-2745,882,4.845,-1.148,0.723,95.0,yellow,249,TRUE
377,1660778517.987,3769,6538,3348,0.684,-1.355,-0.684,93.7,blue,249,TRUE
378,1660778518.096,2869,-2771,2526,5.22,-0.856,0.147,126.5,green,249,TRUE
379,1660778519.785,2876,-2769,2526,5.216,-0.865,0.141,93.7,green,249,TRUE
380,1660778520.051,3950,-2744,882,4.845,-1.136,0.706,93.8,yellow,249,TRUE
381,1660778520.348,2884,-2766,2526,5.214,-0.869,0.142,78.1,green,249,TRUE
382,1660778520.646,3958,-2744,882,4.843,-1.134,0.693,85.2,yellow,249,TRUE
383,1660778520.825,3744,6633,3348,0.689,-1.356,-0.675,94.1,blue,249,TRUE
384,1660778520.919,2852,-2776,2526,5.213,-0.864,0.14,78.0,green,249,TRUE
385,1660778521.22,3956,-2742,882,4.842,-1.131,0.683,93.8,yellow,249,TRUE
386,1660778521.47,3762,6687,3348,0.692,-1.352,-0.662,93.8,blue,249,TRUE
387,1660778521.563,2823,-2786,2526,5.214,-0.867,0.141,78.1,green,249,TRUE
388,1660778521.866,3950,-2739,882,4.843,-1.125,0.677,93.7,yellow,249,TRUE
389,1660778522.053,3774,6716,3348,0.693,-1.35,-0.652,93.7,blue,249,TRUE
390,1660778522.147,2804,-2793,2526,5.214,-0.861,0.136,96.4,green,249,TRUE
391,1660778522.432,3961,-2742,882,4.841,-1.124,0.668,93.7,yellow,249,TRUE
392,1660778522.62,3792,6698,3348,0.69,-1.356,-0.673,97.7,blue,249,TRUE
393,1660778522.717,2808,-2788,2526,5.215,-0.868,0.137,93.7,green,249,TRUE
394,1660778523.302,3860,6732,3348,0.69,-1.369,-0.662,93.8,blue,249,TRUE
395,1660778523.396,2812,-2785,2526,5.215,-0.889,0.135,93.6,green,249,TRUE
396,1660778523.682,3981,-2748,882,4.832,-1.142,0.7,93.3,yellow,249,TRUE
397,1660778523.869,3901,6673,3348,0.83,-1.43,-0.585,93.7,blue,249,TRUE
398,1660778523.963,2823,-2777,2526,5.215,-0.885,0.134,93.7,green,249,TRUE
399,1660778524.281,3935,-2740,882,4.835,-1.13,0.677,94.0,yellow,249,TRUE
400,1660778524.469,3914,6657,3348,1.318,-1.41,-0.72,109.3,blue,249,TRUE
401,1660778526.148,3827,6553,3348,2.509,-1.456,-0.073,95.0,blue,249,TRUE
402,1660778526.243,2822,-2782,2526,5.216,-0.882,0.136,93.7,green,249,TRUE
403,1660778526.766,3750,6402,3348,2.494,-1.442,-0.455,93.7,blue,249,TRUE
404,1660778526.86,2815,-2783,2526,5.216,-0.882,0.136,93.7,green,249,TRUE
405,1660778527.159,3881,-2732,882,4.837,-1.118,0.676,94.7,yellow,249,TRUE
406,1660778527.347,3683,6210,3348,2.381,-1.429,-0.429,93.7,blue,249,TRUE
407,1660778527.441,2816,-2784,2526,5.215,-0.884,0.133,93.7,green,249,TRUE
408,1660778527.743,3845,-2723,882,4.83,-1.127,0.689,93.7,yellow,249,TRUE
409,1660778527.995,3666,6035,3348,2.275,-1.386,-0.392,93.7,blue,249,TRUE
410,1660778528.089,2816,-2782,2526,5.229,-0.88,0.146,97.3,green,249,TRUE
411,1660778528.406,3850,-2723,882,4.826,-1.133,0.69,93.7,yellow,249,TRUE
412,1660778528.624,3614,5699,3348,2.155,-1.418,-0.304,101.4,blue,249,TRUE
413,1660778528.726,2800,-2786,2526,5.221,-0.873,0.136,93.8,green,249,TRUE
414,1660778530.301,3565,5321,3348,1.551,-1.453,-0.039,109.3,blue,249,TRUE
415,1660778530.41,2810,-2787,2526,5.225,-0.866,0.14,78.1,green,249,TRUE
416,1660778530.714,3860,-2727,882,4.821,-1.133,0.689,93.4,yellow,249,TRUE
417,1660778530.902,3524,4908,3348,1.209,-1.388,-0.512,93.7,blue,249,TRUE
418,1660778530.996,2813,-2793,2526,5.22,-0.873,0.141,78.1,green,249,TRUE
419,1660778531.295,3828,-2722,882,4.825,-1.122,0.674,93.7,yellow,249,TRUE
420,1660778531.484,3520,4520,3348,0.909,-1.405,-0.314,93.7,blue,249,TRUE
421,1660778531.578,2810,-2801,2526,5.221,-0.864,0.133,97.3,green,249,TRUE
422,1660778531.879,3789,-2713,882,4.823,-1.122,0.672,93.8,yellow,249,TRUE
423,1660778532.129,3495,4116,3348,0.801,-1.394,-0.313,85.3,blue,249,TRUE
424,1660778532.229,2806,-2801,2526,5.22,-0.855,0.128,78.1,green,249,TRUE
425,1660778532.511,3788,-2716,882,4.817,-1.131,0.687,93.6,yellow,249,TRUE
426,1660778532.845,2798,-2803,2526,5.22,-0.855,0.133,78.1,green,249,TRUE
427,1660778533.143,3776,-2716,882,4.821,-1.12,0.666,94.1,yellow,249,TRUE
428,1660778533.332,3536,3500,3348,0.593,-1.393,-0.488,94.0,blue,249,TRUE
429,1660778533.426,2792,-2812,2526,5.219,-0.857,0.13,109.4,green,249,TRUE
430,1660778533.746,3770,-2718,882,4.823,-1.118,0.665,93.7,yellow,249,TRUE
431,1660778533.996,3540,3133,3348,0.616,-1.41,-0.596,93.7,blue,249,TRUE
432,1660778534.09,2799,-2814,2526,5.217,-0.855,0.127,114.0,green,249,TRUE
433,1660778534.422,3786,-2719,882,4.816,-1.129,0.676,93.8,yellow,249,TRUE
434,1660778534.61,3590,2832,3348,0.702,-1.403,-0.872,99.2,blue,249,TRUE
435,1660778534.709,2799,-2814,2526,5.217,-0.856,0.125,93.9,green,249,TRUE
436,1660778535.022,3817,-2729,882,4.813,-1.136,0.661,93.7,yellow,249,TRUE
437,1660778535.241,3637,2581,3348,0.743,-1.4,-0.648,93.8,blue,249,TRUE
438,1660778536.903,3721,2413,3348,0.705,-1.386,-0.635,93.7,blue,249,TRUE
439,1660778536.997,2814,-2813,2526,5.22,-0.853,0.127,78.1,green,249,TRUE
440,1660778537.288,3857,-2733,882,4.814,-1.131,0.68,93.8,yellow,249,TRUE
441,1660778537.475,3770,2313,3348,0.697,-1.395,-0.699,93.8,blue,249,TRUE
442,1660778537.569,2840,-2807,2526,5.22,-0.852,0.124,78.1,green,249,TRUE
443,1660778537.897,3885,-2740,882,4.816,-1.121,0.664,95.0,yellow,249,TRUE
444,1660778538.218,2854,-2810,2526,5.224,-0.839,0.129,79.9,green,249,TRUE
445,1660778538.501,3881,-2739,882,4.816,-1.121,0.662,93.9,yellow,249,TRUE
446,1660778538.777,3889,2261,3348,0.724,-1.394,-0.689,93.7,blue,249,TRUE
447,1660778538.871,2872,-2810,2526,5.223,-0.838,0.129,78.2,green,249,TRUE
448,1660778539.419,3924,2286,3348,0.742,-1.396,-0.696,93.7,blue,249,TRUE
449,1660778539.513,2871,-2812,2526,5.224,-0.842,0.13,78.0,green,249,TRUE
450,1660778540.114,3906,2292,3348,0.754,-1.401,-0.704,94.1,blue,249,TRUE
451,1660778540.209,2889,-2810,2526,5.223,-0.843,0.129,78.1,green,249,TRUE
452,1660778540.49,3911,-2742,882,4.808,-1.126,0.661,93.8,yellow,249,TRUE
453,1660778540.686,3930,2305,3348,0.742,-1.389,-0.616,95.3,blue,249,TRUE
454,1660778542.367,3849,2199,3348,0.718,-1.382,-0.577,93.8,blue,249,TRUE
455,1660778542.461,2878,-2814,2526,5.234,-0.831,0.179,93.7,green,249,TRUE
456,1660778542.961,3854,2226,3348,0.722,-1.385,-0.593,93.6,blue,249,TRUE
457,1660778543.393,3893,-2757,882,4.367,-1.465,-0.084,94.1,yellow,249,TRUE
458,1660778545.38,3847,2197,3348,0.725,-1.384,-0.585,93.4,blue,249,TRUE
459,1660778547.14,3865,2208,3348,0.729,-1.386,-0.68,102.4,blue,249,TRUE
460,1660778547.258,2902,-2835,2526,5.227,-0.887,0.17,78.4,green,249,TRUE
461,1660778547.555,3700,-2735,882,4.787,-1.163,0.969,82.0,yellow,249,TRUE
462,1660778547.837,2884,-2840,2526,5.226,-0.884,0.171,93.7,green,249,TRUE
463,1660778548.169,3682,-2739,882,4.721,-1.15,0.981,89.3,yellow,249,TRUE
464,1660778548.368,3812,2163,3348,0.742,-1.394,-0.631,93.7,blue,249,TRUE
465,1660778551.114,3844,2163,3348,0.745,-1.385,-0.789,100.0,blue,249,TRUE
466,1660778555.611,3752,2072,3348,0.778,-1.392,-0.624,103.7,blue,249,TRUE
467,1660778555.998,3636,-2722,882,4.578,-1.15,0.896,93.7,yellow,249,TRUE
468,1660778559.112,3607,-2713,882,4.577,-1.136,0.904,86.2,yellow,249,TRUE
469,1660778559.651,3577,-2709,882,4.573,-1.134,0.87,94.0,yellow,249,TRUE
470,1660778559.87,3728,1954,3348,6.205,-1.409,-0.896,93.7,blue,249,TRUE
471,1660778560.171,3548,-2703,882,4.572,-1.144,0.909,83.1,yellow,249,TRUE
472,1660778560.395,3768,1973,3348,5.957,-1.402,-1.01,93.8,blue,249,TRUE
473,1660778560.504,2867,-2844,2526,5.226,-0.875,0.17,78.1,green,249,TRUE
474,1660778560.802,3512,-2698,882,4.573,-1.152,0.929,93.7,yellow,249,TRUE
475,1660778560.989,3763,1965,3348,5.817,-1.366,-0.927,93.6,blue,249,TRUE
476,1660778561.098,2857,-2843,2526,5.224,-0.875,0.168,77.9,green,249,TRUE
477,1660778561.389,3471,-2691,882,4.575,-1.143,0.918,95.2,yellow,249,TRUE
478,1660778561.594,3743,1951,3348,5.79,-1.383,-0.842,107.5,blue,249,TRUE
479,1660778563.254,3802,1968,3348,5.833,-1.383,-0.925,93.7,blue,249,TRUE
480,1660778563.348,2847,-2847,2526,5.219,-0.874,0.168,93.7,green,249,TRUE
481,1660778563.707,3601,-2710,882,4.572,-1.146,0.929,93.8,yellow,249,TRUE
482,1660778563.988,2850,-2838,2526,5.231,-0.873,0.183,78.1,green,249,TRUE
483,1660778564.343,3613,-2693,882,4.578,-1.132,0.894,93.7,yellow,249,TRUE
484,1660778564.593,3743,1981,3348,5.719,-1.332,-0.796,92.9,blue,249,TRUE
485,1660778564.702,2847,-2826,2526,5.224,-0.875,0.175,78.2,green,249,TRUE
486,1660778564.999,3616,-2683,882,4.579,-1.124,0.881,93.7,yellow,249,TRUE
487,1660778565.307,2854,-2817,2526,5.213,-0.872,0.152,77.8,green,249,TRUE
488,1660778565.589,3608,-2683,882,4.576,-1.132,0.9,82.4,yellow,249,TRUE
489,1660778565.822,3789,2089,3348,5.916,-1.379,-0.888,93.7,blue,249,TRUE
490,1660778566.241,3601,-2689,882,4.572,-1.142,0.912,93.7,yellow,249,TRUE
491,1660778566.491,3785,2129,3348,5.842,-1.352,-0.755,93.7,blue,249,TRUE
492,1660778567.892,3596,-2692,882,4.559,-1.141,0.868,95.6,yellow,249,TRUE
493,1660778568.144,3806,2123,3348,5.87,-1.37,-0.855,87.7,blue,249,TRUE
494,1660778568.247,2848,-2815,2526,5.232,-0.878,0.189,93.8,green,249,TRUE
495,1660778568.56,3594,-2693,882,4.556,-1.148,0.898,93.7,yellow,249,TRUE
496,1660778568.774,3810,2148,3348,5.846,-1.373,-0.88,93.7,blue,249,TRUE
497,1660778568.867,2889,-2796,2526,5.228,-0.877,0.188,109.3,green,249,TRUE
498,1660778569.211,3605,-2689,882,4.554,-1.155,0.924,93.8,yellow,249,TRUE
499,1660778569.461,3798,2133,3348,5.859,-1.386,-0.974,93.7,blue,249,TRUE
500,1660778571.106,3779,2133,3348,5.896,-1.39,-0.827,108.9,blue,249,TRUE
501,1660778571.215,2898,-2770,2526,5.221,-0.864,0.18,93.7,green,249,TRUE
502,1660778571.528,3569,-2710,882,4.559,-1.127,0.845,93.7,yellow,249,TRUE
503,1660778571.741,3772,2148,3348,5.784,-1.384,-1.245,94.0,blue,249,TRUE
504,1660778573.215,3576,-2706,882,4.533,-1.153,0.921,94.0,yellow,249,TRUE
505,1660778573.465,3787,2142,3348,5.883,-1.398,-0.892,93.7,blue,249,TRUE
506,1660778573.559,2989,-2793,2526,5.221,-0.853,0.173,78.0,green,249,TRUE
507,1660778573.856,3530,-2715,882,4.535,-1.143,0.901,78.0,yellow,249,TRUE
508,1660778574.028,3774,2136,3348,5.883,-1.393,-0.868,93.7,blue,249,TRUE
509,1660778574.122,3002,-2792,2526,5.22,-0.851,0.168,102.5,green,249,TRUE
510,1660778574.443,3485,-2727,882,4.536,-1.141,0.89,78.1,yellow,249,TRUE
511,1660778574.724,2998,-2785,2526,5.221,-0.854,0.164,93.7,green,249,TRUE
512,1660778575.053,3470,-2732,882,4.527,-1.161,0.905,78.4,yellow,249,TRUE
513,1660778575.295,3801,2034,3348,5.834,-1.389,-0.925,93.8,blue,249,TRUE
514,1660778575.389,2993,-2797,2526,5.225,-0.858,0.168,109.3,green,249,TRUE
515,1660778575.69,3421,-2749,882,4.526,-1.154,0.881,82.0,yellow,249,TRUE
516,1660778575.866,3810,1969,3348,5.89,-1.41,-0.741,93.8,blue,249,TRUE
517,1660778575.96,2979,-2803,2526,5.229,-0.856,0.171,93.7,green,249,TRUE
518,1660778576.304,3426,-2749,882,4.526,-1.164,0.913,93.9,yellow,249,TRUE
519,1660778576.493,3812,1946,3348,5.986,-1.407,-0.539,93.7,blue,249,TRUE
520,1660778576.587,2984,-2798,2526,5.229,-0.845,0.171,96.1,green,249,TRUE
521,1660778576.905,3420,-2755,882,4.526,-1.165,0.921,78.4,yellow,249,TRUE
522,1660778577.139,3822,1936,3348,5.948,-1.406,-0.656,94.6,blue,249,TRUE
523,1660778577.234,2991,-2788,2526,5.224,-0.85,0.161,79.8,green,249,TRUE
524,1660778577.517,3432,-2755,882,4.527,-1.156,0.893,93.6,yellow,249,TRUE
525,1660778577.7,3818,1932,3348,5.924,-1.404,-0.716,95.0,blue,249,TRUE
526,1660778577.811,2984,-2789,2526,5.221,-0.854,0.163,78.1,green,249,TRUE
527,1660778578.094,3432,-2750,882,4.52,-1.161,0.887,95.5,yellow,249,TRUE
528,1660778578.306,3813,1922,3348,5.907,-1.406,-0.842,93.5,blue,249,TRUE
529,1660778578.399,2956,-2803,2526,5.213,-0.852,0.144,94.0,green,249,TRUE
530,1660778578.712,3431,-2751,882,4.519,-1.161,0.887,93.8,yellow,249,TRUE
531,1660778578.962,3804,1914,3348,5.899,-1.409,-0.79,93.7,blue,249,TRUE
532,1660778580.405,3484,-2734,882,4.526,-1.151,0.899,94.0,yellow,249,TRUE
533,1660778580.66,3800,1907,3348,5.847,-1.398,-0.842,90.0,blue,249,TRUE
534,1660778582.379,3796,1882,3348,5.725,-1.371,-0.93,93.7,blue,249,TRUE
535,1660778583.773,3546,-2746,882,4.527,-1.141,0.873,94.0,yellow,249,TRUE
536,1660778584.039,3793,1894,3348,5.886,-1.422,-0.869,94.1,blue,249,TRUE
537,1660778584.149,2946,-2786,2526,5.225,-0.851,0.171,77.7,green,249,TRUE
538,1660778584.523,3578,-2734,882,4.532,-1.12,0.836,95.1,yellow,249,TRUE
539,1660778584.816,2937,-2766,2526,5.227,-0.857,0.182,78.1,green,249,TRUE
540,1660778585.113,3629,-2717,882,4.535,-1.114,0.824,103.0,yellow,249,TRUE
541,1660778585.388,3729,1942,3348,4.856,-1.454,-0.115,93.7,blue,249,TRUE
542,1660778585.498,2934,-2767,2526,5.228,-0.861,0.183,109.3,green,249,TRUE
543,1660778585.825,3651,-2711,882,4.528,-1.126,0.849,93.7,yellow,249,TRUE
544,1660778586.012,3657,1987,3348,4.743,-1.378,-1.07,93.7,blue,249,TRUE
545,1660778586.106,2938,-2774,2526,5.225,-0.864,0.168,104.5,green,249,TRUE
546,1660778586.429,3690,-2696,882,4.525,-1.132,0.86,93.8,yellow,249,TRUE
547,1660778586.617,3572,2076,3348,4.535,-1.343,-0.686,102.5,blue,249,TRUE
548,1660778586.719,2890,-2783,2526,5.227,-0.882,0.181,93.7,green,249,TRUE
549,1660778587.032,3697,-2691,882,4.529,-1.118,0.836,93.7,yellow,249,TRUE
550,1660778587.282,3474,2173,3348,3.857,-1.416,-1.32,93.7,blue,249,TRUE
551,1660778587.375,2887,-2793,2526,5.232,-0.879,0.189,93.7,green,249,TRUE
552,1660778587.674,3705,-2688,882,4.53,-1.114,0.83,86.7,yellow,249,TRUE
553,1660778587.854,3395,2279,3348,3.784,-1.457,-0.083,93.7,blue,249,TRUE
554,1660778587.948,2884,-2800,2526,5.232,-0.872,0.188,111.0,green,249,TRUE
555,1660778588.259,3710,-2685,882,4.527,-1.112,0.82,93.9,yellow,249,TRUE
556,1660778588.462,3306,2372,3348,3.894,-1.458,-0.101,93.8,blue,249,TRUE
557,1660778588.572,2892,-2798,2526,5.231,-0.876,0.184,78.2,green,249,TRUE
558,1660778588.848,3705,-2694,882,4.523,-1.122,0.849,93.7,yellow,249,TRUE
559,1660778589.098,3233,2473,3348,3.691,-1.43,-1.041,107.5,blue,249,TRUE
560,1660778589.206,2894,-2799,2526,5.229,-0.882,0.176,78.1,green,249,TRUE
561,1660778590.711,3167,2604,3348,4.995,-1.412,-1.521,93.8,blue,249,TRUE
562,1660778592.352,3101,2735,3348,5.211,-1.437,-1.511,93.8,blue,249,TRUE
563,1660778592.446,2856,-2809,2526,5.224,-0.887,0.164,109.3,green,249,TRUE
564,1660778592.773,3747,-2722,882,4.565,-1.133,0.876,93.7,yellow,249,TRUE
565,1660778592.976,3033,2904,3348,5.115,-1.421,-1.355,79.7,blue,249,TRUE
566,1660778593.055,2868,-2834,2526,5.232,-0.872,0.172,78.1,green,249,TRUE
567,1660778593.347,3696,-2704,882,4.569,-1.146,0.873,93.8,yellow,249,TRUE
568,1660778593.55,2992,3029,3348,5.157,-1.41,-1.221,93.8,blue,249,TRUE
569,1660778593.659,2893,-2870,2526,5.234,-0.887,0.178,78.1,green,249,TRUE
570,1660778593.956,3708,-2709,882,4.572,-1.139,0.861,93.8,yellow,249,TRUE
571,1660778594.216,2986,3199,3348,0.053,-1.488,-0.049,93.7,blue,249,TRUE
572,1660778594.309,2842,-2884,2526,5.225,-0.885,0.168,78.2,green,249,TRUE
573,1660778594.606,3717,-2708,882,4.573,-1.133,0.852,92.7,yellow,249,TRUE
574,1660778594.793,2953,3318,3348,0.228,-1.463,0.026,93.7,blue,249,TRUE
575,1660778594.887,2823,-2887,2526,5.224,-0.882,0.164,109.3,green,249,TRUE
576,1660778595.226,3721,-2705,882,4.564,-1.146,0.864,93.8,yellow,249,TRUE
577,1660778595.429,2958,3427,3348,6.267,-1.458,0.01,110.9,blue,249,TRUE
578,1660778595.54,2833,-2881,2526,5.231,-0.88,0.184,78.1,green,249,TRUE
579,1660778597.059,2990,3519,3348,5.856,-1.446,-0.622,93.7,blue,249,TRUE
580,1660778597.153,2832,-2878,2526,5.226,-0.888,0.179,85.2,green,249,TRUE
581,1660778598.452,3718,-2707,882,4.561,-1.131,0.861,93.8,yellow,249,TRUE
582,1660778598.671,5636,1919,750,0.029,-1.236,-3.117,92.8,red,249,TRUE
583,1660778598.764,3026,3602,3348,5.76,-1.429,-0.593,94.0,blue,249,TRUE
584,1660778600.377,5632,1869,750,0.035,-1.256,-3.121,93.7,red,249,TRUE
585,1660778600.471,3045,3666,3348,5.773,-1.429,-0.705,93.8,blue,249,TRUE
586,1660778600.565,2872,-2867,2526,5.215,-0.891,0.182,111.1,green,249,TRUE
587,1660778602.057,5618,1904,750,0.029,-1.225,-3.119,93.8,red,249,TRUE
588,1660778602.301,2866,-2860,2526,5.227,-0.875,0.195,93.8,green,249,TRUE
589,1660778602.598,3732,-2701,882,4.563,-1.115,0.831,109.0,yellow,249,TRUE
590,1660778602.801,5619,1894,750,0.009,-1.233,-3.094,93.7,red,249,TRUE
591,1660778602.894,3056,3772,3348,5.665,-1.462,-0.093,93.7,blue,249,TRUE
592,1660778603.295,3749,-2701,882,4.568,-1.109,0.832,93.8,yellow,249,TRUE
593,1660778603.482,5622,1873,750,6.281,-1.242,-3.089,93.7,red,249,TRUE
594,1660778603.576,3062,3817,3348,5.555,-1.438,-0.758,95.7,blue,249,TRUE
595,1660778603.673,2801,-2899,2526,5.224,-0.889,0.182,75.2,green,249,TRUE
596,1660778603.982,3747,-2706,882,4.566,-1.116,0.84,93.8,yellow,249,TRUE
597,1660778604.173,5625,1896,750,0.001,-1.217,-3.09,83.0,red,249,TRUE
598,1660778604.256,3077,3865,3348,5.594,-1.437,-0.698,93.8,blue,249,TRUE
599,1660778605.921,5620,1910,750,0.507,-1.289,2.366,93.7,red,249,TRUE
600,1660778606.015,3107,3876,3348,5.445,-1.421,-1.335,93.7,blue,249,TRUE
601,1660778607.626,5618,1938,750,0.08,-1.211,2.973,94.2,red,249,TRUE
602,1660778607.72,3083,3860,3348,4.795,-1.404,-1.523,95.4,blue,249,TRUE
603,1660778607.831,2830,-2892,2526,5.228,-0.89,0.177,93.8,green,249,TRUE
604,1660778609.3,5569,1848,750,0.089,-1.24,3.026,93.8,red,249,TRUE
605,1660778609.503,2794,-2875,2526,5.225,-0.896,0.184,93.7,green,249,TRUE
606,1660778609.874,3727,-2673,882,4.73,-1.18,1.242,92.3,yellow,249,TRUE
607,1660778610.06,5577,1795,750,6.257,-1.254,3.112,98.5,red,249,TRUE
608,1660778610.163,3008,3714,3348,3.517,-1.405,-1.264,86.4,blue,249,TRUE
609,1660778610.249,2755,-2839,2526,5.222,-0.899,0.183,93.7,green,249,TRUE
610,1660778610.548,3741,-2682,882,4.656,-1.235,1.14,93.8,yellow,249,TRUE
611,1660778610.742,5583,1822,750,0.014,-1.286,3.014,93.7,red,249,TRUE
612,1660778610.852,2986,3647,3348,3.483,-1.421,-1.3,94.8,blue,249,TRUE
613,1660778610.948,2796,-2817,2526,5.221,-0.894,0.18,81.7,green,249,TRUE
614,1660778611.29,3740,-2683,882,4.681,-1.174,0.937,93.7,yellow,249,TRUE
615,1660778611.477,5585,1831,750,0.194,-1.259,2.938,93.7,red,249,TRUE
616,1660778611.571,2974,3596,3348,4.712,-1.512,-3.083,98.2,blue,249,TRUE
617,1660778611.675,2786,-2811,2526,5.221,-0.893,0.177,94.2,green,249,TRUE
618,1660778611.988,3739,-2682,882,4.645,-1.17,0.92,93.7,yellow,249,TRUE
619,1660778612.179,5589,1850,750,0.129,-1.206,2.999,89.9,red,249,TRUE
620,1660778612.269,2960,3576,3348,4.382,-1.472,-0.081,93.7,blue,249,TRUE
621,1660778612.363,2768,-2818,2526,5.221,-0.892,0.177,93.8,green,249,TRUE
622,1660778612.683,3751,-2683,882,4.651,-1.143,0.793,94.1,yellow,249,TRUE
623,1660778612.886,5582,1862,750,0.708,-1.299,2.25,93.8,red,249,TRUE
624,1660778612.98,2889,3584,3348,3.866,-1.52,-0.04,94.8,blue,249,TRUE
625,1660778613.074,2755,-2821,2526,5.216,-0.884,0.157,96.9,green,249,TRUE
626,1660778613.605,5576,1857,750,0.903,-1.383,1.3,103.5,red,249,TRUE
627,1660778613.709,2805,3626,3348,3.842,-1.444,-0.882,109.4,blue,249,TRUE
628,1660778613.818,2768,-2821,2526,5.217,-0.877,0.157,93.7,green,249,TRUE
629,1660778614.137,3760,-2679,882,4.551,-1.125,0.759,101.8,yellow,249,TRUE
630,1660778614.348,5554,1859,750,0.218,-1.347,2.092,93.7,red,249,TRUE
631,1660778614.442,2638,3617,3348,3.482,-1.41,-0.666,93.8,blue,249,TRUE
632,1660778617.093,5560,1868,750,6.166,-1.212,3.083,98.3,red,249,TRUE
633,1660778619.948,5567,1862,750,6.103,-1.236,3.113,85.1,red,249,TRUE
634,1660778620.033,2246,3588,3348,2.462,-1.176,-2.25,95.8,blue,249,TRUE
635,1660778622.762,5559,1830,750,6.189,-1.265,3.023,95.3,red,249,TRUE
636,1660778623.419,5560,1814,750,0.706,-1.29,2.141,93.7,red,249,TRUE
637,1660778623.513,1797,3666,3348,1.822,-1.342,-1.76,93.8,blue,249,TRUE
638,1660778624.89,3761,-2687,882,4.533,-1.119,0.731,100.4,yellow,249,TRUE
639,1660778625.084,5576,1858,750,6.0,-1.393,2.512,98.8,red,249,TRUE
640,1660778625.187,1679,3755,3348,2.005,-1.436,-1.803,93.7,blue,249,TRUE
641,1660778625.297,2735,-2813,2526,5.227,-0.946,0.196,78.4,green,249,TRUE
642,1660778625.611,3760,-2689,882,4.479,-1.166,0.762,102.6,yellow,249,TRUE
643,1660778625.808,5561,1903,750,6.259,-1.358,2.518,109.4,red,249,TRUE
644,1660778625.918,1567,3821,3348,2.177,-1.465,-3.042,88.1,blue,249,TRUE
645,1660778627.516,5500,1861,750,5.778,-1.292,2.246,93.7,red,249,TRUE
646,1660778627.609,1494,3913,3348,0.524,-1.408,-1.307,102.4,blue,249,TRUE
647,1660778627.712,2772,-2802,2526,5.184,-1.023,0.277,93.7,green,249,TRUE
648,1660778628.039,3752,-2691,882,4.529,-1.131,0.776,93.8,yellow,249,TRUE
649,1660778628.228,5386,1829,750,4.911,-1.473,3.052,93.7,red,249,TRUE
650,1660778628.416,2819,-2827,2526,5.226,-0.988,0.254,93.8,green,249,TRUE
651,1660778628.719,3751,-2688,882,4.521,-1.151,0.818,93.7,yellow,249,TRUE
652,1660778628.906,5229,1799,750,5.409,-1.355,2.257,86.8,red,249,TRUE
653,1660778629.009,1421,3938,3348,1.703,-1.422,-1.283,94.0,blue,249,TRUE
654,1660778630.581,5043,1912,750,0.158,-1.384,2.29,98.1,red,249,TRUE
655,1660778630.681,1455,3870,3348,3.006,-1.409,-0.708,90.7,blue,249,TRUE
656,1660778630.772,2819,-2827,2526,5.246,-0.94,0.291,109.3,green,249,TRUE
657,1660778631.104,3714,-2718,882,4.176,-1.475,-0.072,93.4,yellow,249,TRUE
658,1660778631.296,4834,2094,750,5.64,-1.395,2.663,93.7,red,249,TRUE
659,1660778631.499,2851,-2821,2526,5.235,-0.923,0.235,78.0,green,249,TRUE
660,1660778632.895,4552,2335,750,5.115,-1.426,2.225,100.6,red,249,TRUE
661,1660778633.011,1665,3723,3348,2.546,-1.421,-1.041,95.3,blue,249,TRUE
662,1660778633.107,2857,-2844,2526,5.225,-0.881,0.203,100.9,green,249,TRUE
663,1660778633.411,3725,-2716,882,4.191,-1.477,-0.057,93.8,yellow,249,TRUE
664,1660778633.598,4227,2583,750,5.39,-1.344,1.901,97.9,red,249,TRUE
665,1660778633.712,1833,3682,3348,2.691,-1.433,-1.145,93.8,blue,249,TRUE
666,1660778633.806,2911,-2863,2526,5.225,-0.897,0.213,78.1,green,249,TRUE
667,1660778634.173,3699,-2716,882,4.196,-1.485,-0.05,94.8,yellow,249,TRUE
668,1660778634.362,3900,2830,750,5.332,-1.328,1.853,93.7,red,249,TRUE
669,1660778634.455,2006,3636,3348,2.586,-1.426,-1.205,93.7,blue,249,TRUE
670,1660778634.549,2980,-2892,2526,5.228,-0.891,0.206,78.1,green,249,TRUE
671,1660778634.85,3698,-2718,882,4.193,-1.476,-0.052,93.7,yellow,249,TRUE
672,1660778635.045,3590,3098,750,4.986,-1.389,2.183,94.0,red,249,TRUE
673,1660778635.139,2204,3518,3348,2.613,-1.441,-1.261,90.8,blue,249,TRUE
674,1660778635.23,3055,-2915,2526,5.243,-0.916,0.236,78.2,green,249,TRUE
675,1660778635.526,3709,-2727,882,4.191,-1.468,-0.048,94.0,yellow,249,TRUE
676,1660778635.713,3269,3351,750,4.683,-1.403,2.409,93.8,red,249,TRUE
677,1660778635.806,2377,3470,3348,2.502,-1.378,-1.82,93.7,blue,249,TRUE
678,1660778635.9,3129,-2925,2526,5.237,-0.935,0.218,96.9,green,249,TRUE
679,1660778636.239,3707,-2738,882,4.196,-1.47,-0.04,93.7,yellow,249,TRUE
680,1660778636.428,2964,3631,750,4.809,-1.365,2.379,93.8,red,249,TRUE
681,1660778636.522,2473,3387,3348,2.162,-1.164,-2.1,94.1,blue,249,TRUE
682,1660778636.616,3187,-2938,2526,5.243,-0.929,0.214,100.5,green,249,TRUE
683,1660778636.919,3720,-2753,882,4.199,-1.463,-0.035,93.6,yellow,249,TRUE
684,1660778637.107,2653,3892,750,4.743,-1.385,2.565,95.5,red,249,TRUE
685,1660778637.202,2573,3318,3348,2.195,-1.191,-2.086,93.4,blue,249,TRUE
686,1660778637.296,3247,-2957,2526,5.246,-0.939,0.218,94.1,green,249,TRUE
687,1660778637.624,3721,-2763,882,4.198,-1.469,-0.035,101.5,yellow,249,TRUE
688,1660778637.819,2385,4183,750,4.675,-1.381,2.581,93.6,red,249,TRUE
689,1660778637.913,2630,3223,3348,2.218,-1.238,-2.038,100.2,blue,249,TRUE
690,1660778638.013,3293,-2967,2526,5.24,-0.935,0.212,94.9,green,249,TRUE
691,1660778638.336,3739,-2764,882,4.19,-1.472,-0.04,93.7,yellow,249,TRUE
692,1660778638.523,2172,4482,750,4.665,-1.371,2.415,93.7,red,249,TRUE
693,1660778638.617,2678,3144,3348,2.199,-1.237,-2.03,94.1,blue,249,TRUE
694,1660778638.711,3368,-2984,2526,5.24,-0.937,0.201,77.8,green,249,TRUE
695,1660778638.982,3736,-2764,882,4.202,-1.502,-0.023,94.1,yellow,249,TRUE
696,1660778639.185,2004,4751,750,4.277,-1.338,2.441,82.8,red,249,TRUE
697,1660778639.268,2661,3099,3348,2.203,-1.238,-2.035,93.8,blue,249,TRUE
698,1660778639.362,3434,-3005,2526,5.243,-0.94,0.209,78.0,green,249,TRUE
699,1660778639.643,3735,-2767,882,4.199,-1.493,-0.026,100.6,yellow,249,TRUE
700,1660778639.837,1903,4873,750,4.111,-1.282,2.04,93.6,red,249,TRUE
701,1660778639.931,2655,3068,3348,2.214,-1.266,-1.998,99.4,blue,249,TRUE
702,1660778640.03,3443,-2983,2526,5.243,-0.94,0.208,93.7,green,249,TRUE
703,1660778640.352,3731,-2777,882,4.193,-1.484,-0.029,93.6,yellow,249,TRUE
704,1660778640.541,1850,4920,750,2.843,-1.237,2.581,93.7,red,249,TRUE
705,1660778640.635,2699,3107,3348,2.265,-1.311,-1.923,93.8,blue,249,TRUE
706,1660778640.729,3481,-2995,2526,5.243,-0.934,0.212,93.8,green,249,TRUE
707,1660778641.031,3778,-2759,882,4.201,-1.504,-0.024,109.3,yellow,249,TRUE
708,1660778641.255,1952,4843,750,1.773,-1.364,2.128,94.0,red,249,TRUE
709,1660778641.349,2684,3077,3348,2.304,-1.346,-1.845,93.7,blue,249,TRUE
710,1660778643.079,2686,3069,3348,2.303,-1.398,-1.718,94.5,blue,249,TRUE
711,1660778643.174,3518,-2990,2526,5.243,-0.927,0.213,81.3,green,249,TRUE
712,1660778643.492,3798,-2757,882,4.201,-1.503,-0.024,93.5,yellow,249,TRUE
713,1660778643.687,2363,4398,750,1.596,-1.383,2.53,88.7,red,249,TRUE
714,1660778643.775,2704,3049,3348,1.896,-1.45,-1.763,93.7,blue,249,TRUE
715,1660778643.869,3508,-2980,2526,5.243,-0.927,0.213,94.4,green,249,TRUE
716,1660778644.176,3794,-2761,882,4.202,-1.509,-0.022,83.4,yellow,249,TRUE
717,1660778644.368,2607,4159,750,1.496,-1.324,2.428,93.7,red,249,TRUE
718,1660778644.462,2735,2999,3348,2.651,-1.38,-1.278,94.0,blue,249,TRUE
719,1660778644.556,3490,-2970,2526,5.243,-0.927,0.213,126.9,green,249,TRUE
720,1660778644.894,3791,-2766,882,4.201,-1.504,-0.022,87.6,yellow,249,TRUE
721,1660778645.185,2604,2814,3348,3.735,-1.421,-0.937,82.8,blue,249,TRUE
722,1660778645.283,3476,-2974,2526,5.243,-0.927,0.213,78.1,green,249,TRUE
723,1660778645.58,3778,-2763,882,4.196,-1.498,-0.023,95.7,yellow,249,TRUE
724,1660778645.772,3014,3571,750,0.937,-1.251,2.375,93.7,red,249,TRUE
725,1660778645.865,2469,2742,3348,4.213,-1.372,-1.086,93.7,blue,249,TRUE
726,1660778645.959,3467,-2980,2526,5.24,-0.936,0.215,93.8,green,249,TRUE
727,1660778646.292,3772,-2761,882,4.187,-1.488,-0.032,93.7,yellow,249,TRUE
728,1660778646.479,3204,3312,750,0.323,-1.384,2.314,93.8,red,249,TRUE
729,1660778646.573,2309,2753,3348,4.26,-1.39,-0.545,96.1,blue,249,TRUE
730,1660778648.229,3426,3043,750,0.909,-1.241,1.937,93.9,red,249,TRUE
731,1660778648.338,2092,2660,3348,3.916,-1.426,-0.914,93.8,blue,249,TRUE
732,1660778648.432,3459,-2986,2526,5.256,-0.888,0.225,78.4,green,249,TRUE
733,1660778648.75,3749,-2749,882,4.184,-1.484,-0.026,93.9,yellow,249,TRUE
734,1660778648.937,3667,2760,750,0.994,-1.241,1.961,93.7,red,249,TRUE
735,1660778649.031,1876,2559,3348,3.894,-1.405,-0.804,93.7,blue,249,TRUE
736,1660778650.511,3737,-2751,882,4.19,-1.467,-0.017,93.7,yellow,249,TRUE
737,1660778650.708,3905,2492,750,0.829,-1.261,1.748,93.7,red,249,TRUE
738,1660778650.801,1670,2457,3348,3.834,-1.418,-0.809,94.0,blue,249,TRUE
739,1660778650.911,3398,-2971,2526,5.245,-0.938,0.244,78.0,green,249,TRUE
740,1660778651.208,3737,-2755,882,4.198,-1.487,-0.011,93.7,yellow,249,TRUE
741,1660778651.411,4108,2238,750,0.824,-1.249,1.851,93.7,red,249,TRUE
742,1660778651.505,1415,2497,3348,3.804,-1.425,-0.81,93.7,blue,249,TRUE
743,1660778651.598,3342,-2953,2526,5.248,-0.945,0.259,104.1,green,249,TRUE
744,1660778651.937,3731,-2753,882,4.199,-1.478,-0.008,93.8,yellow,249,TRUE
745,1660778652.124,4277,2002,750,0.713,-1.265,2.038,102.9,red,249,TRUE
746,1660778652.227,1149,2516,3348,3.826,-1.431,-0.752,93.8,blue,249,TRUE
747,1660778652.321,3294,-2941,2526,5.228,-0.908,0.197,93.7,green,249,TRUE
748,1660778652.618,3723,-2759,882,4.195,-1.473,-0.012,94.3,yellow,249,TRUE
749,1660778652.821,4381,1832,750,0.734,-1.25,2.063,93.7,red,249,TRUE
750,1660778652.931,955,2537,3348,3.896,-1.428,-0.748,93.8,blue,249,TRUE
751,1660778653.025,3244,-2923,2526,5.22,-0.904,0.18,93.5,green,249,TRUE
752,1660778653.332,3728,-2766,882,4.183,-1.478,-0.021,93.7,yellow,249,TRUE
753,1660778653.535,4393,1793,750,0.528,-1.338,2.278,93.4,red,249,TRUE
754,1660778653.629,749,2543,3348,3.877,-1.451,-0.996,92.4,blue,249,TRUE
755,1660778653.737,3192,-2904,2526,5.224,-0.889,0.18,93.9,green,249,TRUE
756,1660778655.043,3716,-2767,882,4.18,-1.458,-0.014,94.0,yellow,249,TRUE
757,1660778655.24,4461,1732,750,0.745,-1.269,2.175,109.3,red,249,TRUE
758,1660778655.49,3148,-2891,2526,5.224,-0.877,0.18,78.0,green,249,TRUE
759,1660778655.802,3720,-2763,882,4.191,-1.485,0.0,93.5,yellow,249,TRUE
760,1660778656.004,4504,1699,750,0.399,-1.33,2.654,93.7,red,249,TRUE
761,1660778656.098,313,2516,3348,4.302,-1.438,-0.369,106.4,blue,249,TRUE
762,1660778656.205,3130,-2885,2526,5.212,-0.88,0.165,78.0,green,249,TRUE
763,1660778656.517,3715,-2757,882,4.19,-1.49,-0.001,94.0,yellow,249,TRUE
764,1660778656.935,3122,-2882,2526,5.211,-0.874,0.164,93.9,green,249,TRUE
765,1660778657.275,3717,-2761,882,4.195,-1.5,0.012,109.1,yellow,249,TRUE
766,1660778657.509,4652,1678,750,0.897,-1.361,2.021,93.5,red,249,TRUE
767,1660778657.603,286,2866,3348,6.077,-1.426,-0.759,94.2,blue,249,TRUE
768,1660778657.697,3102,-2862,2526,5.211,-0.876,0.164,94.0,green,249,TRUE
769,1660778657.932,3709,-2764,882,4.169,-1.473,0.015,93.7,yellow,249,TRUE
770,1660778658.135,4787,1623,750,0.994,-1.308,1.624,89.1,red,249,TRUE
771,1660778658.224,336,2854,3348,5.861,-1.488,-3.059,93.7,blue,249,TRUE
772,1660778658.333,3060,-2840,2526,5.21,-0.874,0.167,94.0,green,249,TRUE
773,1660778659.929,464,2956,3348,5.221,-1.548,-3.133,109.2,blue,249,TRUE
774,1660778661.467,3705,-2773,882,4.374,-1.287,0.636,78.3,yellow,249,TRUE
775,1660778661.639,4908,1528,750,4.297,-1.236,2.223,85.1,red,249,TRUE
776,1660778661.724,543,3022,3348,5.011,-1.453,-0.092,94.0,blue,249,TRUE
777,1660778663.19,3704,-2775,882,4.323,-1.388,0.519,94.0,yellow,249,TRUE
778,1660778663.393,2821,517,750,3.932,-1.337,2.147,109.1,red,249,TRUE
779,1660778663.502,669,3097,3348,0.689,-1.53,0.0,93.9,blue,249,TRUE
780,1660778664.985,3707,-2780,882,4.28,-1.402,0.381,94.0,yellow,249,TRUE
781,1660778665.204,2733,185,750,1.568,-1.367,2.333,81.4,red,249,TRUE
782,1660778665.285,930,3029,3348,5.856,-1.426,-0.325,93.5,blue,249,TRUE
783,1660778665.678,3712,-2785,882,4.277,-1.402,0.364,98.1,yellow,249,TRUE
784,1660778665.87,2735,41,750,1.232,-1.421,2.225,94.0,red,249,TRUE
785,1660778665.964,1168,2956,3348,4.526,-1.472,-0.072,93.6,blue,249,TRUE
786,1660778666.313,3711,-2790,882,4.202,-1.467,-0.014,93.7,yellow,249,TRUE
787,1660778666.61,1325,2860,3348,4.256,-1.434,-0.547,97.3,blue,249,TRUE
788,1660778668.35,2804,-67,750,1.164,-1.408,1.839,93.8,red,249,TRUE
789,1660778668.459,1468,2819,3348,4.344,-1.455,-0.048,94.0,blue,249,TRUE
790,1660778670.135,2785,-73,750,1.125,-1.412,1.902,95.1,red,249,TRUE
791,1660778670.23,1618,2705,3348,3.706,-1.424,-1.635,93.6,blue,249,TRUE
792,1660778671.857,2792,-99,750,0.858,-1.427,1.528,93.7,red,249,TRUE
793,1660778671.966,1672,2794,3348,4.457,-1.425,-0.547,93.9,blue,249,TRUE
794,1660778672.356,3745,-2822,882,4.151,-1.457,0.0,93.6,yellow,249,TRUE
795,1660778672.544,2753,-105,750,1.237,-1.347,1.452,94.0,red,249,TRUE
796,1660778672.638,1681,2752,3348,4.775,-1.368,-0.601,88.0,blue,249,TRUE
797,1660778672.96,3721,-2825,882,4.184,-1.465,0.052,93.9,yellow,249,TRUE
798,1660778673.334,1617,2782,3348,4.695,-1.386,-0.612,93.8,blue,249,TRUE
799,1660778673.705,3691,-2826,882,4.182,-1.455,0.044,94.0,yellow,249,TRUE
800,1660778673.893,2712,-113,750,1.232,-1.33,1.563,93.7,red,249,TRUE
801,1660778673.987,1550,2832,3348,4.821,-1.417,-0.659,93.6,blue,249,TRUE
802,1660778674.328,3664,-2822,882,4.189,-1.44,0.395,78.0,yellow,249,TRUE
803,1660778674.515,2708,-115,750,1.2,-1.333,1.637,93.9,red,249,TRUE
804,1660778675.027,3649,-2813,882,4.188,-1.431,0.365,93.7,yellow,249,TRUE
805,1660778675.231,2703,-115,750,1.2,-1.333,1.648,93.7,red,249,TRUE
806,1660778675.325,1369,2954,3348,4.816,-1.425,-0.657,93.8,blue,249,TRUE
807,1660778675.653,3633,-2814,882,4.187,-1.446,0.433,89.3,yellow,249,TRUE
808,1660778675.836,2690,-159,750,1.192,-1.334,1.642,94.0,red,249,TRUE
809,1660778675.93,1300,2997,3348,4.797,-1.421,-0.716,93.5,blue,249,TRUE
810,1660778676.254,3607,-2810,882,4.187,-1.451,0.452,93.8,yellow,249,TRUE
811,1660778676.441,2690,-143,750,1.192,-1.333,1.65,93.8,red,249,TRUE
812,1660778676.551,1141,3045,3348,4.826,-1.424,-0.662,94.0,blue,249,TRUE
813,1660778676.906,3593,-2799,882,4.19,-1.444,0.441,93.4,yellow,249,TRUE
814,1660778677.233,1006,3097,3348,4.936,-1.436,-0.573,93.7,blue,249,TRUE
815,1660778677.561,3572,-2792,882,4.19,-1.434,0.415,99.6,yellow,249,TRUE
816,1660778677.776,2632,-59,750,1.182,-1.335,1.665,93.9,red,249,TRUE
817,1660778677.87,868,3192,3348,5.089,-1.469,-0.052,93.7,blue,249,TRUE
818,1660778678.229,3577,-2782,882,4.191,-1.438,0.445,94.0,yellow,249,TRUE
819,1660778678.417,2613,-15,750,1.175,-1.338,1.676,93.7,red,249,TRUE
820,1660778678.51,732,3251,3348,5.013,-1.455,-0.08,93.5,blue,249,TRUE
821,1660778678.834,3519,-2763,882,4.188,-1.449,0.504,93.7,yellow,249,TRUE
822,1660778679.022,2609,-5,750,1.175,-1.34,1.678,93.7,red,249,TRUE
823,1660778679.116,622,3364,3348,4.829,-1.479,-0.071,105.4,blue,249,TRUE
824,1660778679.455,3538,-2760,882,4.178,-1.463,0.049,93.6,yellow,249,TRUE
825,1660778679.683,2594,20,750,1.17,-1.342,1.708,84.0,red,249,TRUE
