,timestamp,x,y,z,yaw,roll,pitch,latency,student,session,success
0,1660781642.689,3818,-842,882,3.698,-1.288,3.11,94.0,yellow,250,TRUE
1,1660781642.908,1563,784,3348,3.096,-1.356,0.229,93.7,blue,250,TRUE
2,1660781643.002,2248,-1917,2526,5.988,-1.449,2.822,93.7,green,250,TRUE
3,1660781643.325,3830,-853,882,3.696,-1.321,3.119,78.1,yellow,250,TRUE
4,1660781643.559,1707,1223,3348,2.733,-1.346,0.371,96.5,blue,250,TRUE
5,1660781643.657,2291,-1884,2526,6.053,-1.488,3.082,88.6,green,250,TRUE
6,1660781644.026,3525,-1101,882,3.742,-1.373,3.117,93.8,yellow,250,TRUE
7,1660781644.207,1923,1660,3348,2.495,-1.367,0.377,93.8,blue,250,TRUE
8,1660781644.301,2336,-1896,2526,6.002,-1.509,3.082,93.4,green,250,TRUE
9,1660781644.613,3583,-1094,882,3.701,-1.372,-3.131,93.9,yellow,250,TRUE
10,1660781644.863,2172,2138,3348,2.461,-1.357,0.425,89.7,blue,250,TRUE
11,1660781644.953,2362,-1888,2526,6.066,-1.505,3.093,93.6,green,250,TRUE
12,1660781645.513,2353,2611,3348,2.459,-1.345,0.404,93.7,blue,250,TRUE
13,1660781645.606,2390,-1856,2526,6.006,-1.428,3.055,92.9,green,250,TRUE
14,1660781645.938,3638,-1105,882,3.721,-1.429,3.067,78.1,yellow,250,TRUE
15,1660781646.174,2536,3096,3348,2.427,-1.345,0.403,83.2,blue,250,TRUE
16,1660781646.257,2431,-1828,2526,5.33,-1.457,-3.113,93.8,green,250,TRUE
17,1660781646.569,3294,-1384,882,3.733,-1.473,3.121,79.5,yellow,250,TRUE
18,1660781646.867,2435,-1823,2526,5.558,-1.45,3.01,84.8,green,250,TRUE
19,1660781648.428,2467,-1828,2526,6.136,-1.442,2.459,93.7,green,250,TRUE
20,1660781648.789,3007,-1633,882,4.1,-1.433,2.572,93.6,yellow,250,TRUE
21,1660781649.039,2771,3575,3348,2.294,-1.371,0.467,93.4,blue,250,TRUE
22,1660781649.133,2493,-1843,2526,5.639,-1.452,-3.131,83.9,green,250,TRUE
23,1660781649.435,3007,-1633,882,3.934,-1.478,3.095,78.0,yellow,250,TRUE
24,1660781649.607,2766,3680,3348,2.433,-1.33,0.542,97.7,blue,250,TRUE
25,1660781651.428,2448,-1844,2526,5.288,-1.413,-2.954,93.6,green,250,TRUE
26,1660781651.74,3019,-1627,882,3.715,-1.448,-3.101,77.9,yellow,250,TRUE
27,1660781651.928,2825,3456,3348,2.329,-1.376,0.646,99.3,blue,250,TRUE
28,1660781652.027,2405,-1835,2526,5.214,-1.407,-2.964,93.6,green,250,TRUE
29,1660781652.346,3019,-1627,882,3.748,-1.45,3.127,78.1,yellow,250,TRUE
30,1660781652.533,2866,3477,3348,2.44,-1.366,0.729,94.0,blue,250,TRUE
31,1660781652.627,2372,-1828,2526,5.24,-1.407,-2.985,82.9,green,250,TRUE
32,1660781652.95,3019,-1627,882,3.764,-1.453,3.135,78.4,yellow,250,TRUE
33,1660781653.216,2872,3451,3348,2.676,-1.333,0.8,93.6,blue,250,TRUE
34,1660781653.309,2339,-1821,2526,5.213,-1.408,-2.961,93.7,green,250,TRUE
35,1660781653.638,3019,-1627,882,3.775,-1.467,3.131,86.2,yellow,250,TRUE
36,1660781653.818,2841,3390,3348,2.674,-1.337,0.797,93.7,blue,250,TRUE
37,1660781654.273,2732,-1841,882,3.764,-1.461,3.13,79.3,yellow,250,TRUE
38,1660781654.446,2821,3370,3348,2.673,-1.343,0.852,93.9,blue,250,TRUE
39,1660781654.555,2293,-1819,2526,4.856,-1.418,-2.781,78.4,green,250,TRUE
40,1660781654.866,2732,-1841,882,3.736,-1.462,3.136,82.6,yellow,250,TRUE
41,1660781655.094,2830,3381,3348,2.637,-1.344,0.841,94.9,blue,250,TRUE
42,1660781655.189,2243,-1836,2526,4.873,-1.418,-2.775,93.8,green,250,TRUE
43,1660781655.711,2820,3345,3348,2.599,-1.337,0.782,109.1,blue,250,TRUE
44,1660781655.82,2209,-1840,2526,4.888,-1.448,-2.675,79.2,green,250,TRUE
45,1660781656.126,2418,-2090,882,3.796,-1.418,2.978,85.6,yellow,250,TRUE
46,1660781656.306,2836,3332,3348,2.623,-1.334,0.773,93.4,blue,250,TRUE
47,1660781656.399,2204,-1851,2526,4.473,-1.433,-2.681,94.1,green,250,TRUE
48,1660781656.713,2554,-2058,882,3.794,-1.441,2.881,78.2,yellow,250,TRUE
49,1660781656.954,2797,3367,3348,2.657,-1.326,0.761,94.0,blue,250,TRUE
50,1660781657.048,2159,-1866,2526,4.165,-1.511,-3.129,94.9,green,250,TRUE
51,1660781657.346,2623,-2046,882,3.809,-1.427,2.855,93.6,yellow,250,TRUE
52,1660781657.644,2159,-1866,2526,4.345,-1.506,3.111,82.9,green,250,TRUE
53,1660781657.953,2618,-2038,882,3.767,-1.431,2.977,80.5,yellow,250,TRUE
54,1660781658.127,2864,3411,3348,2.595,-1.334,0.742,85.2,blue,250,TRUE
55,1660781658.212,2159,-1866,2526,4.351,-1.487,3.096,78.2,green,250,TRUE
56,1660781658.525,2618,-2038,882,3.69,-1.419,3.133,77.8,yellow,250,TRUE
57,1660781658.746,2851,3526,3348,2.581,-1.341,0.729,93.8,blue,250,TRUE
58,1660781660.201,2665,-2014,882,3.641,-1.418,-3.088,93.7,yellow,250,TRUE
59,1660781660.466,2795,3588,3348,2.597,-1.34,0.746,94.0,blue,250,TRUE
60,1660781660.56,2141,-1892,2526,4.443,-1.441,2.928,124.1,green,250,TRUE
61,1660781661.128,2736,3518,3348,2.599,-1.335,0.729,99.2,blue,250,TRUE
62,1660781661.227,2141,-1892,2526,4.447,-1.428,3.043,78.4,green,250,TRUE
63,1660781661.509,2729,-1981,882,3.666,-1.428,3.106,78.0,yellow,250,TRUE
64,1660781661.701,2712,3479,3348,2.608,-1.333,0.729,93.5,blue,250,TRUE
65,1660781663.186,2810,-1946,882,3.702,-1.437,3.005,78.3,yellow,250,TRUE
66,1660781663.421,2742,3527,3348,2.583,-1.346,0.736,93.5,blue,250,TRUE
67,1660781663.514,2141,-1892,2526,4.463,-1.421,3.069,78.2,green,250,TRUE
68,1660781663.826,2851,-1927,882,3.702,-1.437,3.005,93.7,yellow,250,TRUE
69,1660781664.037,2759,3512,3348,2.545,-1.341,0.685,93.7,blue,250,TRUE
70,1660781665.55,2863,-1915,882,3.703,-1.439,2.987,98.6,yellow,250,TRUE
71,1660781665.826,2726,3445,3348,2.641,-1.332,0.747,93.5,blue,250,TRUE
72,1660781667.268,2863,-1915,882,3.762,-1.439,2.951,62.6,yellow,250,TRUE
73,1660781667.487,2739,3482,3348,2.619,-1.328,0.712,93.6,blue,250,TRUE
74,1660781669.211,2702,3473,3348,2.605,-1.328,0.687,109.3,blue,250,TRUE
75,1660781669.367,2203,-1904,2526,4.984,-1.398,3.082,94.0,green,250,TRUE
76,1660781669.877,2685,3478,3348,2.608,-1.332,0.701,99.9,blue,250,TRUE
77,1660781671.354,2860,-1921,882,3.68,-1.376,3.094,78.1,yellow,250,TRUE
78,1660781671.588,2659,3474,3348,2.634,-1.321,0.659,100.6,blue,250,TRUE
79,1660781673.057,2860,-1921,882,3.687,-1.401,3.134,78.0,yellow,250,TRUE
80,1660781673.311,2631,3444,3348,3.037,-1.35,1.585,93.8,blue,250,TRUE
81,1660781675.01,2662,3589,3348,4.994,-1.355,0.554,78.1,blue,250,TRUE
82,1660781675.362,2860,-1921,882,3.72,-1.47,3.133,78.1,yellow,250,TRUE
83,1660781675.534,2689,3721,3348,4.867,-1.28,0.569,93.7,blue,250,TRUE
84,1660781675.803,2861,-1935,882,3.737,-1.465,3.135,78.1,yellow,250,TRUE
85,1660781675.979,2748,4011,3348,4.9,-1.328,0.308,93.5,blue,250,TRUE
86,1660781676.293,2887,-1943,882,3.73,-1.397,-3.117,93.7,yellow,250,TRUE
87,1660781676.558,2772,4242,3348,5.143,-1.324,0.301,78.4,blue,250,TRUE
88,1660781678.232,2779,4497,3348,4.674,-1.356,0.391,93.6,blue,250,TRUE
89,1660781678.326,2235,-1911,2526,5.169,-1.35,2.994,125.0,green,250,TRUE
90,1660781678.688,2841,-1967,882,3.843,-1.37,2.988,83.5,yellow,250,TRUE
91,1660781678.881,2785,4862,3348,3.971,-1.377,0.682,79.1,blue,250,TRUE
92,1660781678.961,2248,-1914,2526,5.452,-1.292,2.891,82.6,green,250,TRUE
93,1660781679.286,2841,-1967,882,3.774,-1.393,2.966,78.3,yellow,250,TRUE
94,1660781679.458,2772,5184,3348,3.554,-1.422,0.557,78.3,blue,250,TRUE
95,1660781679.536,2288,-1903,2526,5.551,-1.309,2.817,93.6,green,250,TRUE
96,1660781679.858,2724,-2024,882,3.762,-1.424,2.909,95.3,yellow,250,TRUE
97,1660781680.122,2773,5523,3348,3.142,-1.433,0.971,95.5,blue,250,TRUE
98,1660781680.217,2306,-1903,2526,5.592,-1.328,2.74,79.3,green,250,TRUE
99,1660781680.5,2691,-2039,882,3.755,-1.385,3.001,78.1,yellow,250,TRUE
100,1660781680.676,2760,5831,3348,3.022,-1.415,0.714,94.0,blue,250,TRUE
101,1660781680.769,2351,-1905,2526,5.714,-1.307,2.81,125.3,green,250,TRUE
102,1660781681.122,2682,-2034,882,3.785,-1.386,2.985,87.2,yellow,250,TRUE
103,1660781681.318,2805,6192,3348,3.018,-1.391,0.609,94.0,blue,250,TRUE
104,1660781681.428,2406,-1920,2526,6.186,-1.32,2.863,93.8,green,250,TRUE
105,1660781681.74,2682,-2034,882,3.666,-1.376,3.076,78.2,yellow,250,TRUE
106,1660781681.982,2774,6513,3348,3.07,-1.379,0.636,93.7,blue,250,TRUE
107,1660781682.075,2469,-1909,2526,0.384,-1.372,3.123,79.6,green,250,TRUE
108,1660781682.373,2643,-2047,882,3.66,-1.305,3.097,93.7,yellow,250,TRUE
109,1660781682.56,2766,6834,3348,3.051,-1.38,0.633,95.1,blue,250,TRUE
110,1660781684.045,2565,-2068,882,3.689,-1.393,2.982,78.1,yellow,250,TRUE
111,1660781684.283,2737,6999,3348,3.085,-1.376,0.636,93.9,blue,250,TRUE
112,1660781684.377,2575,-1901,2526,5.865,-1.414,-2.992,77.9,green,250,TRUE
113,1660781684.68,2565,-2068,882,3.675,-1.37,3.004,79.0,yellow,250,TRUE
114,1660781686.32,2565,-2068,882,3.713,-1.408,2.987,78.1,yellow,250,TRUE
115,1660781686.571,2635,7264,3348,3.036,-1.378,0.621,98.0,blue,250,TRUE
116,1660781686.67,2591,-1904,2526,5.775,-1.345,-3.095,82.7,green,250,TRUE
117,1660781687.314,2527,-1924,2526,5.839,-1.355,-3.125,78.0,green,250,TRUE
118,1660781687.626,2565,-2068,882,3.674,-1.386,3.046,84.5,yellow,250,TRUE
119,1660781687.804,2590,7424,3348,3.011,-1.378,0.622,93.9,blue,250,TRUE
120,1660781687.898,2522,-1953,2526,5.838,-1.371,3.134,86.7,green,250,TRUE
121,1660781688.211,2565,-2068,882,3.686,-1.405,3.002,78.1,yellow,250,TRUE
122,1660781688.462,2591,7408,3348,2.976,-1.376,0.601,93.5,blue,250,TRUE
123,1660781688.571,2522,-1953,2526,5.835,-1.347,3.135,79.8,green,250,TRUE
124,1660781688.87,2565,-2068,882,3.701,-1.397,3.039,83.5,yellow,250,TRUE
125,1660781689.064,2583,7396,3348,2.978,-1.369,0.581,95.8,blue,250,TRUE
126,1660781689.695,2568,7346,3348,2.978,-1.37,0.545,93.7,blue,250,TRUE
127,1660781689.789,2496,-1967,2526,5.774,-1.372,-3.109,78.4,green,250,TRUE
128,1660781690.111,2565,-2068,882,3.7,-1.41,3.003,68.2,yellow,250,TRUE
129,1660781690.335,2578,7329,3348,2.949,-1.367,0.523,93.9,blue,250,TRUE
130,1660781690.429,2474,-1977,2526,5.805,-1.38,-3.136,93.7,green,250,TRUE
131,1660781690.743,2502,-2076,882,3.666,-1.408,3.067,78.3,yellow,250,TRUE
132,1660781690.915,2579,7355,3348,3.004,-1.365,0.559,102.6,blue,250,TRUE
133,1660781691.018,2422,-2010,2526,5.828,-1.388,3.113,93.9,green,250,TRUE
134,1660781691.328,2502,-2076,882,3.659,-1.409,3.077,78.0,yellow,250,TRUE
135,1660781691.531,2603,7366,3348,3.01,-1.368,0.578,93.9,blue,250,TRUE
136,1660781691.64,2378,-2028,2526,5.887,-1.391,3.083,76.3,green,250,TRUE
137,1660781691.935,2502,-2076,882,3.661,-1.41,3.064,83.4,yellow,250,TRUE
138,1660781692.277,2355,-2026,2526,5.937,-1.392,3.06,93.9,green,250,TRUE
139,1660781692.605,2502,-2076,882,3.663,-1.409,3.063,77.5,yellow,250,TRUE
140,1660781692.777,2592,7336,3348,3.015,-1.367,0.573,93.5,blue,250,TRUE
141,1660781693.224,2502,-2076,882,3.662,-1.419,3.038,77.7,yellow,250,TRUE
142,1660781693.411,2615,7310,3348,3.048,-1.334,0.531,93.8,blue,250,TRUE
143,1660781693.505,2338,-2026,2526,5.966,-1.382,3.088,93.9,green,250,TRUE
144,1660781693.826,2502,-2076,882,3.663,-1.418,3.036,78.1,yellow,250,TRUE
145,1660781694.065,2621,7287,3348,2.695,-1.35,0.328,95.2,blue,250,TRUE
146,1660781694.16,2305,-2039,2526,5.959,-1.388,3.106,88.3,green,250,TRUE
147,1660781694.71,2636,7275,3348,2.107,-1.357,0.202,93.5,blue,250,TRUE
148,1660781694.803,2233,-2058,2526,5.922,-1.408,3.094,94.0,green,250,TRUE
149,1660781695.165,2502,-2076,882,3.663,-1.421,3.042,76.0,yellow,250,TRUE
150,1660781695.397,2667,7331,3348,1.599,-1.368,0.096,93.8,blue,250,TRUE
151,1660781695.491,2220,-2067,2526,5.9,-1.413,3.101,93.7,green,250,TRUE
152,1660781695.812,2502,-2076,882,3.664,-1.427,3.038,78.1,yellow,250,TRUE
153,1660781695.999,2731,7347,3348,1.257,-1.353,0.127,94.0,blue,250,TRUE
154,1660781696.093,2220,-2067,2526,5.866,-1.408,3.086,77.1,green,250,TRUE
155,1660781696.405,2502,-2076,882,3.659,-1.427,3.06,78.1,yellow,250,TRUE
156,1660781696.608,2817,7385,3348,1.059,-1.35,0.404,91.3,blue,250,TRUE
157,1660781696.715,2215,-2063,2526,5.886,-1.398,3.052,78.1,green,250,TRUE
158,1660781697.027,2502,-2076,882,3.671,-1.433,3.051,78.1,yellow,250,TRUE
159,1660781697.276,2928,7433,3348,1.065,-1.358,0.459,94.1,blue,250,TRUE
160,1660781699.001,3051,7427,3348,1.611,-1.302,0.47,94.0,blue,250,TRUE
161,1660781700.691,3168,7386,3348,1.648,-1.344,0.3,93.6,blue,250,TRUE
162,1660781700.8,2234,-2057,2526,5.941,-1.384,3.067,78.4,green,250,TRUE
163,1660781701.097,2505,-2063,882,3.519,-1.335,3.01,89.9,yellow,250,TRUE
164,1660781701.296,3296,7346,3348,1.685,-1.338,0.384,110.9,blue,250,TRUE
165,1660781701.407,2234,-2057,2526,6.018,-1.385,3.039,78.0,green,250,TRUE
166,1660781701.749,2498,-2077,882,3.502,-1.347,3.01,93.7,yellow,250,TRUE
167,1660781701.999,3401,7359,3348,1.877,-1.33,0.502,93.7,blue,250,TRUE
168,1660781703.475,2508,-2094,882,3.425,-1.394,3.09,93.5,yellow,250,TRUE
169,1660781703.754,3495,7292,3348,2.214,-1.321,1.013,93.7,blue,250,TRUE
170,1660781706.521,2282,-2079,2526,6.077,-1.371,3.055,80.0,green,250,TRUE
171,1660781706.83,2508,-2094,882,3.543,-1.456,3.129,78.2,yellow,250,TRUE
172,1660781707.001,3623,6928,3348,1.454,-1.401,0.263,94.0,blue,250,TRUE
173,1660781707.095,2327,-2109,2526,6.159,-1.374,3.034,77.3,green,250,TRUE
174,1660781707.61,3686,6760,3348,1.497,-1.324,0.428,88.8,blue,250,TRUE
175,1660781707.699,2353,-2126,2526,6.16,-1.377,3.029,93.8,green,250,TRUE
176,1660781708.027,2524,-2064,882,3.562,-1.397,3.099,78.1,yellow,250,TRUE
177,1660781708.739,2477,-2054,882,3.528,-1.408,3.103,78.2,yellow,250,TRUE
178,1660781708.927,3742,6357,3348,1.202,-1.358,0.493,93.8,blue,250,TRUE
179,1660781709.021,2406,-2165,2526,5.942,-1.382,-3.136,78.2,green,250,TRUE
180,1660781710.607,3775,6134,3348,1.278,-1.336,0.445,102.9,blue,250,TRUE
181,1660781710.71,2397,-2126,2526,5.558,-1.29,2.975,93.7,green,250,TRUE
182,1660781711.334,2416,-2105,2526,6.274,-1.379,2.986,93.7,green,250,TRUE
183,1660781711.649,2477,-2054,882,3.817,-1.414,2.934,76.1,yellow,250,TRUE
184,1660781711.819,3783,5644,3348,1.5,-1.338,0.464,93.8,blue,250,TRUE
185,1660781711.928,2437,-2064,2526,0.289,-1.395,2.777,95.3,green,250,TRUE
186,1660781712.243,2571,-2073,882,3.797,-1.417,2.944,78.1,yellow,250,TRUE
187,1660781712.508,3807,5403,3348,1.716,-1.343,0.539,93.7,blue,250,TRUE
188,1660781712.602,2429,-2021,2526,0.268,-1.428,2.772,102.4,green,250,TRUE
189,1660781712.939,2571,-2073,882,3.798,-1.426,2.932,78.2,yellow,250,TRUE
190,1660781713.111,3827,5126,3348,1.92,-1.322,0.459,93.3,blue,250,TRUE
191,1660781713.532,2571,-2073,882,3.806,-1.421,2.92,78.0,yellow,250,TRUE
192,1660781713.697,3880,4787,3348,1.772,-1.263,0.523,93.7,blue,250,TRUE
193,1660781714.119,2571,-2073,882,3.829,-1.45,2.85,77.1,yellow,250,TRUE
194,1660781714.463,2461,-1879,2526,0.272,-1.419,2.769,93.8,green,250,TRUE
195,1660781714.789,2571,-2073,882,3.754,-1.465,3.109,78.2,yellow,250,TRUE
196,1660781714.977,4041,4345,3348,1.803,-1.323,0.568,93.7,blue,250,TRUE
197,1660781717.345,2671,-2059,882,4.126,-1.465,-3.135,95.2,yellow,250,TRUE
198,1660781717.628,4116,4170,3348,1.719,-1.347,0.537,92.8,blue,250,TRUE
199,1660781721.092,4279,3810,3348,1.792,-1.332,0.576,105.5,blue,250,TRUE
200,1660781721.213,2426,-1735,2526,5.366,-1.278,-2.869,93.9,green,250,TRUE
201,1660781721.542,2956,-1835,882,4.135,-1.48,3.106,93.7,yellow,250,TRUE
202,1660781721.741,4347,3616,3348,1.758,-1.338,0.591,93.7,blue,250,TRUE
203,1660781721.834,2401,-1706,2526,5.535,-1.345,-2.981,93.6,green,250,TRUE
204,1660781722.149,2956,-1835,882,4.091,-1.415,2.925,75.5,yellow,250,TRUE
205,1660781722.318,4380,3466,3348,1.729,-1.334,0.568,94.0,blue,250,TRUE
206,1660781722.765,3247,-1616,882,4.109,-1.318,3.066,77.9,yellow,250,TRUE
207,1660781722.999,4455,3360,3348,1.737,-1.316,0.529,93.8,blue,250,TRUE
208,1660781723.093,2402,-1668,2526,5.912,-1.484,3.118,92.2,green,250,TRUE
209,1660781723.42,3247,-1616,882,4.19,-1.396,2.981,78.0,yellow,250,TRUE
210,1660781723.623,4491,3237,3348,1.737,-1.309,0.512,89.1,blue,250,TRUE
211,1660781723.728,2381,-1676,2526,5.852,-1.431,3.066,94.1,green,250,TRUE
212,1660781724.025,3531,-1386,882,4.064,-1.405,3.036,78.1,yellow,250,TRUE
213,1660781724.211,4525,3156,3348,1.734,-1.326,0.547,95.2,blue,250,TRUE
214,1660781724.307,2381,-1669,2526,5.859,-1.477,-3.141,93.8,green,250,TRUE
215,1660781724.655,3531,-1386,882,4.117,-1.42,2.933,82.5,yellow,250,TRUE
216,1660781724.893,4569,3103,3348,1.706,-1.331,0.545,93.6,blue,250,TRUE
217,1660781724.987,2370,-1666,2526,5.873,-1.45,3.134,93.7,green,250,TRUE
218,1660781725.324,3531,-1386,882,4.168,-1.415,2.939,62.2,yellow,250,TRUE
219,1660781725.589,2326,-1670,2526,5.865,-1.454,-3.136,95.1,green,250,TRUE
220,1660781725.919,3531,-1386,882,4.144,-1.421,2.953,78.0,yellow,250,TRUE
221,1660781726.106,4581,3134,3348,1.705,-1.333,0.544,105.5,blue,250,TRUE
222,1660781726.227,2291,-1680,2526,5.886,-1.368,-3.109,93.8,green,250,TRUE
223,1660781726.54,3531,-1386,882,4.13,-1.426,2.913,77.8,yellow,250,TRUE
224,1660781726.771,4608,3115,3348,1.664,-1.33,0.52,93.7,blue,250,TRUE
225,1660781728.197,3816,-1176,882,4.105,-1.422,2.915,78.4,yellow,250,TRUE
226,1660781728.447,4621,3107,3348,1.659,-1.316,0.506,94.1,blue,250,TRUE
227,1660781728.541,2292,-1680,2526,0.268,-1.429,2.943,93.4,green,250,TRUE
228,1660781728.854,4116,-959,882,4.106,-1.422,2.916,78.0,yellow,250,TRUE
229,1660781729.025,4693,3084,3348,1.729,-1.318,0.537,93.7,blue,250,TRUE
230,1660781729.119,2314,-1685,2526,0.254,-1.445,2.946,87.0,green,250,TRUE
231,1660781729.456,4401,-739,882,4.098,-1.419,2.938,78.1,yellow,250,TRUE
232,1660781729.628,4690,3072,3348,1.721,-1.312,0.517,94.2,blue,250,TRUE
233,1660781729.738,2334,-1697,2526,0.364,-1.434,2.855,93.8,green,250,TRUE
234,1660781730.05,4442,-724,882,4.095,-1.42,2.951,94.7,yellow,250,TRUE
235,1660781730.293,4712,3077,3348,1.739,-1.307,0.519,109.4,blue,250,TRUE
236,1660781730.402,2355,-1687,2526,0.329,-1.41,2.956,93.7,green,250,TRUE
237,1660781730.716,4474,-705,882,4.095,-1.422,2.953,93.7,yellow,250,TRUE
238,1660781730.903,4731,3078,3348,1.633,-1.34,0.46,93.7,blue,250,TRUE
239,1660781730.997,2360,-1668,2526,0.315,-1.405,2.951,93.7,green,250,TRUE
240,1660781731.316,4775,-496,882,4.095,-1.422,2.953,78.2,yellow,250,TRUE
241,1660781731.488,4738,3103,3348,1.269,-1.368,0.416,93.7,blue,250,TRUE
242,1660781733.143,4774,3161,3348,0.856,-1.331,0.557,93.2,blue,250,TRUE
243,1660781733.236,2374,-1669,2526,0.344,-1.408,2.917,79.3,green,250,TRUE
244,1660781733.534,4859,-495,882,4.097,-1.431,2.874,78.1,yellow,250,TRUE
245,1660781733.7,4750,3194,3348,1.138,-1.301,0.66,93.7,blue,250,TRUE
246,1660781733.809,2390,-1686,2526,0.34,-1.408,2.911,79.5,green,250,TRUE
247,1660781734.091,4859,-495,882,4.109,-1.432,2.868,81.9,yellow,250,TRUE
248,1660781734.294,4679,3225,3348,1.453,-1.268,0.658,93.5,blue,250,TRUE
249,1660781734.387,2399,-1682,2526,0.339,-1.408,2.905,94.0,green,250,TRUE
250,1660781734.709,5121,-227,882,4.111,-1.434,2.862,78.1,yellow,250,TRUE
251,1660781734.943,4685,3232,3348,1.405,-1.271,0.647,93.8,blue,250,TRUE
252,1660781735.037,2391,-1696,2526,0.322,-1.401,2.949,93.6,green,250,TRUE
253,1660781735.349,5348,-8,882,4.116,-1.448,2.827,93.8,yellow,250,TRUE
254,1660781735.536,4675,3222,3348,1.421,-1.295,0.661,93.6,blue,250,TRUE
255,1660781736.015,5079,-225,882,4.081,-1.448,2.91,78.1,yellow,250,TRUE
256,1660781736.249,4650,3275,3348,0.762,-1.342,0.387,93.6,blue,250,TRUE
257,1660781736.648,4814,-438,882,4.049,-1.45,2.938,80.8,yellow,250,TRUE
258,1660781736.838,4567,3303,3348,0.415,-1.367,0.254,78.0,blue,250,TRUE
259,1660781736.916,2447,-1728,2526,0.283,-1.416,2.978,78.2,green,250,TRUE
260,1660781737.212,4814,-438,882,4.05,-1.445,2.955,78.1,yellow,250,TRUE
261,1660781737.385,4544,3351,3348,0.615,-1.374,0.483,93.7,blue,250,TRUE
262,1660781737.478,2455,-1717,2526,5.829,-1.392,-2.897,93.7,green,250,TRUE
263,1660781737.815,4552,-660,882,4.075,-1.444,2.937,93.8,yellow,250,TRUE
264,1660781738.065,4508,3401,3348,1.286,-1.369,0.804,96.9,blue,250,TRUE
265,1660781738.5,4291,-873,882,4.074,-1.432,2.956,78.1,yellow,250,TRUE
266,1660781738.699,4435,3433,3348,1.643,-1.343,1.025,94.1,blue,250,TRUE
267,1660781738.793,2456,-1693,2526,5.814,-1.355,-3.018,93.7,green,250,TRUE
268,1660781739.137,4026,-1096,882,4.071,-1.428,2.954,87.0,yellow,250,TRUE
269,1660781739.382,4326,3434,3348,2.273,-1.322,0.933,93.8,blue,250,TRUE
270,1660781739.476,2433,-1690,2526,5.138,-1.401,-2.89,93.7,green,250,TRUE
271,1660781740.02,4179,3368,3348,2.328,-1.278,0.592,93.7,blue,250,TRUE
272,1660781740.113,2376,-1717,2526,4.964,-1.454,-3.107,89.4,green,250,TRUE
273,1660781740.422,4026,-1096,882,4.04,-1.415,2.982,78.2,yellow,250,TRUE
274,1660781740.712,2320,-1737,2526,5.007,-1.413,-2.896,93.5,green,250,TRUE
275,1660781741.026,3738,-1314,882,4.039,-1.416,2.981,78.1,yellow,250,TRUE
276,1660781741.269,3823,2951,3348,1.542,-1.271,0.806,93.7,blue,250,TRUE
277,1660781741.363,2300,-1726,2526,5.001,-1.42,-2.884,93.8,green,250,TRUE
278,1660781741.682,3714,-1307,882,4.04,-1.419,2.977,80.6,yellow,250,TRUE
279,1660781741.856,3737,2804,3348,0.473,-1.419,0.88,93.7,blue,250,TRUE
280,1660781741.966,2253,-1721,2526,5.097,-1.454,-3.124,79.7,green,250,TRUE
281,1660781742.281,3966,-1096,882,4.052,-1.42,2.966,78.1,yellow,250,TRUE
282,1660781742.452,3703,2654,3348,0.408,-1.407,0.524,93.8,blue,250,TRUE
283,1660781742.546,2214,-1734,2526,5.125,-1.366,-2.992,94.8,green,250,TRUE
284,1660781742.853,3960,-1094,882,4.073,-1.42,2.949,78.1,yellow,250,TRUE
285,1660781743.087,3674,2556,3348,0.225,-1.526,0.039,94.8,blue,250,TRUE
286,1660781743.184,2198,-1739,2526,4.989,-1.35,-2.895,89.6,green,250,TRUE
287,1660781743.555,3960,-1094,882,4.078,-1.42,2.944,78.1,yellow,250,TRUE
288,1660781743.83,2131,-1737,2526,4.885,-1.346,-2.846,79.6,green,250,TRUE
289,1660781744.146,3960,-1094,882,4.079,-1.42,2.944,74.2,yellow,250,TRUE
290,1660781745.386,2131,-1739,2526,4.466,-1.343,-1.998,93.7,green,250,TRUE
291,1660781745.709,4196,-878,882,4.064,-1.48,3.138,78.3,yellow,250,TRUE
292,1660781745.944,3544,2308,3348,5.273,-1.434,-0.2,93.7,blue,250,TRUE
293,1660781746.037,2099,-1765,2526,4.879,-1.355,-2.738,79.7,green,250,TRUE
294,1660781746.317,3911,-1101,882,3.913,-1.37,-2.915,78.1,yellow,250,TRUE
295,1660781746.489,3416,2304,3348,5.806,-1.418,0.079,93.8,blue,250,TRUE
296,1660781746.583,2076,-1815,2526,5.201,-1.532,3.107,94.6,green,250,TRUE
297,1660781746.831,3911,-1101,882,3.668,-1.307,-2.851,78.4,yellow,250,TRUE
298,1660781747.034,3348,2298,3348,0.139,-1.47,-0.014,93.9,blue,250,TRUE
299,1660781747.128,2039,-1844,2526,5.588,-1.456,3.141,79.2,green,250,TRUE
300,1660781747.443,3596,-1335,882,3.884,-1.479,-3.132,78.1,yellow,250,TRUE
301,1660781747.679,3409,2330,3348,1.006,-1.347,0.837,83.7,blue,250,TRUE
302,1660781747.763,2042,-1859,2526,5.472,-1.443,-2.626,93.7,green,250,TRUE
303,1660781748.107,3596,-1335,882,3.605,-1.528,-3.121,77.7,yellow,250,TRUE
304,1660781748.278,3561,2350,3348,1.606,-1.358,0.308,93.8,blue,250,TRUE
305,1660781748.372,2096,-1853,2526,5.818,-1.47,-3.109,93.7,green,250,TRUE
306,1660781749.938,3824,2364,3348,1.754,-1.394,0.66,94.0,blue,250,TRUE
307,1660781750.369,3596,-1335,882,3.423,-1.536,-3.108,78.1,yellow,250,TRUE
308,1660781750.652,2201,-1890,2526,5.981,-1.478,3.134,79.2,green,250,TRUE
309,1660781750.965,3904,-1087,882,3.49,-1.547,-3.122,78.2,yellow,250,TRUE
310,1660781751.137,4307,2559,3348,1.721,-1.484,-0.003,84.5,blue,250,TRUE
311,1660781751.221,2206,-1917,2526,5.285,-1.491,-0.057,93.7,green,250,TRUE
312,1660781751.534,3904,-1087,882,3.361,-1.539,-0.031,78.2,yellow,250,TRUE
313,1660781751.767,4539,2613,3348,1.737,-1.517,-0.005,93.5,blue,250,TRUE
314,1660781751.861,2234,-1902,2526,5.057,-1.412,-2.741,93.7,green,250,TRUE
315,1660781752.371,4719,2682,3348,1.734,-1.525,-0.016,93.7,blue,250,TRUE
316,1660781752.464,2217,-1877,2526,4.771,-1.252,-2.836,93.7,green,250,TRUE
317,1660781752.773,3904,-1087,882,3.538,-1.528,-3.099,78.2,yellow,250,TRUE
318,1660781752.944,4875,2742,3348,1.751,-1.517,-0.024,93.7,blue,250,TRUE
319,1660781753.038,2215,-1832,2526,5.569,-1.437,2.92,93.7,green,250,TRUE
320,1660781753.312,3897,-1095,882,3.719,-1.527,-0.043,78.0,yellow,250,TRUE
321,1660781753.546,5025,2833,3348,1.734,-1.515,-0.033,98.5,blue,250,TRUE
322,1660781753.647,2164,-1788,2526,0.064,-1.55,-3.125,85.8,green,250,TRUE
323,1660781753.967,3897,-1095,882,3.972,-1.491,-3.098,78.1,yellow,250,TRUE
324,1660781754.148,5246,2816,3348,1.71,-1.521,-0.044,87.1,blue,250,TRUE
325,1660781754.235,2151,-1770,2526,0.161,-1.528,0.01,95.2,green,250,TRUE
326,1660781754.867,5459,2722,3348,1.666,-1.513,-3.084,93.6,blue,250,TRUE
327,1660781754.961,2117,-1754,2526,6.152,-1.492,-3.127,78.1,green,250,TRUE
328,1660781755.26,4164,-875,882,3.855,-1.538,-3.115,78.1,yellow,250,TRUE
329,1660781755.463,5628,2640,3348,1.657,-1.494,-3.07,93.6,blue,250,TRUE
330,1660781755.557,2121,-1739,2526,5.764,-1.491,-3.126,96.2,green,250,TRUE
331,1660781755.862,4090,-858,882,3.862,-1.524,-3.11,93.7,yellow,250,TRUE
332,1660781756.049,5708,2516,3348,1.764,-1.526,0.026,96.2,blue,250,TRUE
333,1660781756.158,2078,-1727,2526,5.682,-1.49,-3.122,79.0,green,250,TRUE
334,1660781756.455,4090,-858,882,3.832,-1.537,-3.111,78.1,yellow,250,TRUE
335,1660781756.698,5784,2467,3348,1.931,-1.379,2.098,93.7,blue,250,TRUE
336,1660781756.792,2044,-1719,2526,5.882,-1.453,-3.132,93.8,green,250,TRUE
337,1660781757.12,4359,-634,882,3.843,-1.54,-3.113,94.5,yellow,250,TRUE
338,1660781757.308,5781,2469,3348,1.912,-1.228,2.526,93.7,blue,250,TRUE
339,1660781757.402,1975,-1686,2526,5.477,-1.518,-3.131,93.8,green,250,TRUE
340,1660781757.724,4359,-634,882,3.887,-1.537,-3.109,79.5,yellow,250,TRUE
341,1660781757.897,5850,2518,3348,1.917,-1.253,2.535,93.9,blue,250,TRUE
342,1660781757.99,1916,-1652,2526,5.114,-1.413,-2.782,93.8,green,250,TRUE
343,1660781758.312,4653,-417,882,3.911,-1.538,-3.11,77.8,yellow,250,TRUE
344,1660781758.546,5859,2545,3348,1.947,-1.276,2.507,95.2,blue,250,TRUE
345,1660781758.644,1899,-1610,2526,5.106,-1.42,-2.831,89.5,green,250,TRUE
346,1660781758.937,4717,-403,882,3.896,-1.538,-3.11,93.7,yellow,250,TRUE
347,1660781759.14,5868,2565,3348,1.965,-1.311,2.443,95.7,blue,250,TRUE
348,1660781759.236,1871,-1603,2526,5.133,-1.426,-2.861,78.5,green,250,TRUE
349,1660781759.548,4717,-403,882,3.908,-1.529,-3.108,78.0,yellow,250,TRUE
350,1660781759.838,1863,-1612,2526,5.185,-1.41,-2.97,93.8,green,250,TRUE
351,1660781760.134,4468,-613,882,3.927,-1.523,-3.103,92.7,yellow,250,TRUE
352,1660781760.383,5885,2582,3348,1.961,-1.29,2.566,94.1,blue,250,TRUE
353,1660781760.477,1856,-1638,2526,5.351,-1.418,-3.133,93.8,green,250,TRUE
354,1660781760.799,4230,-833,882,3.89,-1.51,-3.108,78.1,yellow,250,TRUE
355,1660781761.08,1852,-1656,2526,5.645,-1.43,3.017,96.3,green,250,TRUE
356,1660781761.435,4230,-833,882,3.853,-1.441,-3.084,78.1,yellow,250,TRUE
357,1660781761.716,1858,-1651,2526,6.183,-1.49,3.086,93.8,green,250,TRUE
358,1660781762.321,5920,2515,3348,2.002,-1.337,2.438,93.4,blue,250,TRUE
359,1660781762.414,1890,-1645,2526,6.182,-1.481,-3.118,78.4,green,250,TRUE
360,1660781762.711,4225,-832,882,3.954,-1.308,3.091,79.4,yellow,250,TRUE
361,1660781762.884,5943,2523,3348,2.015,-1.366,2.353,93.7,blue,250,TRUE
362,1660781762.978,1893,-1641,2526,0.044,-1.487,-3.123,93.7,green,250,TRUE
363,1660781763.299,4496,-627,882,4.05,-1.425,2.919,78.4,yellow,250,TRUE
364,1660781763.471,5953,2540,3348,1.88,-1.472,0.094,93.8,blue,250,TRUE
365,1660781763.565,1920,-1633,2526,0.349,-1.413,-3.123,97.3,green,250,TRUE
366,1660781763.889,4519,-596,882,4.021,-1.407,2.967,78.2,yellow,250,TRUE
367,1660781764.124,5981,2509,3348,2.223,-1.482,3.057,102.9,blue,250,TRUE
368,1660781765.805,6014,2493,3348,2.527,-1.485,3.055,93.7,blue,250,TRUE
369,1660781765.899,1944,-1661,2526,0.295,-1.476,3.117,93.8,green,250,TRUE
370,1660781766.228,4519,-596,882,3.967,-1.418,3.003,78.1,yellow,250,TRUE
371,1660781766.4,5993,2465,3348,3.05,-1.445,1.637,93.7,blue,250,TRUE
372,1660781766.494,1981,-1701,2526,0.209,-1.438,2.906,95.2,green,250,TRUE
373,1660781766.828,4519,-596,882,3.97,-1.424,2.997,78.1,yellow,250,TRUE
374,1660781767.0,5965,2454,3348,3.696,-1.33,1.848,93.6,blue,250,TRUE
375,1660781767.422,4519,-596,882,3.944,-1.425,2.986,78.1,yellow,250,TRUE
376,1660781767.66,5879,2481,3348,4.66,-1.401,1.005,83.4,blue,250,TRUE
377,1660781768.334,5710,2549,3348,5.042,-1.372,0.555,93.8,blue,250,TRUE
378,1660781768.427,1991,-1693,2526,5.592,-1.413,-3.122,93.7,green,250,TRUE
379,1660781768.74,4294,-818,882,3.928,-1.416,2.967,93.8,yellow,250,TRUE
380,1660781768.989,5467,2703,3348,5.02,-1.367,0.194,78.4,blue,250,TRUE
381,1660781769.394,4294,-818,882,3.916,-1.456,3.118,78.0,yellow,250,TRUE
382,1660781769.566,5194,2946,3348,4.953,-1.201,0.511,94.5,blue,250,TRUE
383,1660781769.665,2059,-1695,2526,5.668,-1.412,-2.997,81.9,green,250,TRUE
384,1660781769.966,4294,-818,882,3.863,-1.451,3.025,78.1,yellow,250,TRUE
385,1660781770.137,4938,3217,3348,5.639,-1.322,0.978,94.5,blue,250,TRUE
386,1660781770.232,2091,-1691,2526,5.645,-1.428,-2.99,93.8,green,250,TRUE
387,1660781770.575,4294,-818,882,3.833,-1.449,3.05,80.4,yellow,250,TRUE
388,1660781770.818,4580,3426,3348,5.498,-1.35,1.713,94.0,blue,250,TRUE
389,1660781770.912,2125,-1700,2526,5.667,-1.43,-2.993,78.1,green,250,TRUE
390,1660781771.23,4184,-827,882,3.829,-1.448,3.054,78.1,yellow,250,TRUE
391,1660781771.402,4296,3638,3348,0.353,-1.367,1.104,93.7,blue,250,TRUE
392,1660781771.496,2125,-1700,2526,5.558,-1.427,-2.921,78.2,green,250,TRUE
393,1660781771.796,4184,-827,882,3.752,-1.437,-3.131,78.2,yellow,250,TRUE
394,1660781771.969,4076,3811,3348,1.382,-1.392,0.513,94.1,blue,250,TRUE
395,1660781772.063,2125,-1700,2526,5.5,-1.42,-2.969,81.6,green,250,TRUE
396,1660781772.366,4184,-827,882,3.589,-1.437,-3.029,78.2,yellow,250,TRUE
397,1660781772.6,3885,3956,3348,1.532,-1.249,0.585,99.0,blue,250,TRUE
398,1660781772.699,2154,-1725,2526,5.9,-1.405,-3.105,78.1,green,250,TRUE
399,1660781772.997,4184,-827,882,3.596,-1.432,-2.98,78.1,yellow,250,TRUE
400,1660781773.174,3718,4036,3348,1.895,-1.265,0.419,93.6,blue,250,TRUE
401,1660781773.268,2160,-1742,2526,5.857,-1.409,-3.119,78.1,green,250,TRUE
402,1660781773.564,4184,-827,882,3.475,-1.425,-2.789,80.7,yellow,250,TRUE
403,1660781773.803,2172,-1743,2526,5.792,-1.41,-3.075,78.1,green,250,TRUE
404,1660781774.1,4184,-827,882,3.379,-1.409,-2.747,81.1,yellow,250,TRUE
405,1660781774.34,3627,4068,3348,2.316,-1.292,0.255,93.4,blue,250,TRUE
406,1660781774.433,2176,-1740,2526,5.813,-1.408,-3.099,78.1,green,250,TRUE
407,1660781774.721,4184,-827,882,3.392,-1.405,-2.781,78.1,yellow,250,TRUE
408,1660781774.908,3515,4066,3348,2.282,-1.334,0.416,93.7,blue,250,TRUE
409,1660781775.002,2184,-1745,2526,5.798,-1.413,-3.085,78.1,green,250,TRUE
410,1660781775.332,4184,-827,882,3.426,-1.404,-2.848,78.2,yellow,250,TRUE
411,1660781775.504,3453,4064,3348,2.093,-1.29,0.351,93.8,blue,250,TRUE
412,1660781775.598,2170,-1725,2526,5.802,-1.418,-3.087,100.2,green,250,TRUE
413,1660781777.337,2167,-1701,2526,5.844,-1.465,-3.106,93.7,green,250,TRUE
414,1660781777.668,3850,-1074,882,3.617,-1.453,-3.099,80.0,yellow,250,TRUE
415,1660781777.843,3524,3877,3348,1.64,-1.335,0.427,93.7,blue,250,TRUE
416,1660781777.953,2210,-1720,2526,5.946,-1.469,-3.09,78.1,green,250,TRUE
417,1660781778.237,3850,-1074,882,3.656,-1.492,-3.103,78.1,yellow,250,TRUE
418,1660781778.44,3785,3728,3348,1.289,-1.348,0.415,93.8,blue,250,TRUE
419,1660781778.534,2224,-1720,2526,6.17,-1.485,-3.133,93.7,green,250,TRUE
420,1660781778.838,3822,-1130,882,3.546,-1.502,-3.097,78.1,yellow,250,TRUE
421,1660781779.072,4080,3513,3348,1.373,-1.377,0.356,95.7,blue,250,TRUE
422,1660781779.171,2184,-1721,2526,6.178,-1.417,3.123,87.4,green,250,TRUE
423,1660781779.524,3822,-1130,882,3.592,-1.509,-3.107,78.1,yellow,250,TRUE
424,1660781779.799,2206,-1750,2526,6.138,-1.506,3.133,78.1,green,250,TRUE
425,1660781780.096,3458,-1384,882,3.642,-1.489,-3.11,92.8,yellow,250,TRUE
426,1660781780.423,2235,-1776,2526,6.04,-1.468,-3.117,78.1,green,250,TRUE
427,1660781780.716,3458,-1384,882,3.639,-1.494,-3.105,78.2,yellow,250,TRUE
428,1660781780.95,4721,2892,3348,1.57,-1.496,3.095,93.8,blue,250,TRUE
429,1660781781.044,2223,-1767,2526,6.079,-1.397,-3.047,78.0,green,250,TRUE
430,1660781781.335,3166,-1623,882,3.505,-1.51,-3.094,78.1,yellow,250,TRUE
431,1660781781.616,2233,-1756,2526,6.07,-1.416,-3.112,86.7,green,250,TRUE
432,1660781783.16,4881,2694,3348,2.233,-1.394,0.619,91.5,blue,250,TRUE
433,1660781783.252,2232,-1747,2526,6.004,-1.446,3.117,109.3,green,250,TRUE
434,1660781783.58,3066,-1669,882,3.667,-1.498,-3.117,78.4,yellow,250,TRUE
435,1660781783.86,2243,-1739,2526,6.054,-1.429,3.103,93.7,green,250,TRUE
436,1660781784.371,4915,2667,3348,1.836,-1.343,-0.051,93.7,blue,250,TRUE
437,1660781784.48,2232,-1735,2526,6.151,-1.419,2.966,78.1,green,250,TRUE
438,1660781784.791,3019,-1683,882,3.683,-1.516,-3.106,78.1,yellow,250,TRUE
439,1660781785.056,5030,2661,3348,1.198,-1.334,0.087,96.3,blue,250,TRUE
440,1660781785.154,2248,-1716,2526,6.15,-1.44,3.04,83.3,green,250,TRUE
441,1660781785.456,2975,-1695,882,3.65,-1.521,-3.103,78.1,yellow,250,TRUE
442,1660781785.629,5246,2654,3348,1.189,-1.312,0.456,92.4,blue,250,TRUE
443,1660781785.722,2249,-1705,2526,6.099,-1.44,3.099,93.7,green,250,TRUE
444,1660781786.034,2975,-1695,882,3.634,-1.526,-3.106,78.1,yellow,250,TRUE
445,1660781786.2,5376,2632,3348,1.369,-1.371,0.253,94.0,blue,250,TRUE
446,1660781786.294,2252,-1706,2526,6.08,-1.445,3.109,93.7,green,250,TRUE
447,1660781786.606,2975,-1695,882,3.602,-1.522,-3.106,79.0,yellow,250,TRUE
448,1660781786.851,5434,2582,3348,1.474,-1.406,0.284,93.6,blue,250,TRUE
449,1660781786.945,2264,-1710,2526,6.079,-1.445,3.11,93.7,green,250,TRUE
450,1660781787.302,2975,-1695,882,3.671,-1.529,-3.119,78.0,yellow,250,TRUE
451,1660781787.474,5472,2573,3348,1.542,-1.408,0.56,93.7,blue,250,TRUE
452,1660781787.583,2274,-1715,2526,6.08,-1.44,3.109,104.8,green,250,TRUE
453,1660781790.898,5298,2456,3348,3.599,-1.197,1.15,93.7,blue,250,TRUE
454,1660781791.336,2986,-1693,882,3.988,-1.413,2.834,78.0,yellow,250,TRUE
455,1660781791.648,2255,-1713,2526,5.849,-1.359,2.735,88.7,green,250,TRUE
456,1660781792.266,5166,2409,3348,1.732,-1.212,0.978,78.2,blue,250,TRUE
457,1660781792.345,2281,-1731,2526,5.955,-1.359,2.741,93.7,green,250,TRUE
458,1660781792.858,5122,2317,3348,1.422,-1.344,0.381,93.7,blue,250,TRUE
459,1660781792.952,2296,-1740,2526,5.955,-1.369,2.706,93.6,green,250,TRUE
460,1660781793.274,2677,-1905,882,4.0,-1.408,2.922,78.1,yellow,250,TRUE
461,1660781793.556,2292,-1758,2526,5.995,-1.37,2.726,94.8,green,250,TRUE
462,1660781793.87,2667,-1926,882,3.979,-1.408,2.951,78.2,yellow,250,TRUE
463,1660781794.105,5211,1924,3348,0.912,-1.257,0.442,89.9,blue,250,TRUE
464,1660781794.21,2293,-1775,2526,5.982,-1.367,2.721,78.2,green,250,TRUE
465,1660781794.492,2537,-1944,882,3.968,-1.408,2.977,93.8,yellow,250,TRUE
466,1660781794.705,5454,1775,3348,0.0,-1.304,0.87,78.2,blue,250,TRUE
467,1660781794.783,2307,-1787,2526,5.974,-1.372,2.658,93.7,green,250,TRUE
468,1660781795.08,2623,-1931,882,3.917,-1.404,3.038,93.9,yellow,250,TRUE
469,1660781795.268,5569,1569,3348,5.822,-1.274,0.75,93.7,blue,250,TRUE
470,1660781795.361,2307,-1800,2526,5.988,-1.376,2.56,93.7,green,250,TRUE
471,1660781795.697,2652,-1915,882,3.905,-1.406,3.057,78.2,yellow,250,TRUE
472,1660781796.401,2705,-1877,882,3.924,-1.405,3.052,78.0,yellow,250,TRUE
473,1660781797.036,2766,-1852,882,3.929,-1.404,3.051,78.1,yellow,250,TRUE
474,1660781797.279,5586,1072,3348,5.63,-1.296,0.611,93.6,blue,250,TRUE
475,1660781797.373,2285,-1832,2526,5.947,-1.405,2.547,93.7,green,250,TRUE
476,1660781797.685,2756,-1838,882,3.927,-1.395,3.065,78.5,yellow,250,TRUE
477,1660781797.859,5643,912,3348,5.85,-1.29,0.645,94.0,blue,250,TRUE
478,1660781797.953,2291,-1843,2526,5.914,-1.406,2.539,93.8,green,250,TRUE
479,1660781798.289,2757,-1819,882,3.908,-1.393,3.084,78.1,yellow,250,TRUE
480,1660781798.461,5781,858,3348,5.913,-1.305,0.651,93.8,blue,250,TRUE
481,1660781798.554,2276,-1857,2526,5.865,-1.429,2.46,98.3,green,250,TRUE
482,1660781798.853,2757,-1819,882,3.903,-1.402,3.086,78.2,yellow,250,TRUE
483,1660781799.087,6070,710,3348,5.885,-1.317,0.685,108.1,blue,250,TRUE
484,1660781799.196,2228,-1846,2526,5.562,-1.334,-3.025,95.3,green,250,TRUE
485,1660781799.525,2757,-1819,882,3.912,-1.409,3.082,78.1,yellow,250,TRUE
486,1660781799.722,6306,610,3348,5.932,-1.317,0.73,93.6,blue,250,TRUE
487,1660781799.815,2192,-1823,2526,5.702,-1.359,3.058,93.9,green,250,TRUE
488,1660781800.112,2757,-1819,882,3.881,-1.448,3.077,86.7,yellow,250,TRUE
489,1660781800.293,6518,562,3348,5.972,-1.309,0.758,93.8,blue,250,TRUE
490,1660781800.387,2169,-1788,2526,5.513,-1.409,-3.134,93.7,green,250,TRUE
491,1660781800.69,2745,-1812,882,3.931,-1.455,3.127,81.3,yellow,250,TRUE
492,1660781800.928,6679,579,3348,6.247,-1.254,0.891,93.7,blue,250,TRUE
493,1660781801.022,2161,-1769,2526,5.546,-1.525,3.132,93.8,green,250,TRUE
494,1660781801.35,2745,-1812,882,3.943,-1.474,3.125,77.8,yellow,250,TRUE
495,1660781801.631,2139,-1736,2526,5.375,-1.498,0.072,87.8,green,250,TRUE
496,1660781801.938,2712,-1803,882,3.939,-1.478,3.125,80.0,yellow,250,TRUE
497,1660781802.111,6633,580,3348,6.097,-1.273,0.889,102.5,blue,250,TRUE
498,1660781802.229,2119,-1722,2526,5.901,-1.513,3.134,94.0,green,250,TRUE
499,1660781802.526,2386,-2022,882,3.951,-1.44,3.034,78.0,yellow,250,TRUE
500,1660781802.777,6623,605,3348,6.109,-1.254,0.856,95.0,blue,250,TRUE
501,1660781802.872,2066,-1718,2526,5.449,-1.395,-3.141,78.5,green,250,TRUE
502,1660781803.19,2399,-2021,882,3.887,-1.443,3.098,78.4,yellow,250,TRUE
503,1660781803.362,6724,623,3348,6.183,-1.289,0.916,93.4,blue,250,TRUE
504,1660781803.456,2039,-1718,2526,5.1,-1.398,-2.718,94.0,green,250,TRUE
505,1660781803.803,2399,-2021,882,3.952,-1.396,3.093,78.4,yellow,250,TRUE
506,1660781803.975,6781,628,3348,6.152,-1.296,0.865,93.7,blue,250,TRUE
507,1660781804.069,2050,-1737,2526,4.955,-1.413,-2.698,79.8,green,250,TRUE
508,1660781804.369,2388,-2013,882,3.973,-1.377,3.073,78.0,yellow,250,TRUE
509,1660781804.604,6779,640,3348,6.196,-1.295,0.846,99.7,blue,250,TRUE
510,1660781804.703,2039,-1755,2526,4.994,-1.332,-2.886,78.1,green,250,TRUE
511,1660781805.0,2406,-2036,882,3.948,-1.362,3.085,78.1,yellow,250,TRUE
512,1660781805.179,6757,639,3348,0.024,-1.28,0.968,94.0,blue,250,TRUE
513,1660781805.289,2023,-1769,2526,4.89,-1.349,-2.832,93.8,green,250,TRUE
514,1660781805.601,2419,-2049,882,3.932,-1.357,3.097,93.7,yellow,250,TRUE
515,1660781805.804,6769,643,3348,0.056,-1.227,0.898,93.9,blue,250,TRUE
516,1660781805.898,2032,-1784,2526,4.9,-1.362,-2.835,93.7,green,250,TRUE
517,1660781806.195,2406,-2059,882,3.979,-1.36,3.07,78.0,yellow,250,TRUE
518,1660781806.43,6815,647,3348,0.075,-1.254,1.012,93.7,blue,250,TRUE
519,1660781806.523,2039,-1779,2526,5.25,-1.384,-2.619,93.7,green,250,TRUE
520,1660781806.86,2406,-2059,882,4.222,-1.329,2.777,62.4,yellow,250,TRUE
521,1660781807.016,6853,665,3348,0.067,-1.248,1.023,93.7,blue,250,TRUE
522,1660781807.109,2060,-1768,2526,4.961,-1.357,-3.126,84.6,green,250,TRUE
523,1660781807.444,2319,-2031,882,4.383,-1.395,-3.052,78.2,yellow,250,TRUE
524,1660781807.631,6837,668,3348,0.106,-1.241,0.975,94.3,blue,250,TRUE
525,1660781807.725,2020,-1717,2526,4.825,-1.395,-2.983,78.0,green,250,TRUE
526,1660781808.024,2319,-2031,882,4.435,-1.421,2.711,78.0,yellow,250,TRUE
527,1660781808.282,6853,673,3348,6.087,-1.283,0.866,93.7,blue,250,TRUE
528,1660781808.376,1921,-1648,2526,5.616,-1.389,2.874,93.7,green,250,TRUE
529,1660781808.688,2294,-1973,882,4.19,-1.324,-2.94,79.6,yellow,250,TRUE
530,1660781808.861,6861,683,3348,5.416,-1.373,0.774,93.8,blue,250,TRUE
531,1660781808.955,1860,-1565,2526,5.544,-1.331,3.084,93.7,green,250,TRUE
532,1660781809.259,2138,-1889,882,4.679,-1.353,3.053,93.5,yellow,250,TRUE
533,1660781809.446,6844,695,3348,5.52,-1.36,0.917,93.7,blue,250,TRUE
534,1660781809.54,1797,-1443,2526,5.87,-1.475,-3.106,93.8,green,250,TRUE
535,1660781809.854,2037,-1764,882,5.281,-1.358,-2.615,94.0,yellow,250,TRUE
536,1660781810.104,6837,703,3348,5.366,-1.37,1.373,101.7,blue,250,TRUE
537,1660781810.205,1773,-1272,2526,5.61,-1.42,3.045,93.7,green,250,TRUE
538,1660781810.502,1916,-1608,882,6.124,-1.328,2.841,93.7,yellow,250,TRUE
539,1660781810.72,6822,710,3348,5.376,-1.349,1.565,93.7,blue,250,TRUE
540,1660781810.829,1754,-1061,2526,5.75,-1.381,2.74,93.9,green,250,TRUE
541,1660781811.149,1840,-1453,882,5.834,-1.346,-3.015,82.9,yellow,250,TRUE
542,1660781811.341,6828,724,3348,5.347,-1.361,1.456,93.9,blue,250,TRUE
543,1660781811.435,1736,-823,2526,6.177,-1.49,-3.112,94.8,green,250,TRUE
544,1660781811.761,1784,-1291,882,5.769,-1.36,2.982,93.7,yellow,250,TRUE
545,1660781812.011,6829,716,3348,5.294,-1.398,1.249,93.7,blue,250,TRUE
546,1660781812.104,1770,-552,2526,0.664,-1.441,3.085,103.3,green,250,TRUE
547,1660781812.442,1711,-1112,882,0.584,-1.295,2.986,93.8,yellow,250,TRUE
548,1660781812.63,6819,728,3348,5.257,-1.4,1.1,87.9,blue,250,TRUE
549,1660781813.063,1671,-957,882,1.535,-1.356,2.429,96.4,yellow,250,TRUE
550,1660781813.311,6801,738,3348,5.223,-1.41,1.038,93.8,blue,250,TRUE
551,1660781813.42,2012,-35,2526,1.066,-1.452,-3.131,93.7,green,250,TRUE
552,1660781813.758,1609,-767,882,1.389,-1.317,2.507,93.7,yellow,250,TRUE
553,1660781813.946,6757,716,3348,5.341,-1.386,1.1,93.7,blue,250,TRUE
554,1660781814.039,2256,188,2526,0.611,-1.492,-3.079,93.7,green,250,TRUE
555,1660781814.354,1541,-615,882,1.527,-1.284,2.575,93.7,yellow,250,TRUE
556,1660781814.541,6693,711,3348,5.433,-1.369,1.108,93.8,blue,250,TRUE
557,1660781814.635,2497,392,2526,0.658,-1.478,-3.126,85.8,green,250,TRUE
558,1660781814.955,1496,-437,882,1.258,-1.308,2.772,93.7,yellow,250,TRUE
559,1660781815.206,6644,700,3348,5.343,-1.361,0.977,93.8,blue,250,TRUE
560,1660781815.299,2796,586,2526,0.051,-1.427,-2.795,93.4,green,250,TRUE
561,1660781815.627,1524,-296,882,1.133,-1.321,2.931,85.9,yellow,250,TRUE
562,1660781815.807,6610,712,3348,5.324,-1.36,0.915,93.4,blue,250,TRUE
563,1660781815.901,3138,750,2526,6.228,-1.475,-3.089,94.0,green,250,TRUE
564,1660781816.216,1495,-178,882,1.017,-1.323,3.122,93.7,yellow,250,TRUE
565,1660781816.419,6596,743,3348,5.25,-1.323,1.605,93.7,blue,250,TRUE
566,1660781816.512,3459,935,2526,6.281,-1.408,-2.896,93.8,green,250,TRUE
567,1660781816.847,1616,-25,882,0.206,-1.248,-2.775,93.7,yellow,250,TRUE
568,1660781817.098,6600,790,3348,5.196,-1.286,1.803,93.2,blue,250,TRUE
569,1660781817.191,3786,1057,2526,6.201,-1.405,-2.762,93.8,green,250,TRUE
570,1660781817.504,1745,114,882,0.509,-1.386,2.872,93.7,yellow,250,TRUE
571,1660781817.685,6580,805,3348,5.343,-1.302,1.3,93.7,blue,250,TRUE
572,1660781817.778,4071,1145,2526,5.462,-1.329,-2.479,93.8,green,250,TRUE
573,1660781818.108,1940,247,882,0.998,-1.426,-3.033,91.4,yellow,250,TRUE
574,1660781818.293,6547,822,3348,5.353,-1.313,1.12,93.7,blue,250,TRUE
575,1660781818.387,4293,1227,2526,5.216,-1.445,-2.703,93.8,green,250,TRUE
576,1660781818.726,2129,383,882,0.604,-1.371,2.946,93.8,yellow,250,TRUE
577,1660781818.976,6517,833,3348,5.379,-1.316,1.165,93.9,blue,250,TRUE
578,1660781819.07,4442,1292,2526,4.765,-1.393,-2.993,94.7,green,250,TRUE
579,1660781819.317,2338,518,882,0.393,-1.3,-3.059,93.7,yellow,250,TRUE
580,1660781819.536,6524,851,3348,5.547,-1.296,1.167,93.7,blue,250,TRUE
581,1660781819.63,4548,1350,2526,5.824,-1.366,3.1,93.8,green,250,TRUE
582,1660781819.958,2533,631,882,0.353,-1.381,-3.075,93.6,yellow,250,TRUE
583,1660781820.265,4584,1452,2526,0.17,-1.371,-2.992,93.6,green,250,TRUE
584,1660781820.592,2728,793,882,6.195,-1.364,2.848,104.0,yellow,250,TRUE
585,1660781820.853,6550,819,3348,5.928,-1.273,0.73,93.8,blue,250,TRUE
586,1660781820.947,4591,1501,2526,0.355,-1.371,3.096,93.7,green,250,TRUE
587,1660781821.276,2866,923,882,5.827,-1.364,3.135,93.7,yellow,250,TRUE
588,1660781821.479,6566,839,3348,5.937,-1.296,0.76,93.6,blue,250,TRUE
589,1660781821.573,4505,1592,2526,0.454,-1.367,2.949,95.7,green,250,TRUE
590,1660781823.106,6594,838,3348,5.731,-1.301,0.714,94.4,blue,250,TRUE
591,1660781823.528,3068,1081,882,5.835,-1.368,-3.138,93.7,yellow,250,TRUE
592,1660781823.708,6618,851,3348,5.693,-1.323,0.737,93.7,blue,250,TRUE
593,1660781823.802,4325,1658,2526,0.657,-1.413,3.1,93.7,green,250,TRUE
594,1660781824.114,3237,1234,882,5.994,-1.386,-3.138,94.9,yellow,250,TRUE
595,1660781824.303,6631,833,3348,5.653,-1.337,0.744,93.7,blue,250,TRUE
596,1660781824.396,4252,1715,2526,0.878,-1.403,2.974,93.7,green,250,TRUE
597,1660781824.717,3403,1367,882,6.225,-1.388,2.808,93.8,yellow,250,TRUE
598,1660781824.967,6651,838,3348,5.617,-1.319,0.61,93.8,blue,250,TRUE
599,1660781825.061,4174,1722,2526,0.973,-1.44,2.805,96.7,green,250,TRUE
600,1660781825.357,3559,1493,882,0.088,-1.373,2.795,93.7,yellow,250,TRUE
601,1660781825.561,6647,795,3348,6.0,-1.276,0.692,94.2,blue,250,TRUE
602,1660781825.656,4115,1777,2526,0.548,-1.394,-2.878,86.1,green,250,TRUE
603,1660781825.976,3700,1552,882,0.238,-1.336,2.859,93.7,yellow,250,TRUE
604,1660781826.169,6618,832,3348,6.066,-1.299,0.906,96.5,blue,250,TRUE
605,1660781826.266,4075,1824,2526,0.638,-1.297,-2.821,94.0,green,250,TRUE
606,1660781826.58,3800,1592,882,0.326,-1.381,2.917,94.4,yellow,250,TRUE
607,1660781826.824,6588,893,3348,5.815,-1.298,0.854,93.7,blue,250,TRUE
608,1660781826.918,4082,1828,2526,1.094,-1.344,-2.985,93.8,green,250,TRUE
609,1660781827.246,3861,1596,882,0.394,-1.376,2.957,93.7,yellow,250,TRUE
610,1660781827.434,6576,919,3348,5.868,-1.285,0.791,93.8,blue,250,TRUE
611,1660781827.527,4163,1825,2526,1.113,-1.403,3.102,93.7,green,250,TRUE
612,1660781827.863,3921,1594,882,0.315,-1.394,3.083,95.4,yellow,250,TRUE
613,1660781828.068,6522,941,3348,5.8,-1.277,0.733,93.8,blue,250,TRUE
614,1660781828.164,4279,1760,2526,0.556,-1.324,-3.063,90.5,green,250,TRUE
615,1660781828.473,3930,1588,882,0.34,-1.389,-2.968,93.7,yellow,250,TRUE
616,1660781828.718,6485,1000,3348,5.897,-1.277,0.809,93.8,blue,250,TRUE
617,1660781828.812,4387,1725,2526,0.418,-1.426,-2.964,93.3,green,250,TRUE
618,1660781829.143,4037,1594,882,0.52,-1.321,3.06,86.0,yellow,250,TRUE
619,1660781829.324,6443,1019,3348,5.874,-1.28,0.807,93.6,blue,250,TRUE
620,1660781829.417,4554,1593,2526,0.389,-1.417,-2.974,93.8,green,250,TRUE
621,1660781829.739,4084,1584,882,0.627,-1.308,2.793,93.7,yellow,250,TRUE
622,1660781829.926,6412,1039,3348,5.897,-1.3,0.972,93.7,blue,250,TRUE
623,1660781830.02,4647,1577,2526,0.344,-1.401,-2.955,93.7,green,250,TRUE
624,1660781830.328,4192,1581,882,0.415,-1.319,3.014,93.7,yellow,250,TRUE
625,1660781830.578,6387,1064,3348,5.739,-1.334,1.053,108.2,blue,250,TRUE
626,1660781830.686,4722,1601,2526,0.252,-1.408,-2.872,93.5,green,250,TRUE
627,1660781831.014,4181,1612,882,5.965,-1.236,3.097,93.8,yellow,250,TRUE
628,1660781831.587,4143,1638,882,5.425,-1.284,2.883,93.3,yellow,250,TRUE
629,1660781831.774,6251,1190,3348,5.639,-1.437,1.547,94.1,blue,250,TRUE
630,1660781831.868,4825,1531,2526,0.2,-1.39,-2.86,95.1,green,250,TRUE
631,1660781832.206,4098,1694,882,5.486,-1.335,3.01,93.7,yellow,250,TRUE
632,1660781832.472,6212,1260,3348,5.56,-1.451,3.023,93.7,blue,250,TRUE
633,1660781832.566,4920,1473,2526,0.197,-1.394,-2.853,97.6,green,250,TRUE
634,1660781832.878,4078,1800,882,0.055,-1.314,2.92,95.3,yellow,250,TRUE
635,1660781833.067,6265,1367,3348,5.528,-1.465,3.037,95.8,blue,250,TRUE
636,1660781833.168,4995,1434,2526,0.012,-1.357,-2.715,95.4,green,250,TRUE
637,1660781833.468,4045,1897,882,0.317,-1.295,2.745,93.6,yellow,250,TRUE
638,1660781833.685,6255,1400,3348,5.432,-1.488,3.063,93.8,blue,250,TRUE
639,1660781833.779,5023,1401,2526,0.004,-1.354,3.084,95.4,green,250,TRUE
640,1660781835.345,6323,1330,3348,5.537,-1.476,3.053,93.8,blue,250,TRUE
641,1660781835.438,5070,1402,2526,0.062,-1.343,2.946,109.3,green,250,TRUE
642,1660781835.808,4044,2079,882,0.777,-1.31,2.992,93.7,yellow,250,TRUE
643,1660781836.105,5092,1402,2526,6.036,-1.4,2.779,94.4,green,250,TRUE
644,1660781836.402,4065,2206,882,0.762,-1.3,3.067,94.1,yellow,250,TRUE
645,1660781836.653,6374,1246,3348,5.628,-1.458,0.111,86.3,blue,250,TRUE
646,1660781836.755,5106,1441,2526,5.878,-1.381,-2.955,93.8,green,250,TRUE
647,1660781837.068,4069,2324,882,0.557,-1.295,-2.878,95.5,yellow,250,TRUE
648,1660781837.249,6372,1230,3348,5.673,-1.434,1.377,93.7,blue,250,TRUE
649,1660781837.343,5080,1483,2526,5.996,-1.226,-2.994,93.4,green,250,TRUE
650,1660781837.874,6440,1328,3348,5.628,-1.45,1.418,95.8,blue,250,TRUE
651,1660781837.97,5048,1502,2526,6.235,-1.201,-3.052,93.7,green,250,TRUE
652,1660781838.306,3968,2554,882,0.629,-1.336,-3.122,93.7,yellow,250,TRUE
653,1660781838.556,6409,1380,3348,5.598,-1.453,0.107,95.0,blue,250,TRUE
654,1660781838.654,4987,1604,2526,0.097,-1.275,-2.993,91.6,green,250,TRUE
655,1660781838.98,3961,2669,882,0.647,-1.346,-3.129,93.7,yellow,250,TRUE
656,1660781839.173,6410,1364,3348,5.731,-1.416,1.726,94.0,blue,250,TRUE
657,1660781839.267,4985,1593,2526,0.077,-1.308,-2.995,93.8,green,250,TRUE
658,1660781839.579,3991,2755,882,0.641,-1.345,3.112,93.6,yellow,250,TRUE
659,1660781839.845,6458,1348,3348,5.847,-1.378,1.776,93.7,blue,250,TRUE
660,1660781839.939,4981,1644,2526,6.257,-1.324,-3.057,93.7,green,250,TRUE
661,1660781840.23,4092,2836,882,0.442,-1.273,-2.92,93.7,yellow,250,TRUE
662,1660781840.417,6480,1432,3348,5.793,-1.36,1.962,93.7,blue,250,TRUE
663,1660781840.511,4954,1700,2526,0.154,-1.415,3.002,93.8,green,250,TRUE
664,1660781840.809,4210,2918,882,0.723,-1.392,-3.106,93.7,yellow,250,TRUE
665,1660781840.997,6495,1371,3348,5.8,-1.372,1.701,93.6,blue,250,TRUE
666,1660781841.091,4916,1741,2526,6.27,-1.462,3.126,101.0,green,250,TRUE
667,1660781841.41,4324,2981,882,0.792,-1.414,-3.115,78.1,yellow,250,TRUE
668,1660781841.65,6442,1265,3348,5.676,-1.406,1.441,88.9,blue,250,TRUE
669,1660781841.739,4894,1773,2526,5.925,-1.396,-2.747,93.8,green,250,TRUE
670,1660781842.036,4409,3010,882,0.8,-1.413,-3.097,93.8,yellow,250,TRUE
671,1660781842.358,4884,1820,2526,5.966,-1.396,-3.078,93.7,green,250,TRUE
672,1660781842.67,4482,3077,882,0.809,-1.414,-3.093,94.0,yellow,250,TRUE
673,1660781842.858,6421,1229,3348,6.038,-1.361,1.525,95.0,blue,250,TRUE
674,1660781843.21,4488,3071,882,0.812,-1.414,-3.095,93.8,yellow,250,TRUE
675,1660781843.46,6387,1284,3348,5.976,-1.37,1.624,93.8,blue,250,TRUE
676,1660781843.554,4886,1806,2526,6.003,-1.344,3.063,97.0,green,250,TRUE
677,1660781843.883,4485,3071,882,0.812,-1.414,-3.095,93.7,yellow,250,TRUE
678,1660781844.503,4476,3060,882,0.812,-1.41,-3.095,93.7,yellow,250,TRUE
679,1660781844.762,6285,1381,3348,5.709,-1.354,1.765,93.4,blue,250,TRUE
680,1660781844.855,4854,1851,2526,5.529,-1.297,-2.829,94.0,green,250,TRUE
681,1660781845.158,4487,3047,882,0.817,-1.412,-3.1,83.2,yellow,250,TRUE
682,1660781845.335,6198,1359,3348,5.69,-1.346,1.724,93.7,blue,250,TRUE
683,1660781845.428,4818,1869,2526,5.328,-1.278,-2.904,93.8,green,250,TRUE
684,1660781845.757,4496,3043,882,0.817,-1.413,-3.099,93.7,yellow,250,TRUE
685,1660781845.944,6198,1379,3348,5.694,-1.344,1.684,93.8,blue,250,TRUE
686,1660781846.038,4796,1874,2526,5.378,-1.338,-3.131,93.6,green,250,TRUE
687,1660781846.377,4491,3033,882,0.822,-1.413,-3.103,93.8,yellow,250,TRUE
688,1660781846.627,6166,1455,3348,5.69,-1.345,1.636,92.3,blue,250,TRUE
689,1660781846.719,4741,1888,2526,5.655,-1.343,-3.064,94.0,green,250,TRUE
690,1660781847.047,4505,3029,882,0.825,-1.413,-3.11,96.3,yellow,250,TRUE
691,1660781847.232,6145,1493,3348,5.672,-1.341,1.666,93.7,blue,250,TRUE
692,1660781847.326,4750,1876,2526,0.419,-1.357,2.807,93.7,green,250,TRUE
693,1660781847.642,4510,3028,882,0.827,-1.413,-3.113,85.9,yellow,250,TRUE
694,1660781847.837,6109,1502,3348,5.692,-1.334,1.706,93.8,blue,250,TRUE
695,1660781847.931,4829,1703,2526,0.921,-1.377,-2.884,95.2,green,250,TRUE
696,1660781848.256,4522,3011,882,0.833,-1.413,-3.119,93.7,yellow,250,TRUE
697,1660781848.521,6150,1645,3348,5.703,-1.338,1.632,93.8,blue,250,TRUE
698,1660781848.615,4915,1556,2526,1.082,-1.452,3.094,87.5,green,250,TRUE
699,1660781848.937,4532,2959,882,0.836,-1.415,-3.118,93.7,yellow,250,TRUE
700,1660781849.26,5094,1416,2526,0.562,-1.409,2.602,93.7,green,250,TRUE
701,1660781849.557,4532,2901,882,0.838,-1.414,-3.108,96.2,yellow,250,TRUE
702,1660781849.885,5222,1293,2526,5.513,-1.317,2.975,93.8,green,250,TRUE
703,1660781850.189,4535,2897,882,0.838,-1.413,-3.103,93.7,yellow,250,TRUE
704,1660781850.455,5982,1717,3348,5.892,-1.337,1.396,93.8,blue,250,TRUE
705,1660781850.548,5379,1154,2526,5.152,-1.378,-3.018,96.2,green,250,TRUE
706,1660781850.846,4563,2914,882,0.836,-1.413,-3.101,93.7,yellow,250,TRUE
707,1660781851.034,5994,1746,3348,5.934,-1.331,1.318,94.0,blue,250,TRUE
708,1660781851.128,5533,1060,2526,5.275,-1.396,-3.057,84.7,green,250,TRUE
709,1660781851.416,4586,2930,882,0.836,-1.413,-3.102,93.8,yellow,250,TRUE
710,1660781851.604,6039,1776,3348,5.901,-1.332,1.362,94.5,blue,250,TRUE
711,1660781851.698,5699,892,2526,5.534,-1.409,3.123,93.7,green,250,TRUE
712,1660781852.026,4598,2957,882,0.837,-1.413,-3.102,93.7,yellow,250,TRUE
713,1660781852.268,6083,1712,3348,5.739,-1.38,1.361,93.7,blue,250,TRUE
714,1660781852.362,5884,771,2526,5.601,-1.431,3.077,93.7,green,250,TRUE
715,1660781852.674,4625,2954,882,0.896,-1.386,3.099,94.1,yellow,250,TRUE
716,1660781852.877,6081,1686,3348,5.653,-1.406,0.999,95.2,blue,250,TRUE
717,1660781852.972,6080,644,2526,5.549,-1.431,3.097,94.1,green,250,TRUE
718,1660781853.276,4615,2944,882,1.594,-1.221,2.825,93.6,yellow,250,TRUE
719,1660781853.463,6081,1689,3348,5.774,-1.395,1.373,93.7,blue,250,TRUE
720,1660781853.557,6255,541,2526,5.418,-1.44,-3.059,95.2,green,250,TRUE
721,1660781853.871,4556,2913,882,2.017,-1.271,-3.123,93.7,yellow,250,TRUE
722,1660781854.121,6076,1665,3348,5.769,-1.38,1.606,84.1,blue,250,TRUE
723,1660781854.205,6422,420,2526,5.275,-1.377,3.045,93.4,green,250,TRUE
724,1660781854.502,4468,2830,882,2.442,-1.262,-3.113,93.7,yellow,250,TRUE
725,1660781854.689,6104,1684,3348,5.671,-1.394,1.055,89.5,blue,250,TRUE
726,1660781854.779,6544,336,2526,5.261,-1.25,2.868,94.0,green,250,TRUE
727,1660781855.107,4411,2722,882,1.915,-1.331,2.742,90.9,yellow,250,TRUE
728,1660781855.292,6099,1614,3348,5.588,-1.368,0.669,93.4,blue,250,TRUE
729,1660781855.385,6600,387,2526,5.203,-1.253,2.866,93.9,green,250,TRUE
730,1660781855.707,4356,2602,882,1.576,-1.348,2.902,94.0,yellow,250,TRUE
731,1660781855.973,6028,1472,3348,5.603,-1.358,0.541,94.1,blue,250,TRUE
732,1660781856.067,6638,422,2526,4.996,-1.332,2.929,94.6,green,250,TRUE
733,1660781856.373,4371,2430,882,1.179,-1.28,2.893,93.7,yellow,250,TRUE
734,1660781856.592,6059,1493,3348,5.621,-1.361,0.562,103.0,blue,250,TRUE
735,1660781856.695,6593,465,2526,4.703,-1.354,-3.027,93.8,green,250,TRUE
736,1660781856.991,4367,2356,882,0.974,-1.31,3.014,93.8,yellow,250,TRUE
737,1660781857.179,6128,1485,3348,5.631,-1.367,0.609,94.0,blue,250,TRUE
738,1660781857.273,6603,475,2526,4.237,-1.19,-2.765,93.7,green,250,TRUE
739,1660781857.601,4407,2213,882,0.654,-1.283,-3.11,86.1,yellow,250,TRUE
740,1660781857.843,6130,1538,3348,5.685,-1.396,0.575,93.6,blue,250,TRUE
741,1660781857.937,6563,445,2526,4.346,-1.277,3.077,95.2,green,250,TRUE
742,1660781858.609,6504,398,2526,4.29,-1.241,-2.754,88.5,green,250,TRUE
743,1660781858.916,4413,1973,882,0.452,-1.342,2.85,93.7,yellow,250,TRUE
744,1660781859.168,6090,1631,3348,5.712,-1.391,0.629,93.8,blue,250,TRUE
745,1660781859.262,6412,368,2526,4.574,-1.268,2.907,93.8,green,250,TRUE
746,1660781859.59,4498,1837,882,0.365,-1.343,2.837,93.7,yellow,250,TRUE
747,1660781860.206,4514,1732,882,0.299,-1.335,2.898,94.0,yellow,250,TRUE
748,1660781860.472,6055,1694,3348,5.725,-1.373,0.64,93.8,blue,250,TRUE
749,1660781860.566,6145,470,2526,4.488,-1.415,-3.091,95.4,green,250,TRUE
750,1660781860.888,4608,1634,882,0.304,-1.334,2.932,78.1,yellow,250,TRUE
751,1660781861.075,6042,1695,3348,5.716,-1.376,0.654,97.1,blue,250,TRUE
752,1660781861.173,5856,595,2526,4.964,-1.468,-3.086,89.8,green,250,TRUE
753,1660781861.497,4711,1575,882,0.276,-1.336,2.956,109.4,yellow,250,TRUE
754,1660781861.773,6034,1673,3348,5.738,-1.386,0.758,93.7,blue,250,TRUE
755,1660781861.866,5607,766,2526,5.72,-1.421,2.785,95.4,green,250,TRUE
756,1660781862.393,6049,1713,3348,5.74,-1.386,0.83,94.0,blue,250,TRUE
757,1660781862.487,5390,1003,2526,0.189,-1.554,-3.132,93.7,green,250,TRUE
758,1660781862.814,4912,1564,882,0.17,-1.335,3.101,93.7,yellow,250,TRUE
759,1660781863.003,6022,1671,3348,5.817,-1.38,1.007,93.7,blue,250,TRUE
760,1660781863.097,5199,1224,2526,0.538,-1.468,-3.13,102.2,green,250,TRUE
761,1660781863.404,4998,1549,882,0.151,-1.334,3.113,93.8,yellow,250,TRUE
762,1660781863.654,6041,1723,3348,5.889,-1.362,1.117,87.2,blue,250,TRUE
763,1660781863.741,5001,1454,2526,0.527,-1.54,-3.129,93.8,green,250,TRUE
764,1660781864.085,4987,1608,882,0.148,-1.333,3.113,95.2,yellow,250,TRUE
765,1660781864.282,6062,1869,3348,5.911,-1.369,1.21,93.6,blue,250,TRUE
766,1660781864.712,5060,1611,882,0.136,-1.331,3.119,93.8,yellow,250,TRUE
767,1660781864.962,6069,1926,3348,5.898,-1.364,1.245,93.8,blue,250,TRUE
768,1660781865.056,4595,1851,2526,0.84,-1.501,3.095,95.1,green,250,TRUE
769,1660781865.354,5070,1648,882,0.169,-1.318,3.064,93.7,yellow,250,TRUE
770,1660781865.542,6050,1997,3348,5.899,-1.37,1.433,93.4,blue,250,TRUE
771,1660781865.635,4394,2069,2526,1.146,-1.464,3.074,84.4,green,250,TRUE
772,1660781865.923,5129,1617,882,0.109,-1.3,-3.107,93.7,yellow,250,TRUE
773,1660781866.144,6078,1942,3348,5.87,-1.377,1.412,91.1,blue,250,TRUE
774,1660781866.563,5088,1636,882,0.139,-1.307,3.084,94.4,yellow,250,TRUE
775,1660781866.806,6098,1845,3348,5.858,-1.368,1.235,94.0,blue,250,TRUE
776,1660781866.9,4047,2450,2526,2.013,-1.412,-2.652,93.7,green,250,TRUE
777,1660781867.222,5083,1656,882,0.235,-1.314,3.074,93.7,yellow,250,TRUE
778,1660781867.409,6099,1845,3348,6.149,-1.322,1.126,93.4,blue,250,TRUE
779,1660781867.503,3905,2629,2526,1.38,-1.425,-2.926,94.0,green,250,TRUE
780,1660781868.886,5113,1649,882,0.356,-1.372,2.941,93.7,yellow,250,TRUE
781,1660781869.154,6115,1871,3348,6.244,-1.325,0.631,84.8,blue,250,TRUE
782,1660781869.239,3926,2660,2526,0.713,-1.418,-3.013,93.7,green,250,TRUE
783,1660781870.563,5087,1689,882,0.32,-1.346,2.917,95.6,yellow,250,TRUE
784,1660781870.807,6150,1823,3348,6.279,-1.341,0.598,93.8,blue,250,TRUE
785,1660781870.901,3980,2676,2526,0.764,-1.384,-3.112,93.7,green,250,TRUE
786,1660781871.222,5095,1693,882,0.3,-1.337,2.941,93.8,yellow,250,TRUE
787,1660781871.409,6177,1862,3348,6.276,-1.331,0.376,93.6,blue,250,TRUE
788,1660781872.81,5112,1664,882,5.971,-1.383,-2.991,93.8,yellow,250,TRUE
789,1660781873.061,6224,1908,3348,0.038,-1.326,0.443,95.0,blue,250,TRUE
790,1660781873.157,3985,2619,2526,5.788,-1.406,-3.049,84.6,green,250,TRUE
791,1660781874.425,5105,1692,882,0.113,-1.312,2.976,93.7,yellow,250,TRUE
792,1660781874.706,6249,1943,3348,6.238,-1.316,0.432,93.8,blue,250,TRUE
793,1660781874.8,4011,2638,2526,0.427,-1.516,3.1,93.7,green,250,TRUE
794,1660781876.178,5098,1725,882,0.145,-1.385,3.004,93.7,yellow,250,TRUE
795,1660781876.428,6356,1946,3348,0.253,-1.496,0.05,93.7,blue,250,TRUE
796,1660781876.522,4025,2648,2526,0.417,-1.548,0.022,93.7,green,250,TRUE
797,1660781876.805,5086,1759,882,0.205,-1.378,2.917,93.8,yellow,250,TRUE
798,1660781876.997,6335,1811,3348,0.156,-1.528,0.005,93.7,blue,250,TRUE
799,1660781877.091,4075,2709,2526,0.421,-1.548,0.022,96.8,green,250,TRUE
800,1660781877.313,5063,1800,882,0.192,-1.383,2.85,93.8,yellow,250,TRUE
801,1660781877.5,6452,1747,3348,0.266,-1.487,0.04,93.7,blue,250,TRUE
802,1660781877.594,4061,2729,2526,0.421,-1.548,0.022,101.2,green,250,TRUE
803,1660781877.82,5048,1809,882,0.19,-1.386,2.863,93.8,yellow,250,TRUE
804,1660781878.071,6493,1672,3348,0.296,-1.456,0.072,97.0,blue,250,TRUE
805,1660781879.473,5046,1828,882,0.027,-1.313,2.97,93.6,yellow,250,TRUE
806,1660781879.722,6504,1622,3348,0.346,-1.44,0.901,93.7,blue,250,TRUE
807,1660781879.831,4080,2843,2526,0.612,-1.482,-3.137,94.1,green,250,TRUE
808,1660781880.119,5031,1848,882,6.244,-1.282,2.978,98.6,yellow,250,TRUE
809,1660781880.327,6613,1734,3348,0.351,-1.427,0.866,93.9,blue,250,TRUE
810,1660781880.421,4120,2934,2526,0.515,-1.508,-3.123,93.7,green,250,TRUE
811,1660781880.738,5008,1859,882,6.281,-1.245,3.01,94.1,yellow,250,TRUE
812,1660781880.926,6678,1748,3348,0.363,-1.426,0.92,85.2,blue,250,TRUE
813,1660781881.011,4140,3011,2526,0.539,-1.5,-3.13,95.5,green,250,TRUE
814,1660781881.306,4972,1877,882,0.016,-1.241,3.009,93.8,yellow,250,TRUE
815,1660781881.557,6786,1767,3348,0.353,-1.443,0.977,96.2,blue,250,TRUE
816,1660781881.656,4144,3104,2526,0.55,-1.501,-3.13,81.3,green,250,TRUE
817,1660781882.267,4145,3193,2526,0.553,-1.504,-3.131,78.1,green,250,TRUE
818,1660781882.58,4924,1819,882,0.058,-1.369,2.949,93.5,yellow,250,TRUE
819,1660781882.767,6955,1919,3348,0.373,-1.427,0.936,93.7,blue,250,TRUE
820,1660781882.876,4159,3269,2526,0.556,-1.509,-3.131,89.0,green,250,TRUE
821,1660781883.463,7010,1891,3348,0.368,-1.432,0.944,93.7,blue,250,TRUE
822,1660781883.557,4179,3274,2526,0.556,-1.509,-3.131,97.4,green,250,TRUE
823,1660781884.93,4884,1786,882,0.071,-1.406,3.093,82.3,yellow,250,TRUE
