,timestamp,x,y,z,yaw,roll,pitch,latency,student,session,success
0,1660788996.875,1082,-528,750,4.513,-1.331,2.581,94.1,red,251,TRUE
1,1660788996.969,916,-791,3348,4.287,-1.427,-2.075,93.7,blue,251,TRUE
2,1660788997.063,2838,-2087,2526,5.298,-0.939,0.159,93.7,green,251,TRUE
3,1660788998.363,3055,-2020,882,4.952,-1.093,0.215,93.8,yellow,251,TRUE
4,1660788998.566,1228,-113,750,3.094,-1.31,2.751,94.1,red,251,TRUE
5,1660788998.66,1133,-407,3348,4.66,-1.429,-3.0,93.7,blue,251,TRUE
6,1660788998.753,2793,-2158,2526,5.325,-0.969,0.168,93.7,green,251,TRUE
7,1660789000.208,1400,335,750,3.007,-1.261,2.596,93.8,red,251,TRUE
8,1660789000.395,2768,-2242,2526,5.317,-0.997,0.156,93.8,green,251,TRUE
9,1660789000.691,3100,-2095,882,4.943,-1.054,0.172,93.7,yellow,251,TRUE
10,1660789000.879,1608,744,750,3.001,-1.271,2.609,93.7,red,251,TRUE
11,1660789001.082,2760,-2313,2526,5.313,-1.088,0.166,93.7,green,251,TRUE
12,1660789001.317,3128,-2174,882,4.947,-1.071,0.176,93.7,yellow,251,TRUE
13,1660789001.52,1761,1179,750,2.995,-1.287,2.609,93.8,red,251,TRUE
14,1660789001.613,1736,767,3348,4.813,-1.478,-3.055,93.7,blue,251,TRUE
15,1660789001.707,2805,-2390,2526,5.297,-1.126,0.177,93.8,green,251,TRUE
16,1660789002.113,1906,1628,750,2.925,-1.275,2.535,93.7,red,251,TRUE
17,1660789002.223,1917,1175,3348,4.837,-1.464,-3.059,93.8,blue,251,TRUE
18,1660789002.316,2852,-2447,2526,5.311,-1.116,0.206,95.2,green,251,TRUE
19,1660789002.615,3270,-2201,882,5.004,-1.057,0.166,93.4,yellow,251,TRUE
20,1660789002.802,2095,2087,750,3.421,-1.361,2.586,93.7,red,251,TRUE
21,1660789002.896,2079,1626,3348,4.803,-1.456,-3.06,93.8,blue,251,TRUE
22,1660789002.99,2843,-2513,2526,5.31,-1.101,0.194,93.7,green,251,TRUE
23,1660789003.239,3333,-2275,882,5.01,-1.046,0.146,93.8,yellow,251,TRUE
24,1660789003.427,2237,2545,750,3.703,-1.325,2.673,93.7,red,251,TRUE
25,1660789003.927,3434,-2341,882,5.021,-1.07,0.154,93.7,yellow,251,TRUE
26,1660789004.114,2399,2953,750,3.698,-1.388,2.568,93.7,red,251,TRUE
27,1660789004.223,2441,2352,3348,4.129,-1.428,-1.97,93.7,blue,251,TRUE
28,1660789004.317,2837,-2575,2526,5.329,-1.076,0.204,93.7,green,251,TRUE
29,1660789004.52,3555,-2391,882,5.019,-1.068,0.153,95.4,yellow,251,TRUE
30,1660789004.725,2490,3257,750,3.761,-1.439,2.32,93.8,red,251,TRUE
31,1660789004.819,2561,2665,3348,4.024,-1.431,-1.54,93.7,blue,251,TRUE
32,1660789004.913,2843,-2632,2526,5.322,-1.029,0.133,95.3,green,251,TRUE
33,1660789005.164,3582,-2447,882,4.996,-1.005,0.082,93.7,yellow,251,TRUE
34,1660789005.367,2595,3543,750,3.533,-1.418,2.584,93.7,red,251,TRUE
35,1660789005.461,2647,2912,3348,4.131,-1.455,-0.107,93.8,blue,251,TRUE
36,1660789005.555,2875,-2678,2526,5.31,-1.022,0.142,93.7,green,251,TRUE
37,1660789005.992,2616,3666,750,3.578,-1.352,2.752,93.8,red,251,TRUE
38,1660789006.086,2638,3040,3348,4.042,-1.474,-0.093,93.7,blue,251,TRUE
39,1660789006.179,2890,-2708,2526,5.313,-1.026,0.134,93.7,green,251,TRUE
40,1660789006.414,3675,-2486,882,5.003,-0.986,0.063,93.8,yellow,251,TRUE
41,1660789006.601,2628,3668,750,3.654,-1.401,2.463,93.7,red,251,TRUE
42,1660789006.71,2603,3049,3348,4.087,-1.499,-3.07,93.5,blue,251,TRUE
43,1660789006.804,2899,-2717,2526,5.335,-0.86,0.163,94.0,green,251,TRUE
44,1660789007.226,2654,3742,750,3.506,-1.361,2.573,93.7,red,251,TRUE
45,1660789007.319,2606,3070,3348,3.932,-1.429,-1.844,95.6,blue,251,TRUE
46,1660789007.415,2879,-2728,2526,5.353,-0.717,0.215,93.7,green,251,TRUE
47,1660789008.807,3675,-2508,882,5.003,-0.96,0.056,93.8,yellow,251,TRUE
48,1660789009.09,2572,3046,3348,3.687,-1.432,-1.703,93.7,blue,251,TRUE
49,1660789009.183,2896,-2754,2526,5.384,-0.631,0.217,93.8,green,251,TRUE
50,1660789010.495,3681,-2500,882,4.999,-0.95,0.047,93.8,yellow,251,TRUE
51,1660789010.808,2589,3098,3348,3.503,-1.43,-1.756,93.9,blue,251,TRUE
52,1660789010.902,2905,-2769,2526,5.376,-0.562,0.177,93.8,green,251,TRUE
53,1660789011.214,3647,-2483,882,4.996,-0.951,0.038,93.7,yellow,251,TRUE
54,1660789011.402,2608,3786,750,3.499,-1.338,2.699,93.7,red,251,TRUE
55,1660789011.605,2920,-2776,2526,5.372,-0.567,0.163,93.7,green,251,TRUE
56,1660789012.965,3630,-2474,882,4.993,-0.942,0.04,93.7,yellow,251,TRUE
57,1660789013.279,2548,3063,3348,3.331,-1.419,-1.942,93.8,blue,251,TRUE
58,1660789013.373,2930,-2783,2526,5.381,-0.599,0.219,93.7,green,251,TRUE
59,1660789014.765,3694,-2524,882,5.021,-0.77,0.081,93.8,yellow,251,TRUE
60,1660789014.952,2595,3899,750,3.533,-1.337,2.706,109.3,red,251,TRUE
61,1660789015.077,2547,3023,3348,3.324,-1.422,-1.785,94.1,blue,251,TRUE
62,1660789015.171,2912,-2786,2526,5.367,-0.591,0.229,109.3,green,251,TRUE
63,1660789016.563,3681,-2521,882,5.028,-0.734,0.08,93.8,yellow,251,TRUE
64,1660789016.875,2561,3041,3348,3.327,-1.421,-1.775,93.8,blue,251,TRUE
65,1660789016.969,2929,-2779,2526,5.361,-0.559,0.203,93.6,green,251,TRUE
66,1660789017.266,3674,-2519,882,5.032,-0.733,0.081,95.0,yellow,251,TRUE
67,1660789017.47,2585,3923,750,3.568,-1.381,2.561,93.4,red,251,TRUE
68,1660789017.564,2552,3018,3348,3.334,-1.421,-1.755,94.0,blue,251,TRUE
69,1660789017.892,3670,-2519,882,5.032,-0.723,0.08,94.1,yellow,251,TRUE
70,1660789018.08,2582,3918,750,3.534,-1.383,2.571,93.7,red,251,TRUE
71,1660789018.189,2561,3012,3348,3.332,-1.422,-1.767,93.7,blue,251,TRUE
72,1660789018.298,2929,-2787,2526,5.377,-0.521,0.221,78.1,green,251,TRUE
73,1660789018.783,2591,3898,750,3.517,-1.386,2.555,93.7,red,251,TRUE
74,1660789018.876,2561,3013,3348,3.341,-1.425,-1.754,93.5,blue,251,TRUE
75,1660789018.97,2919,-2787,2526,5.364,-0.541,0.231,94.0,green,251,TRUE
76,1660789019.22,3678,-2511,882,5.035,-0.721,0.079,93.7,yellow,251,TRUE
77,1660789019.423,2589,3895,750,3.533,-1.347,2.662,93.6,red,251,TRUE
78,1660789019.517,2578,3022,3348,3.341,-1.427,-1.778,93.8,blue,251,TRUE
79,1660789021.112,2587,3920,750,3.493,-1.341,2.759,93.8,red,251,TRUE
80,1660789021.206,2577,3023,3348,3.339,-1.42,-1.78,94.9,blue,251,TRUE
81,1660789023.788,3726,-2544,882,5.051,-0.95,-0.089,109.4,yellow,251,TRUE
82,1660789024.102,2574,3033,3348,3.336,-1.426,-1.716,94.0,blue,251,TRUE
83,1660789024.196,2970,-2819,2526,5.349,-0.579,0.202,93.8,green,251,TRUE
84,1660789025.586,3727,-2555,882,5.078,-0.961,-0.046,93.8,yellow,251,TRUE
85,1660789025.804,2531,3873,750,3.456,-1.376,2.584,94.0,red,251,TRUE
86,1660789025.898,2588,3046,3348,3.327,-1.424,-1.748,93.5,blue,251,TRUE
87,1660789025.992,3008,-2807,2526,5.357,-0.543,0.199,94.0,green,251,TRUE
88,1660789027.353,3732,-2565,882,5.058,-0.916,-0.064,93.7,yellow,251,TRUE
89,1660789027.54,2602,3942,750,3.492,-1.35,2.681,110.2,red,251,TRUE
90,1660789027.65,2572,3035,3348,3.278,-1.416,-1.87,94.0,blue,251,TRUE
91,1660789028.088,3762,-2584,882,5.061,-0.912,-0.071,95.3,yellow,251,TRUE
92,1660789028.277,2602,3933,750,3.493,-1.338,2.719,93.7,red,251,TRUE
93,1660789028.386,2576,3076,3348,3.274,-1.415,-1.884,94.0,blue,251,TRUE
94,1660789028.48,2997,-2756,2526,5.351,-0.527,0.213,93.6,green,251,TRUE
95,1660789029.825,3762,-2587,882,5.068,-0.916,-0.058,93.8,yellow,251,TRUE
96,1660789030.106,2596,3093,3348,3.268,-1.408,-1.871,93.5,blue,251,TRUE
97,1660789030.2,2980,-2752,2526,5.352,-0.503,0.214,93.9,green,251,TRUE
98,1660789030.512,3719,-2566,882,5.068,-0.911,-0.057,94.0,yellow,251,TRUE
99,1660789030.699,2598,3909,750,3.497,-1.335,2.735,93.7,red,251,TRUE
100,1660789030.793,2600,3114,3348,3.27,-1.408,-1.872,94.1,blue,251,TRUE
101,1660789030.903,2980,-2742,2526,5.355,-0.507,0.213,93.5,green,251,TRUE
102,1660789032.293,3714,-2560,882,5.078,-0.905,-0.055,95.4,yellow,251,TRUE
103,1660789032.607,2606,3139,3348,3.264,-1.407,-1.887,93.7,blue,251,TRUE
104,1660789034.108,3725,-2569,882,5.078,-0.894,-0.053,93.7,yellow,251,TRUE
105,1660789034.311,2589,3834,750,3.526,-1.33,2.727,94.0,red,251,TRUE
106,1660789034.405,2601,3149,3348,3.274,-1.417,-1.818,93.7,blue,251,TRUE
107,1660789034.498,3008,-2743,2526,5.343,-0.503,0.203,93.8,green,251,TRUE
108,1660789036.185,2591,3153,3348,3.26,-1.409,-1.824,93.7,blue,251,TRUE
109,1660789036.593,3683,-2564,882,5.072,-0.893,-0.057,95.6,yellow,251,TRUE
110,1660789036.782,2561,3879,750,3.516,-1.332,2.74,93.4,red,251,TRUE
111,1660789036.876,2590,3169,3348,3.267,-1.413,-1.798,94.1,blue,251,TRUE
112,1660789036.985,3057,-2763,2526,5.358,-0.562,0.221,109.1,green,251,TRUE
113,1660789037.235,3690,-2572,882,5.068,-0.877,-0.062,94.1,yellow,251,TRUE
114,1660789037.44,2564,3880,750,3.51,-1.326,2.754,93.7,red,251,TRUE
115,1660789037.534,2566,3149,3348,3.288,-1.41,-1.836,93.4,blue,251,TRUE
116,1660789037.627,3036,-2761,2526,5.372,-0.518,0.228,95.8,green,251,TRUE
117,1660789037.91,3662,-2569,882,5.088,-0.903,-0.037,93.7,yellow,251,TRUE
118,1660789038.113,2569,3858,750,3.502,-1.323,2.776,93.7,red,251,TRUE
119,1660789038.207,2591,3148,3348,3.274,-1.382,-1.743,78.0,blue,251,TRUE
120,1660789038.535,3667,-2569,882,5.083,-0.892,-0.035,93.7,yellow,251,TRUE
121,1660789038.723,2600,3877,750,3.487,-1.33,2.773,93.7,red,251,TRUE
122,1660789038.816,2604,3120,3348,3.315,-1.365,-1.683,93.8,blue,251,TRUE
123,1660789038.91,2998,-2733,2526,5.367,-0.521,0.205,93.7,green,251,TRUE
124,1660789039.144,3675,-2568,882,5.084,-0.896,-0.038,93.7,yellow,251,TRUE
125,1660789039.347,2614,3891,750,3.496,-1.37,2.651,93.7,red,251,TRUE
126,1660789039.457,2616,3097,3348,3.349,-1.361,-1.676,78.2,blue,251,TRUE
127,1660789039.535,2990,-2739,2526,5.351,-0.496,0.195,93.8,green,251,TRUE
128,1660789039.832,3684,-2567,882,5.079,-0.896,-0.044,93.7,yellow,251,TRUE
129,1660789040.035,2624,3860,750,3.506,-1.366,2.64,93.4,red,251,TRUE
130,1660789040.128,2628,3098,3348,3.422,-1.38,-1.684,93.8,blue,251,TRUE
131,1660789040.222,2973,-2745,2526,5.347,-0.503,0.187,78.4,green,251,TRUE
132,1660789040.441,3670,-2557,882,5.078,-0.893,-0.056,94.9,yellow,251,TRUE
133,1660789040.63,2627,3839,750,3.484,-1.347,2.717,93.8,red,251,TRUE
134,1660789040.724,2640,3055,3348,3.436,-1.385,-1.726,93.7,blue,251,TRUE
135,1660789041.083,3684,-2558,882,5.072,-0.876,-0.064,93.7,yellow,251,TRUE
136,1660789041.27,2662,3805,750,3.473,-1.34,2.742,93.8,red,251,TRUE
137,1660789041.473,3029,-2786,2526,5.352,-0.49,0.179,93.7,green,251,TRUE
138,1660789042.819,3687,-2551,882,5.073,-0.865,-0.064,93.6,yellow,251,TRUE
139,1660789043.132,2641,2971,3348,3.39,-1.401,-1.844,93.7,blue,251,TRUE
140,1660789043.226,3022,-2791,2526,5.357,-0.487,0.172,93.7,green,251,TRUE
141,1660789044.569,3686,-2551,882,5.034,-0.887,-0.079,93.8,yellow,251,TRUE
142,1660789044.976,3013,-2794,2526,5.349,-0.466,0.18,93.8,green,251,TRUE
143,1660789045.351,3665,-2541,882,5.031,-0.875,-0.074,93.7,yellow,251,TRUE
144,1660789045.538,2664,3827,750,3.532,-1.284,2.857,93.8,red,251,TRUE
145,1660789045.632,2638,2957,3348,3.295,-1.397,-1.85,78.1,blue,251,TRUE
146,1660789045.71,2979,-2792,2526,5.356,-0.478,0.173,93.7,green,251,TRUE
147,1660789046.039,3685,-2549,882,5.031,-0.878,-0.075,93.8,yellow,251,TRUE
148,1660789046.227,2699,3793,750,3.536,-1.28,2.86,93.7,red,251,TRUE
149,1660789046.32,2645,2956,3348,3.282,-1.396,-1.863,93.8,blue,251,TRUE
150,1660789046.414,2974,-2797,2526,5.351,-0.475,0.178,93.7,green,251,TRUE
151,1660789046.758,3677,-2544,882,5.032,-0.874,-0.076,93.7,yellow,251,TRUE
152,1660789046.945,2718,3783,750,3.536,-1.275,2.865,93.7,red,251,TRUE
153,1660789047.039,2657,2951,3348,3.283,-1.396,-1.859,93.8,blue,251,TRUE
154,1660789047.133,2935,-2771,2526,5.347,-0.465,0.179,93.7,green,251,TRUE
155,1660789048.494,3669,-2527,882,5.011,-0.89,-0.096,93.8,yellow,251,TRUE
156,1660789048.79,2677,2973,3348,3.282,-1.396,-1.857,93.7,blue,251,TRUE
157,1660789048.884,2939,-2751,2526,5.343,-0.466,0.172,93.7,green,251,TRUE
158,1660789050.245,3697,-2536,882,5.071,-0.884,-0.089,93.8,yellow,251,TRUE
159,1660789050.432,2729,3788,750,3.576,-1.324,2.749,109.4,red,251,TRUE
160,1660789050.541,2670,2993,3348,3.28,-1.397,-1.846,93.7,blue,251,TRUE
161,1660789050.635,2965,-2743,2526,5.353,-0.471,0.172,93.6,green,251,TRUE
162,1660789051.979,3733,-2541,882,5.005,-0.888,-0.076,93.8,yellow,251,TRUE
163,1660789052.275,2660,3012,3348,3.277,-1.396,-1.862,93.7,blue,251,TRUE
164,1660789052.369,3003,-2751,2526,5.348,-0.46,0.179,95.3,green,251,TRUE
165,1660789052.653,3739,-2540,882,5.003,-0.899,-0.083,94.1,yellow,251,TRUE
166,1660789052.841,2677,3831,750,3.535,-1.368,2.317,93.8,red,251,TRUE
167,1660789052.935,2656,3028,3348,3.277,-1.396,-1.861,93.7,blue,251,TRUE
168,1660789054.34,3734,-2539,882,4.993,-0.865,-0.067,94.1,yellow,251,TRUE
169,1660789054.528,2666,3897,750,4.471,-1.245,2.659,93.7,red,251,TRUE
170,1660789054.622,2674,3064,3348,4.016,-1.537,3.136,93.8,blue,251,TRUE
171,1660789054.715,3006,-2744,2526,5.347,-0.463,0.181,109.3,green,251,TRUE
172,1660789055.184,2665,4032,750,4.988,-1.3,-3.102,94.0,red,251,TRUE
173,1660789055.278,2680,3171,3348,4.639,-1.474,-0.059,93.7,blue,251,TRUE
174,1660789056.98,2660,4243,750,5.322,-1.366,2.667,93.7,red,251,TRUE
175,1660789057.074,2676,3373,3348,4.958,-1.421,-0.445,93.7,blue,251,TRUE
176,1660789057.168,3019,-2710,2526,5.348,-0.463,0.176,93.7,green,251,TRUE
177,1660789058.514,3773,-2553,882,5.041,-0.86,-0.081,93.7,yellow,251,TRUE
178,1660789058.702,2691,4481,750,3.626,-1.325,2.839,94.0,red,251,TRUE
179,1660789058.796,2649,3659,3348,4.876,-1.493,-0.073,93.7,blue,251,TRUE
180,1660789061.498,2720,4902,750,3.623,-1.406,2.581,94.0,red,251,TRUE
181,1660789061.592,2686,4033,3348,4.049,-1.47,-3.088,93.7,blue,251,TRUE
182,1660789061.686,3000,-2699,2526,5.341,-0.471,0.178,93.8,green,251,TRUE
183,1660789063.36,2714,4342,3348,3.376,-1.449,-2.387,93.7,blue,251,TRUE
184,1660789063.454,3016,-2690,2526,5.341,-0.461,0.179,110.9,green,251,TRUE
185,1660789063.736,3813,-2570,882,5.076,-0.852,-0.064,93.7,yellow,251,TRUE
186,1660789063.939,2673,5539,750,3.798,-1.337,2.676,93.8,red,251,TRUE
187,1660789064.033,2696,4644,3348,3.001,-1.453,-3.059,93.8,blue,251,TRUE
188,1660789065.581,3838,-2590,882,5.07,-0.869,-0.095,94.0,yellow,251,TRUE
189,1660789065.784,2671,5880,750,3.805,-1.353,2.586,78.0,red,251,TRUE
190,1660789065.862,2727,4963,3348,2.563,-1.462,-3.058,93.8,blue,251,TRUE
191,1660789065.956,3012,-2696,2526,5.339,-0.468,0.184,93.6,green,251,TRUE
192,1660789067.301,3859,-2600,882,5.069,-0.886,-0.091,94.9,yellow,251,TRUE
193,1660789067.521,2674,6223,750,3.865,-1.316,2.661,94.0,red,251,TRUE
194,1660789067.615,2695,5306,3348,2.349,-1.449,-2.14,95.4,blue,251,TRUE
195,1660789067.71,3021,-2699,2526,5.352,-0.524,0.185,109.3,green,251,TRUE
196,1660789069.069,3862,-2600,882,5.055,-0.858,-0.109,93.8,yellow,251,TRUE
197,1660789069.366,2731,5612,3348,2.311,-1.443,-2.451,93.7,blue,251,TRUE
198,1660789069.46,3011,-2693,2526,5.333,-0.505,0.134,109.3,green,251,TRUE
199,1660789069.835,3836,-2597,882,5.094,-0.892,-0.048,93.7,yellow,251,TRUE
200,1660789070.053,2715,6849,750,3.877,-1.337,2.594,93.4,red,251,TRUE
201,1660789070.147,2772,5918,3348,2.329,-1.429,-2.511,94.0,blue,251,TRUE
202,1660789070.256,3004,-2707,2526,5.336,-0.535,0.135,93.8,green,251,TRUE
203,1660789071.617,3828,-2601,882,5.111,-0.856,-0.038,93.7,yellow,251,TRUE
204,1660789071.914,2810,6229,3348,1.62,-1.441,-2.409,93.5,blue,251,TRUE
205,1660789072.007,2981,-2713,2526,5.323,-0.477,0.189,94.0,green,251,TRUE
206,1660789073.354,3841,-2612,882,5.09,-0.833,-0.069,78.1,yellow,251,TRUE
207,1660789073.541,2740,7440,750,3.592,-1.359,2.798,94.0,red,251,TRUE
208,1660789073.745,2945,-2721,2526,5.317,-0.481,0.187,109.4,green,251,TRUE
209,1660789075.135,3839,-2633,882,5.087,-0.824,-0.057,93.8,yellow,251,TRUE
210,1660789075.432,2828,6725,3348,1.532,-1.452,-3.051,93.8,blue,251,TRUE
211,1660789075.525,2915,-2716,2526,5.323,-0.473,0.19,93.7,green,251,TRUE
212,1660789075.823,3850,-2646,882,5.08,-0.82,-0.072,78.4,yellow,251,TRUE
213,1660789076.105,2892,6868,3348,1.526,-1.453,-3.051,93.6,blue,251,TRUE
214,1660789076.214,2871,-2711,2526,5.343,-0.473,0.19,78.1,green,251,TRUE
215,1660789076.636,2706,7801,750,3.656,-1.361,2.803,93.7,red,251,TRUE
216,1660789076.73,2894,6906,3348,1.527,-1.453,-3.051,93.4,blue,251,TRUE
217,1660789076.823,2839,-2720,2526,5.359,-0.471,0.185,78.4,green,251,TRUE
218,1660789077.231,2695,7779,750,3.725,-1.361,2.777,93.5,red,251,TRUE
219,1660789077.325,2929,6848,3348,1.527,-1.453,-3.051,95.5,blue,251,TRUE
220,1660789077.42,2805,-2714,2526,5.365,-0.471,0.217,93.7,green,251,TRUE
221,1660789077.654,3910,-2677,882,5.092,-0.818,-0.064,78.1,yellow,251,TRUE
222,1660789077.826,2726,7778,750,3.616,-1.378,2.769,94.0,red,251,TRUE
223,1660789077.92,2937,6839,3348,1.528,-1.453,-3.052,93.7,blue,251,TRUE
224,1660789078.279,3900,-2674,882,5.094,-0.827,-0.06,93.8,yellow,251,TRUE
225,1660789078.467,2718,7772,750,3.644,-1.388,2.605,93.8,red,251,TRUE
226,1660789078.56,2942,6833,3348,1.546,-1.452,-3.048,93.7,blue,251,TRUE
227,1660789078.654,2785,-2706,2526,5.371,-0.461,0.211,93.7,green,251,TRUE
228,1660789078.873,3889,-2663,882,5.084,-0.827,-0.056,93.7,yellow,251,TRUE
229,1660789079.06,2722,7770,750,3.615,-1.436,2.53,93.8,red,251,TRUE
230,1660789079.169,2902,6844,3348,1.522,-1.428,-2.224,94.0,blue,251,TRUE
231,1660789079.279,2767,-2695,2526,5.37,-0.463,0.208,93.8,green,251,TRUE
232,1660789080.731,2721,7771,750,3.745,-1.515,3.117,94.0,red,251,TRUE
233,1660789080.919,2758,-2682,2526,5.356,-0.507,0.202,93.7,green,251,TRUE
234,1660789081.216,3876,-2659,882,5.081,-0.815,-0.049,93.6,yellow,251,TRUE
235,1660789081.419,2716,7810,750,3.749,-1.514,3.113,93.7,red,251,TRUE
236,1660789081.513,2869,6817,3348,2.043,-1.472,-3.043,78.1,blue,251,TRUE
237,1660789081.591,2781,-2687,2526,5.358,-0.503,0.202,124.9,green,251,TRUE
238,1660789081.841,3894,-2671,882,5.083,-0.812,-0.061,93.8,yellow,251,TRUE
239,1660789082.028,2725,7801,750,3.771,-1.512,3.114,93.9,red,251,TRUE
240,1660789082.122,2869,6817,3348,2.137,-1.47,-3.046,77.8,blue,251,TRUE
241,1660789082.2,2800,-2679,2526,5.364,-0.506,0.204,78.4,green,251,TRUE
242,1660789082.404,3904,-2672,882,5.082,-0.826,-0.069,94.0,yellow,251,TRUE
243,1660789082.624,2735,7819,750,3.767,-1.513,3.108,95.4,red,251,TRUE
244,1660789082.719,2876,6817,3348,2.155,-1.466,-3.043,78.2,blue,251,TRUE
245,1660789082.797,2811,-2675,2526,5.373,-0.518,0.196,109.4,green,251,TRUE
246,1660789083.094,3888,-2669,882,5.078,-0.905,-0.056,93.7,yellow,251,TRUE
247,1660789083.297,2753,7835,750,3.764,-1.514,3.103,93.6,red,251,TRUE
248,1660789083.39,2882,6815,3348,2.16,-1.463,-3.038,78.3,blue,251,TRUE
249,1660789083.469,2842,-2671,2526,5.367,-0.495,0.204,93.7,green,251,TRUE
250,1660789083.641,3874,-2680,882,5.113,-0.836,-0.048,78.1,yellow,251,TRUE
251,1660789083.812,2808,7837,750,3.761,-1.52,3.103,93.8,red,251,TRUE
252,1660789083.906,2885,6810,3348,2.147,-1.461,-3.036,78.0,blue,251,TRUE
253,1660789083.984,2848,-2668,2526,5.367,-0.493,0.203,93.7,green,251,TRUE
254,1660789084.359,2802,7867,750,3.763,-1.514,3.102,93.8,red,251,TRUE
255,1660789084.453,2885,6814,3348,2.143,-1.461,-3.034,78.1,blue,251,TRUE
256,1660789084.531,2888,-2669,2526,5.384,-0.501,0.192,109.4,green,251,TRUE
257,1660789084.843,3873,-2672,882,5.096,-0.849,-0.074,87.3,yellow,251,TRUE
258,1660789085.024,2809,7870,750,3.757,-1.517,3.102,93.7,red,251,TRUE
259,1660789085.243,2914,-2667,2526,5.392,-0.468,0.109,109.2,green,251,TRUE
260,1660789085.493,3860,-2668,882,5.109,-0.861,-0.057,93.7,yellow,251,TRUE
261,1660789085.696,2813,7905,750,3.755,-1.524,3.102,93.7,red,251,TRUE
262,1660789085.79,2947,6827,3348,2.131,-1.454,-3.026,93.5,blue,251,TRUE
263,1660789087.228,3820,-2652,882,5.075,-0.827,-0.014,94.1,yellow,251,TRUE
264,1660789087.417,2822,7960,750,3.766,-1.517,3.106,94.1,red,251,TRUE
265,1660789087.511,3014,6836,3348,2.153,-1.455,-3.031,78.1,blue,251,TRUE
266,1660789089.215,3014,6836,3348,2.15,-1.455,-3.031,78.2,blue,251,TRUE
267,1660789089.309,2956,-2685,2526,5.37,-0.485,0.213,78.1,green,251,TRUE
268,1660789089.512,3797,-2637,882,5.079,-0.822,-0.088,93.7,yellow,251,TRUE
269,1660789089.715,2825,7941,750,3.773,-1.512,3.093,93.8,red,251,TRUE
270,1660789089.809,3015,6835,3348,2.149,-1.455,-3.031,78.1,blue,251,TRUE
271,1660789091.215,3810,-2644,882,5.084,-0.809,-0.069,93.8,yellow,251,TRUE
272,1660789091.402,2829,7922,750,3.798,-1.506,3.091,93.7,red,251,TRUE
273,1660789091.496,3017,6837,3348,2.148,-1.455,-3.031,78.2,blue,251,TRUE
274,1660789091.574,2987,-2705,2526,5.358,-0.477,0.219,93.6,green,251,TRUE
275,1660789091.793,3827,-2645,882,5.09,-0.825,-0.072,93.7,yellow,251,TRUE
276,1660789091.996,2841,7927,750,3.799,-1.502,3.093,93.7,red,251,TRUE
277,1660789092.09,3073,6846,3348,2.145,-1.455,-3.031,94.9,blue,251,TRUE
278,1660789092.185,3035,-2740,2526,5.364,-0.466,0.203,94.1,green,251,TRUE
279,1660789092.42,3839,-2651,882,5.092,-0.831,-0.073,94.1,yellow,251,TRUE
280,1660789092.608,2839,7945,750,3.804,-1.503,3.093,93.8,red,251,TRUE
281,1660789092.718,3126,6823,3348,2.143,-1.455,-3.03,78.0,blue,251,TRUE
282,1660789092.796,3087,-2756,2526,5.376,-0.46,0.203,93.7,green,251,TRUE
283,1660789093.077,3835,-2649,882,5.09,-0.824,-0.071,93.7,yellow,251,TRUE
284,1660789093.264,2841,7947,750,3.805,-1.502,3.091,93.7,red,251,TRUE
285,1660789093.374,3238,6807,3348,2.145,-1.455,-3.031,78.2,blue,251,TRUE
286,1660789093.452,3123,-2786,2526,5.369,-0.456,0.211,93.7,green,251,TRUE
287,1660789093.873,2840,7960,750,3.808,-1.502,3.091,93.8,red,251,TRUE
288,1660789093.967,3238,6808,3348,2.145,-1.455,-3.031,78.1,blue,251,TRUE
289,1660789094.045,3138,-2799,2526,5.366,-0.458,0.215,93.7,green,251,TRUE
290,1660789094.295,3879,-2658,882,5.085,-0.81,-0.062,93.7,yellow,251,TRUE
291,1660789094.498,2837,7953,750,3.808,-1.502,3.091,93.7,red,251,TRUE
292,1660789094.592,3236,6805,3348,2.145,-1.455,-3.031,78.1,blue,251,TRUE
293,1660789094.67,3167,-2824,2526,5.366,-0.458,0.216,93.7,green,251,TRUE
294,1660789094.936,3896,-2641,882,5.124,-0.779,-0.033,93.7,yellow,251,TRUE
295,1660789095.123,2860,7947,750,3.815,-1.499,3.091,93.7,red,251,TRUE
296,1660789095.358,3175,-2831,2526,5.378,-0.629,0.17,93.4,green,251,TRUE
297,1660789095.561,3904,-2635,882,5.151,-0.738,0.005,93.6,yellow,251,TRUE
298,1660789095.748,2862,7970,750,3.841,-1.492,3.098,93.6,red,251,TRUE
299,1660789095.842,3237,6801,3348,2.143,-1.455,-3.03,93.8,blue,251,TRUE
300,1660789095.935,3184,-2838,2526,5.368,-0.923,0.039,93.8,green,251,TRUE
301,1660789096.17,3910,-2634,882,5.144,-0.754,-0.008,93.4,yellow,251,TRUE
302,1660789096.373,2877,7969,750,3.851,-1.489,3.101,93.5,red,251,TRUE
303,1660789096.466,3239,6797,3348,2.14,-1.454,-3.03,78.4,blue,251,TRUE
304,1660789096.545,3189,-2838,2526,5.33,-1.071,-0.035,93.7,green,251,TRUE
305,1660789096.826,3932,-2640,882,5.078,-0.809,-0.06,93.7,yellow,251,TRUE
306,1660789097.013,2890,7968,750,3.864,-1.488,3.099,93.7,red,251,TRUE
307,1660789097.107,3235,6812,3348,2.139,-1.454,-3.03,93.7,blue,251,TRUE
308,1660789097.201,3185,-2824,2526,5.34,-0.903,0.157,93.8,green,251,TRUE
309,1660789097.452,3912,-2643,882,5.068,-0.857,-0.079,93.7,yellow,251,TRUE
310,1660789097.641,2897,7984,750,3.858,-1.49,3.099,94.1,red,251,TRUE
311,1660789097.735,3239,6827,3348,2.143,-1.454,-3.033,93.8,blue,251,TRUE
312,1660789097.829,3171,-2807,2526,5.351,-0.587,0.191,93.6,green,251,TRUE
313,1660789098.047,3893,-2631,882,5.064,-0.856,-0.073,94.0,yellow,251,TRUE
314,1660789098.25,2895,8019,750,3.852,-1.49,3.094,94.0,red,251,TRUE
315,1660789098.36,3237,6832,3348,2.112,-1.449,-1.697,78.2,blue,251,TRUE
316,1660789098.454,3169,-2812,2526,5.384,-0.525,0.189,78.1,green,251,TRUE
317,1660789098.719,3881,-2624,882,5.069,-0.841,-0.065,93.7,yellow,251,TRUE
318,1660789098.907,2895,8052,750,3.863,-1.499,3.094,93.8,red,251,TRUE
319,1660789099.0,3234,6837,3348,2.068,-1.445,-1.653,78.1,blue,251,TRUE
320,1660789099.078,3140,-2800,2526,5.388,-0.497,0.201,93.7,green,251,TRUE
321,1660789099.328,3863,-2616,882,5.1,-0.854,-0.034,93.7,yellow,251,TRUE
322,1660789099.531,2904,8030,750,3.867,-1.494,3.078,93.7,red,251,TRUE
323,1660789099.625,3236,6841,3348,2.03,-1.445,-1.648,78.1,blue,251,TRUE
324,1660789099.703,3097,-2772,2526,5.384,-0.43,0.206,93.7,green,251,TRUE
325,1660789100.141,2903,8003,750,3.875,-1.493,3.075,93.8,red,251,TRUE
326,1660789100.234,3238,6841,3348,2.015,-1.445,-1.645,93.8,blue,251,TRUE
327,1660789100.328,3070,-2749,2526,5.396,-0.413,0.188,93.6,green,251,TRUE
328,1660789100.64,3816,-2587,882,5.091,-0.956,-0.085,93.7,yellow,251,TRUE
329,1660789100.828,2902,7981,750,3.863,-1.488,3.071,93.7,red,251,TRUE
330,1660789100.922,3240,6842,3348,2.016,-1.445,-1.643,77.9,blue,251,TRUE
331,1660789102.47,2894,7949,750,3.853,-1.486,3.069,78.2,red,251,TRUE
332,1660789102.548,3236,6845,3348,2.011,-1.445,-1.635,78.0,blue,251,TRUE
333,1660789102.626,2981,-2714,2526,5.402,-0.432,0.161,93.7,green,251,TRUE
334,1660789102.845,3722,-2546,882,4.989,-1.091,0.125,93.7,yellow,251,TRUE
335,1660789103.032,2904,7964,750,3.883,-1.477,3.067,79.8,red,251,TRUE
336,1660789103.112,3236,6845,3348,2.013,-1.445,-1.634,78.1,blue,251,TRUE
337,1660789103.19,2960,-2685,2526,5.411,-0.49,0.048,109.3,green,251,TRUE
338,1660789103.456,3699,-2552,882,5.005,-1.002,0.06,78.2,yellow,251,TRUE
339,1660789103.627,2900,7931,750,3.882,-1.482,3.074,78.1,red,251,TRUE
340,1660789105.065,3689,-2561,882,5.034,-0.601,0.052,93.7,yellow,251,TRUE
341,1660789105.252,2897,7888,750,3.859,-1.485,3.07,93.8,red,251,TRUE
342,1660789105.346,3236,6848,3348,2.007,-1.445,-1.621,78.1,blue,251,TRUE
343,1660789105.439,2959,-2713,2526,5.373,-0.518,0.188,93.5,green,251,TRUE
344,1660789106.845,2894,7844,750,3.894,-1.462,3.048,93.7,red,251,TRUE
345,1660789106.939,3230,6867,3348,1.993,-1.445,-1.672,93.7,blue,251,TRUE
346,1660789107.033,2947,-2722,2526,5.375,-0.467,0.183,109.3,green,251,TRUE
347,1660789107.458,2885,7848,750,4.145,-1.408,2.262,93.4,red,251,TRUE
348,1660789107.551,3226,6880,3348,2.031,-1.446,-1.684,78.5,blue,251,TRUE
349,1660789107.629,2933,-2729,2526,5.36,-0.454,0.211,93.7,green,251,TRUE
350,1660789107.833,3678,-2567,882,5.019,-0.489,0.096,78.0,yellow,251,TRUE
351,1660789108.004,2834,7879,750,4.552,-1.297,2.754,93.8,red,251,TRUE
352,1660789108.098,3226,6875,3348,2.058,-1.445,-1.703,93.7,blue,251,TRUE
353,1660789108.192,2938,-2733,2526,5.379,-0.444,0.18,93.8,green,251,TRUE
354,1660789108.442,3677,-2564,882,5.025,-0.512,0.08,94.9,yellow,251,TRUE
355,1660789108.631,2826,7911,750,5.257,-1.321,2.725,93.7,red,251,TRUE
356,1660789108.724,3222,6859,3348,2.08,-1.448,-1.8,93.7,blue,251,TRUE
357,1660789108.818,2904,-2712,2526,5.37,-0.452,0.145,93.8,green,251,TRUE
358,1660789109.115,3686,-2566,882,5.02,-0.516,0.095,93.7,yellow,251,TRUE
359,1660789109.318,2879,7914,750,0.015,-1.322,2.958,93.8,red,251,TRUE
360,1660789109.427,3192,6879,3348,2.082,-1.455,-0.115,78.0,blue,251,TRUE
361,1660789109.521,2902,-2715,2526,5.394,-0.456,0.104,93.8,green,251,TRUE
362,1660789109.74,3657,-2585,882,5.023,-0.61,0.117,93.8,yellow,251,TRUE
363,1660789109.927,2940,7906,750,1.08,-1.288,2.537,93.7,red,251,TRUE
364,1660789110.13,2935,-2732,2526,5.403,-0.459,0.101,93.7,green,251,TRUE
365,1660789110.333,3639,-2586,882,5.025,-0.688,0.188,93.7,yellow,251,TRUE
366,1660789110.63,3090,6883,3348,2.549,-1.463,-0.107,77.8,blue,251,TRUE
367,1660789112.067,3626,-2594,882,5.016,-0.72,0.128,94.0,yellow,251,TRUE
368,1660789112.27,3026,7834,750,1.714,-1.419,2.742,93.8,red,251,TRUE
369,1660789112.364,3113,6937,3348,5.484,-1.443,-0.944,94.7,blue,251,TRUE
370,1660789114.007,3110,7808,750,1.582,-1.353,2.722,93.8,red,251,TRUE
371,1660789114.101,3133,6966,3348,0.155,-1.449,-1.369,94.9,blue,251,TRUE
372,1660789115.414,3729,-2660,882,5.021,-0.797,0.05,94.0,yellow,251,TRUE
373,1660789115.602,3157,7766,750,1.686,-1.359,2.707,93.6,red,251,TRUE
374,1660789115.696,3161,6999,3348,0.338,-1.472,-0.097,93.7,blue,251,TRUE
375,1660789115.821,2950,-2748,2526,5.429,-0.523,0.135,93.7,green,251,TRUE
376,1660789116.04,3787,-2708,882,5.036,-0.827,0.037,93.8,yellow,251,TRUE
377,1660789116.227,3248,7748,750,1.657,-1.388,2.658,93.5,red,251,TRUE
378,1660789116.414,2970,-2767,2526,5.498,-0.745,0.104,93.6,green,251,TRUE
379,1660789116.664,3826,-2724,882,5.045,-0.776,0.034,79.6,yellow,251,TRUE
380,1660789116.838,3325,7729,750,1.618,-1.393,2.701,93.7,red,251,TRUE
381,1660789116.931,3160,6869,3348,0.429,-1.469,-0.093,93.5,blue,251,TRUE
382,1660789117.025,2980,-2746,2526,5.489,-0.866,0.149,94.0,green,251,TRUE
383,1660789117.511,3435,7734,750,1.637,-1.348,2.805,93.9,red,251,TRUE
384,1660789117.604,3201,6859,3348,0.397,-1.476,-0.092,93.8,blue,251,TRUE
385,1660789117.698,3007,-2767,2526,5.451,-0.925,0.034,93.8,green,251,TRUE
386,1660789117.917,3882,-2752,882,5.052,-0.869,-0.015,93.7,yellow,251,TRUE
387,1660789118.104,3533,7665,750,1.68,-1.371,2.77,94.6,red,251,TRUE
388,1660789118.199,3251,6872,3348,0.392,-1.476,-0.093,93.7,blue,251,TRUE
389,1660789118.293,3019,-2751,2526,5.426,-0.989,0.013,94.0,green,251,TRUE
390,1660789118.591,3872,-2747,882,5.066,-0.984,-0.039,93.7,yellow,251,TRUE
391,1660789118.779,3655,7591,750,1.708,-1.348,2.747,93.7,red,251,TRUE
392,1660789118.872,3294,6878,3348,0.365,-1.473,-0.097,93.8,blue,251,TRUE
393,1660789120.547,3738,7501,750,1.786,-1.385,2.767,93.5,red,251,TRUE
394,1660789120.64,3334,6918,3348,0.35,-1.468,-0.1,93.7,blue,251,TRUE
395,1660789120.734,3100,-2769,2526,5.429,-0.587,0.239,94.9,green,251,TRUE
396,1660789123.364,3395,6896,3348,0.918,-1.494,-3.095,94.0,blue,251,TRUE
397,1660789123.458,3110,-2767,2526,5.432,-0.503,0.232,95.3,green,251,TRUE
398,1660789124.866,3868,-2736,882,5.12,-0.685,0.112,95.3,yellow,251,TRUE
399,1660789125.07,3707,7369,750,2.037,-1.354,2.663,93.7,red,251,TRUE
400,1660789125.164,3478,6883,3348,0.905,-1.529,-3.101,93.7,blue,251,TRUE
401,1660789125.258,3108,-2773,2526,5.421,-0.478,0.203,78.1,green,251,TRUE
402,1660789126.604,3941,-2740,882,5.121,-0.669,0.106,94.9,yellow,251,TRUE
403,1660789126.808,3775,7319,750,2.109,-1.341,2.966,94.1,red,251,TRUE
404,1660789126.902,3540,6840,3348,1.404,-1.494,-0.068,93.7,blue,251,TRUE
405,1660789126.996,3103,-2776,2526,5.396,-0.464,0.203,93.7,green,251,TRUE
406,1660789127.277,3970,-2756,882,5.118,-0.69,0.104,93.5,yellow,251,TRUE
407,1660789127.465,3790,7267,750,2.147,-1.294,2.809,93.6,red,251,TRUE
408,1660789127.574,3540,6728,3348,1.561,-1.465,-3.064,95.1,blue,251,TRUE
409,1660789127.669,3088,-2763,2526,5.397,-0.464,0.204,94.1,green,251,TRUE
410,1660789128.903,4018,-2771,882,5.131,-0.65,0.092,95.0,yellow,251,TRUE
411,1660789129.155,3509,6575,3348,2.023,-1.466,-0.016,93.8,blue,251,TRUE
412,1660789129.248,3049,-2740,2526,5.426,-0.466,0.192,93.7,green,251,TRUE
413,1660789129.467,3977,-2759,882,5.128,-0.647,0.093,109.3,yellow,251,TRUE
414,1660789129.686,3771,7050,750,2.526,-1.412,2.522,93.9,red,251,TRUE
415,1660789129.779,3459,6402,3348,1.947,-1.442,-0.663,93.7,blue,251,TRUE
416,1660789131.203,3945,-2751,882,5.127,-0.645,0.093,93.7,yellow,251,TRUE
417,1660789131.499,3511,6317,3348,1.637,-1.424,-0.988,93.7,blue,251,TRUE
418,1660789131.608,3038,-2726,2526,5.403,-0.494,0.142,93.8,green,251,TRUE
419,1660789132.032,3836,6446,750,2.524,-1.402,-3.087,93.7,red,251,TRUE
420,1660789132.126,3509,6106,3348,1.511,-1.506,-3.097,93.5,blue,251,TRUE
421,1660789132.219,3028,-2696,2526,5.405,-0.529,0.125,94.0,green,251,TRUE
422,1660789132.518,3959,-2752,882,5.13,-0.642,0.084,93.6,yellow,251,TRUE
423,1660789132.721,3889,6117,750,2.586,-1.357,2.791,93.7,red,251,TRUE
424,1660789132.815,3498,5853,3348,1.667,-1.489,-0.014,93.7,blue,251,TRUE
425,1660789132.908,3028,-2720,2526,5.402,-0.507,0.152,93.5,green,251,TRUE
426,1660789133.332,3896,5735,750,2.693,-1.402,2.718,93.7,red,251,TRUE
427,1660789133.535,2986,-2714,2526,5.382,-0.445,0.196,93.7,green,251,TRUE
428,1660789133.832,4010,-2758,882,5.127,-0.639,0.083,93.7,yellow,251,TRUE
429,1660789134.035,3939,5318,750,2.679,-1.381,-3.103,93.7,red,251,TRUE
430,1660789134.128,3475,5234,3348,1.846,-1.525,-3.102,93.5,blue,251,TRUE
431,1660789134.222,2954,-2715,2526,5.367,-0.457,0.199,94.0,green,251,TRUE
432,1660789134.442,4061,-2774,882,5.127,-0.635,0.082,94.1,yellow,251,TRUE
433,1660789134.661,3978,4937,750,2.981,-1.413,2.947,93.9,red,251,TRUE
434,1660789134.755,3526,4915,3348,1.791,-1.534,-3.113,93.6,blue,251,TRUE
435,1660789134.848,2900,-2692,2526,5.388,-0.466,0.184,93.7,green,251,TRUE
436,1660789135.364,4019,4540,750,2.991,-1.392,3.079,93.8,red,251,TRUE
437,1660789135.458,3564,4631,3348,1.755,-1.482,-3.09,93.7,blue,251,TRUE
438,1660789135.551,2859,-2665,2526,5.389,-0.472,0.18,93.7,green,251,TRUE
439,1660789135.786,4073,-2790,882,5.131,-0.661,0.058,95.4,yellow,251,TRUE
440,1660789135.991,4123,4173,750,2.551,-1.418,2.644,93.7,red,251,TRUE
441,1660789136.084,3596,4349,3348,1.726,-1.488,-3.082,93.7,blue,251,TRUE
442,1660789136.178,2852,-2670,2526,5.394,-0.493,0.157,93.8,green,251,TRUE
443,1660789136.693,4201,3818,750,2.606,-1.449,2.407,93.8,red,251,TRUE
444,1660789136.787,3630,4087,3348,1.692,-1.487,-3.077,93.7,blue,251,TRUE
445,1660789136.881,2855,-2666,2526,5.387,-0.476,0.169,93.7,green,251,TRUE
446,1660789137.1,4093,-2793,882,5.137,-0.66,0.105,95.2,yellow,251,TRUE
447,1660789137.289,4249,3489,750,2.625,-1.439,2.222,93.7,red,251,TRUE
448,1660789137.382,3679,3848,3348,1.775,-1.509,-3.081,95.4,blue,251,TRUE
449,1660789137.79,4068,-2785,882,5.14,-0.648,0.097,93.6,yellow,251,TRUE
450,1660789137.993,4292,3172,750,2.628,-1.412,2.797,93.8,red,251,TRUE
451,1660789138.087,3755,3667,3348,1.606,-1.542,-3.113,93.7,blue,251,TRUE
452,1660789138.181,2868,-2670,2526,5.369,-0.446,0.19,93.7,green,251,TRUE
453,1660789138.602,4319,2969,750,2.98,-1.189,3.083,93.7,red,251,TRUE
454,1660789138.711,3834,3494,3348,1.486,-1.472,-0.051,94.1,blue,251,TRUE
455,1660789138.806,2860,-2675,2526,5.37,-0.445,0.189,93.7,green,251,TRUE
456,1660789139.227,4329,2838,750,3.005,-1.129,3.037,93.8,red,251,TRUE
457,1660789139.321,3868,3406,3348,1.536,-1.488,-0.038,93.7,blue,251,TRUE
458,1660789139.415,2843,-2683,2526,5.372,-0.446,0.187,93.8,green,251,TRUE
459,1660789139.727,4027,-2746,882,5.126,-0.678,0.062,93.8,yellow,251,TRUE
460,1660789139.915,4298,2746,750,2.949,-1.137,3.027,93.8,red,251,TRUE
461,1660789140.008,3911,3281,3348,1.428,-1.446,-0.721,93.7,blue,251,TRUE
462,1660789140.102,2833,-2702,2526,5.37,-0.442,0.191,93.7,green,251,TRUE
463,1660789140.336,4037,-2738,882,5.123,-0.684,0.069,93.7,yellow,251,TRUE
464,1660789140.524,4320,2661,750,2.949,-1.141,3.013,78.2,red,251,TRUE
465,1660789140.618,3960,3206,3348,1.391,-1.503,-0.067,93.7,blue,251,TRUE
466,1660789140.727,2832,-2691,2526,5.39,-0.482,0.192,78.2,green,251,TRUE
467,1660789141.149,4296,2615,750,2.94,-1.145,3.004,93.7,red,251,TRUE
468,1660789141.242,4028,3190,3348,1.394,-1.479,-0.091,93.8,blue,251,TRUE
469,1660789141.336,2837,-2688,2526,5.392,-0.512,0.124,93.8,green,251,TRUE
470,1660789141.633,3944,-2681,882,5.151,-0.672,0.095,93.7,yellow,251,TRUE
471,1660789141.836,4256,2628,750,2.941,-1.138,3.003,93.7,red,251,TRUE
472,1660789141.93,4070,3136,3348,1.369,-1.476,-3.047,93.7,blue,251,TRUE
473,1660789142.258,3909,-2666,882,5.145,-0.664,0.081,93.7,yellow,251,TRUE
474,1660789142.445,4259,2613,750,2.887,-1.271,2.94,93.7,red,251,TRUE
475,1660789142.539,4050,3076,3348,1.389,-1.479,-3.051,95.0,blue,251,TRUE
476,1660789142.634,2837,-2668,2526,5.37,-0.519,0.153,93.7,green,251,TRUE
477,1660789142.853,3919,-2683,882,5.142,-0.663,0.077,93.7,yellow,251,TRUE
478,1660789143.055,4219,2602,750,3.079,-1.355,2.742,94.1,red,251,TRUE
479,1660789143.149,4059,3043,3348,1.391,-1.48,-3.051,93.7,blue,251,TRUE
480,1660789143.243,2843,-2678,2526,5.376,-0.506,0.156,93.4,green,251,TRUE
481,1660789143.727,4166,2580,750,3.031,-1.367,2.742,93.7,red,251,TRUE
482,1660789143.821,4078,3021,3348,1.391,-1.481,-3.053,93.5,blue,251,TRUE
483,1660789143.915,2856,-2679,2526,5.393,-0.482,0.176,93.6,green,251,TRUE
484,1660789144.149,3876,-2640,882,5.144,-0.654,0.076,93.4,yellow,251,TRUE
485,1660789144.352,4123,2569,750,3.022,-1.361,2.724,93.6,red,251,TRUE
486,1660789144.446,4115,2981,3348,1.528,-1.493,-3.065,93.8,blue,251,TRUE
487,1660789144.539,2846,-2692,2526,5.397,-0.502,0.183,93.9,green,251,TRUE
488,1660789144.836,3861,-2616,882,5.144,-0.653,0.076,93.9,yellow,251,TRUE
489,1660789145.024,4073,2541,750,3.006,-1.361,2.739,93.7,red,251,TRUE
490,1660789145.117,4122,2936,3348,1.544,-1.489,-0.081,93.8,blue,251,TRUE
491,1660789145.211,2839,-2693,2526,5.371,-0.468,0.209,93.7,green,251,TRUE
492,1660789145.43,3851,-2597,882,5.141,-0.654,0.072,93.6,yellow,251,TRUE
493,1660789145.633,4030,2517,750,3.013,-1.36,2.737,93.8,red,251,TRUE
494,1660789145.743,4174,2909,3348,1.502,-1.475,-0.093,93.4,blue,251,TRUE
495,1660789145.836,2834,-2693,2526,5.391,-0.531,0.192,93.8,green,251,TRUE
496,1660789146.055,3850,-2588,882,5.136,-0.687,0.076,93.6,yellow,251,TRUE
497,1660789146.258,4031,2553,750,2.902,-1.385,2.834,93.8,red,251,TRUE
498,1660789146.352,4209,2881,3348,1.441,-1.475,-0.094,93.6,blue,251,TRUE
499,1660789146.445,2858,-2693,2526,5.397,-0.59,0.008,93.7,green,251,TRUE
500,1660789147.914,4031,2571,750,2.261,-1.467,-3.139,93.5,red,251,TRUE
501,1660789148.101,2891,-2706,2526,5.378,-0.576,0.134,78.1,green,251,TRUE
502,1660789148.367,3876,-2612,882,5.138,-0.633,0.063,93.7,yellow,251,TRUE
503,1660789148.554,4043,2582,750,2.427,-1.414,2.848,93.7,red,251,TRUE
504,1660789148.648,4291,2994,3348,1.403,-1.479,-3.051,93.7,blue,251,TRUE
505,1660789148.757,2910,-2703,2526,5.367,-0.574,0.131,78.1,green,251,TRUE
506,1660789148.976,3856,-2606,882,5.138,-0.633,0.068,93.8,yellow,251,TRUE
507,1660789149.163,3991,2604,750,2.776,-1.449,2.106,93.7,red,251,TRUE
508,1660789149.273,4271,2995,3348,1.361,-1.463,-3.043,93.8,blue,251,TRUE
509,1660789150.868,3972,2685,750,4.48,-1.395,2.405,93.7,red,251,TRUE
510,1660789150.961,4176,3022,3348,5.567,-1.451,-1.494,93.7,blue,251,TRUE
511,1660789151.055,2932,-2691,2526,5.377,-0.541,0.133,93.8,green,251,TRUE
512,1660789152.398,3874,-2629,882,5.137,-0.623,0.068,94.0,yellow,251,TRUE
513,1660789152.601,3930,2806,750,3.938,-1.418,2.722,93.7,red,251,TRUE
514,1660789152.695,4081,3091,3348,4.258,-1.439,-0.941,94.0,blue,251,TRUE
515,1660789152.805,2982,-2727,2526,5.372,-0.529,0.143,78.1,green,251,TRUE
516,1660789154.085,3894,-2637,882,5.137,-0.627,0.068,94.0,yellow,251,TRUE
517,1660789154.367,3950,3127,3348,3.872,-1.419,-1.539,93.8,blue,251,TRUE
518,1660789154.46,3018,-2732,2526,5.369,-0.518,0.135,93.7,green,251,TRUE
519,1660789154.82,3913,-2646,882,5.133,-0.638,0.086,93.6,yellow,251,TRUE
520,1660789155.007,3732,2986,750,3.281,-1.348,2.549,93.5,red,251,TRUE
521,1660789155.101,3816,3134,3348,3.798,-1.457,-3.028,94.0,blue,251,TRUE
522,1660789155.195,3058,-2762,2526,5.371,-0.518,0.132,93.5,green,251,TRUE
523,1660789155.523,3918,-2646,882,5.2,-0.698,0.181,93.7,yellow,251,TRUE
524,1660789155.71,3617,3070,750,2.986,-1.365,2.601,93.5,red,251,TRUE
525,1660789155.819,3686,3130,3348,3.859,-1.443,-1.527,94.0,blue,251,TRUE
526,1660789155.913,3087,-2786,2526,5.377,-0.514,0.128,93.5,green,251,TRUE
527,1660789157.257,3922,-2672,882,5.198,-0.721,0.237,93.6,yellow,251,TRUE
528,1660789157.554,3552,3192,3348,3.76,-1.444,-1.545,93.7,blue,251,TRUE
529,1660789157.647,3094,-2772,2526,5.388,-0.551,0.124,93.8,green,251,TRUE
530,1660789157.96,3888,-2684,882,5.129,-0.74,0.103,78.1,yellow,251,TRUE
531,1660789158.132,3423,3212,750,2.452,-1.366,2.589,93.5,red,251,TRUE
532,1660789158.225,3424,3236,3348,3.761,-1.449,-1.549,93.7,blue,251,TRUE
533,1660789158.319,3113,-2790,2526,5.381,-0.528,0.103,93.7,green,251,TRUE
534,1660789159.647,3896,-2693,882,5.145,-0.688,0.071,94.0,yellow,251,TRUE
535,1660789159.943,3244,3281,3348,3.629,-1.425,-1.665,93.9,blue,251,TRUE
536,1660789160.037,3170,-2819,2526,5.371,-0.471,0.201,93.5,green,251,TRUE
537,1660789161.412,3911,-2714,882,5.149,-0.668,0.07,93.8,yellow,251,TRUE
538,1660789161.615,3213,3325,750,2.868,-1.341,2.742,93.9,red,251,TRUE
539,1660789161.802,3174,-2818,2526,5.364,-0.496,0.254,78.1,green,251,TRUE
540,1660789163.177,3922,-2732,882,5.154,-0.672,0.071,93.9,yellow,251,TRUE
541,1660789163.489,2866,3261,3348,3.689,-1.436,-1.582,93.9,blue,251,TRUE
542,1660789163.583,3172,-2797,2526,5.363,-0.48,0.229,109.4,green,251,TRUE
543,1660789163.896,3900,-2726,882,5.154,-0.673,0.071,93.5,yellow,251,TRUE
544,1660789164.083,2974,3521,750,2.82,-1.342,2.561,93.6,red,251,TRUE
545,1660789164.177,2759,3269,3348,3.695,-1.436,-1.571,93.5,blue,251,TRUE
546,1660789165.521,3926,-2735,882,5.151,-0.663,0.073,93.4,yellow,251,TRUE
547,1660789165.708,2867,3623,750,2.884,-1.321,2.786,93.7,red,251,TRUE
548,1660789165.817,2641,3272,3348,3.607,-1.416,-1.721,93.5,blue,251,TRUE
549,1660789167.176,3940,-2738,882,5.151,-0.652,0.08,93.7,yellow,251,TRUE
550,1660789167.379,2765,3637,750,3.697,-1.345,1.872,93.8,red,251,TRUE
551,1660789167.473,2582,3237,3348,3.481,-1.368,-1.93,79.4,blue,251,TRUE
552,1660789167.553,3169,-2811,2526,5.334,-0.459,0.208,93.7,green,251,TRUE
553,1660789167.927,2696,3639,750,3.725,-1.335,1.911,93.9,red,251,TRUE
554,1660789168.021,2537,3188,3348,3.445,-1.376,-1.958,93.5,blue,251,TRUE
555,1660789168.115,3130,-2797,2526,5.345,-0.494,0.206,109.3,green,251,TRUE
556,1660789168.365,3919,-2745,882,5.138,-0.71,0.079,94.1,yellow,251,TRUE
557,1660789168.552,2674,3661,750,3.323,-1.376,1.967,94.0,red,251,TRUE
558,1660789168.646,2540,3191,3348,3.507,-1.412,-1.851,93.8,blue,251,TRUE
559,1660789168.74,3103,-2780,2526,5.38,-0.397,0.248,93.7,green,251,TRUE
560,1660789169.052,3942,-2751,882,5.157,-0.69,0.08,95.2,yellow,251,TRUE
561,1660789169.257,2659,3660,750,2.851,-1.365,2.674,93.4,red,251,TRUE
562,1660789169.46,3072,-2766,2526,5.342,-0.377,0.252,93.8,green,251,TRUE
563,1660789169.678,3944,-2755,882,5.153,-0.678,0.083,94.0,yellow,251,TRUE
564,1660789169.882,2659,3658,750,2.7,-1.386,2.706,93.6,red,251,TRUE
565,1660789169.975,2576,3297,3348,4.761,-1.466,-3.043,93.7,blue,251,TRUE
566,1660789170.069,3039,-2746,2526,5.325,-0.398,0.255,93.7,green,251,TRUE
567,1660789170.366,3939,-2755,882,5.157,-0.671,0.082,93.8,yellow,251,TRUE
568,1660789170.553,2694,3690,750,2.021,-1.401,3.097,93.7,red,251,TRUE
569,1660789170.647,2594,3307,3348,4.709,-1.485,-0.085,93.7,blue,251,TRUE
570,1660789170.741,3031,-2757,2526,5.324,-0.484,0.257,93.8,green,251,TRUE
571,1660789170.96,3937,-2752,882,5.154,-0.683,0.087,93.4,yellow,251,TRUE
572,1660789171.147,2691,3713,750,1.354,-1.38,2.767,93.7,red,251,TRUE
573,1660789171.241,2610,3345,3348,4.878,-1.493,-0.074,93.9,blue,251,TRUE
574,1660789171.6,3969,-2752,882,5.152,-0.671,0.086,93.5,yellow,251,TRUE
575,1660789171.803,2751,3788,750,1.133,-1.365,2.845,93.8,red,251,TRUE
576,1660789171.912,2647,3350,3348,4.805,-1.489,-3.071,93.7,blue,251,TRUE
577,1660789172.006,3023,-2746,2526,5.337,-0.364,0.251,93.7,green,251,TRUE
578,1660789172.287,3967,-2758,882,5.103,-0.682,0.074,93.9,yellow,251,TRUE
579,1660789172.475,2765,3800,750,1.384,-1.34,2.697,93.9,red,251,TRUE
580,1660789172.569,2659,3294,3348,4.469,-1.445,-1.744,93.5,blue,251,TRUE
581,1660789172.912,3973,-2753,882,5.113,-0.659,0.097,93.7,yellow,251,TRUE
582,1660789173.1,2807,3750,750,1.359,-1.367,2.808,93.6,red,251,TRUE
583,1660789173.193,2660,3287,3348,4.344,-1.457,-3.031,93.7,blue,251,TRUE
584,1660789173.287,3022,-2731,2526,5.341,-0.367,0.245,93.8,green,251,TRUE
585,1660789173.506,3984,-2763,882,5.116,-0.632,0.095,93.7,yellow,251,TRUE
586,1660789173.693,2838,3802,750,1.509,-1.349,2.674,93.6,red,251,TRUE
587,1660789173.803,2683,3344,3348,4.771,-1.474,-3.061,93.6,blue,251,TRUE
588,1660789173.912,2999,-2726,2526,5.34,-0.363,0.245,93.6,green,251,TRUE
589,1660789174.209,3994,-2769,882,5.114,-0.625,0.088,93.7,yellow,251,TRUE
590,1660789174.396,2864,3827,750,1.311,-1.353,2.787,93.9,red,251,TRUE
591,1660789174.49,2737,3378,3348,5.059,-1.516,-0.049,93.8,blue,251,TRUE
592,1660789174.584,2996,-2721,2526,5.34,-0.361,0.244,78.1,green,251,TRUE
593,1660789174.943,2903,3852,750,1.42,-1.333,2.801,94.0,red,251,TRUE
594,1660789175.037,2780,3450,3348,5.091,-1.475,-3.057,93.5,blue,251,TRUE
595,1660789175.521,2938,3841,750,1.437,-1.329,2.805,93.5,red,251,TRUE
596,1660789175.614,2844,3537,3348,5.164,-1.481,-3.058,93.7,blue,251,TRUE
597,1660789177.146,4033,-2785,882,5.108,-0.642,0.072,93.7,yellow,251,TRUE
598,1660789177.458,2851,3567,3348,4.439,-1.456,-3.048,93.7,blue,251,TRUE
599,1660789177.552,2944,-2716,2526,5.348,-0.363,0.232,93.5,green,251,TRUE
600,1660789178.911,3914,-2808,882,5.096,-0.592,0.108,78.2,yellow,251,TRUE
601,1660789179.098,3028,3904,750,0.66,-1.322,2.841,93.7,red,251,TRUE
602,1660789179.192,2900,3618,3348,5.284,-1.47,-0.088,94.0,blue,251,TRUE
603,1660789179.286,2949,-2732,2526,5.358,-0.343,0.23,93.5,green,251,TRUE
604,1660789179.598,3801,-2819,882,5.102,-0.639,0.081,78.1,yellow,251,TRUE
605,1660789179.77,3077,3948,750,0.417,-1.349,2.995,94.9,red,251,TRUE
606,1660789179.865,2892,3647,3348,5.364,-1.433,2.866,93.7,blue,251,TRUE
607,1660789179.958,2944,-2720,2526,5.384,-0.392,0.202,93.8,green,251,TRUE
608,1660789181.414,3011,4107,750,5.501,-1.193,2.582,93.7,red,251,TRUE
609,1660789182.164,2958,4269,750,5.748,-1.429,2.746,93.4,red,251,TRUE
610,1660789182.258,2882,4156,3348,5.893,-1.506,-0.046,78.3,blue,251,TRUE
611,1660789182.336,2915,-2723,2526,5.337,-0.372,0.242,93.7,green,251,TRUE
612,1660789185.18,2923,-2730,2526,5.347,-0.375,0.224,78.4,green,251,TRUE
613,1660789186.852,2922,-2748,2526,5.344,-0.357,0.227,77.8,green,251,TRUE
614,1660789188.351,2770,4728,750,5.526,-1.361,2.499,93.7,red,251,TRUE
615,1660789188.57,2872,-2731,2526,5.357,-0.379,0.19,93.4,green,251,TRUE
616,1660789188.961,2665,5009,750,5.433,-1.402,2.529,93.4,red,251,TRUE
617,1660789189.07,3681,5545,3348,0.367,-1.455,-3.026,93.9,blue,251,TRUE
618,1660789189.164,2854,-2731,2526,5.358,-0.406,0.161,93.6,green,251,TRUE
619,1660789189.492,2554,5215,750,5.057,-1.314,2.839,93.9,red,251,TRUE
620,1660789189.586,3882,5858,3348,0.35,-1.456,-0.113,93.5,blue,251,TRUE
621,1660789189.679,2866,-2737,2526,5.395,-0.53,0.149,93.8,green,251,TRUE
622,1660789189.914,3769,-2815,882,5.093,-0.665,0.134,93.4,yellow,251,TRUE
623,1660789190.103,2392,5383,750,4.667,-1.352,2.633,93.4,red,251,TRUE
624,1660789190.196,4062,6158,3348,0.309,-1.466,-0.103,93.9,blue,251,TRUE
625,1660789191.776,2201,5599,750,5.268,-1.352,2.623,93.7,red,251,TRUE
626,1660789191.87,4214,6470,3348,0.082,-1.466,-0.104,93.6,blue,251,TRUE
627,1660789191.963,2880,-2735,2526,5.262,-1.109,0.026,94.0,green,251,TRUE
628,1660789192.182,3744,-2811,882,5.16,-0.693,0.109,93.4,yellow,251,TRUE
629,1660789192.369,2011,5825,750,5.249,-1.368,2.652,93.8,red,251,TRUE
630,1660789193.853,3762,-2817,882,5.148,-0.65,0.095,93.7,yellow,251,TRUE
631,1660789194.057,1805,6042,750,5.257,-1.341,2.837,93.6,red,251,TRUE
632,1660789194.15,4586,7136,3348,0.157,-1.504,-3.078,78.1,blue,251,TRUE
633,1660789194.228,2926,-2756,2526,5.438,-0.629,0.24,94.0,green,251,TRUE
634,1660789194.478,3791,-2825,882,5.148,-0.639,0.089,93.7,yellow,251,TRUE
635,1660789194.666,1603,6210,750,5.264,-1.33,2.896,93.7,red,251,TRUE
636,1660789194.76,4818,7450,3348,0.107,-1.487,-3.079,93.8,blue,251,TRUE
637,1660789194.853,2938,-2743,2526,5.439,-0.591,0.247,93.4,green,251,TRUE
638,1660789195.15,3822,-2830,882,5.137,-0.621,0.094,93.8,yellow,251,TRUE
639,1660789195.337,1420,6438,750,5.313,-1.342,2.893,93.9,red,251,TRUE
640,1660789195.431,5076,7539,3348,0.157,-1.496,-3.083,93.5,blue,251,TRUE
641,1660789195.525,2915,-2732,2526,5.433,-0.571,0.24,93.9,green,251,TRUE
642,1660789195.744,3850,-2842,882,5.137,-0.616,0.089,93.7,yellow,251,TRUE
643,1660789195.931,1353,6599,750,5.942,-1.2,2.673,93.7,red,251,TRUE
644,1660789196.025,5234,7581,3348,0.082,-1.504,-3.085,93.7,blue,251,TRUE
645,1660789196.119,2907,-2723,2526,5.432,-0.566,0.233,93.7,green,251,TRUE
646,1660789196.353,3859,-2834,882,5.135,-0.612,0.084,93.5,yellow,251,TRUE
647,1660789196.54,1317,6727,750,5.864,-1.263,2.99,94.0,red,251,TRUE
648,1660789196.634,5242,7571,3348,5.985,-1.474,-0.084,93.5,blue,251,TRUE
649,1660789196.728,2956,-2729,2526,5.435,-0.551,0.22,94.0,green,251,TRUE
650,1660789197.009,3870,-2830,882,5.136,-0.612,0.084,93.6,yellow,251,TRUE
651,1660789197.196,1205,6753,750,5.357,-1.332,3.036,93.7,red,251,TRUE
652,1660789197.29,5258,7498,3348,0.233,-1.516,-0.051,93.6,blue,251,TRUE
653,1660789197.384,2951,-2724,2526,5.46,-0.572,0.212,94.0,green,251,TRUE
654,1660789197.603,3847,-2815,882,5.136,-0.629,0.084,93.7,yellow,251,TRUE
655,1660789197.79,1106,6740,750,5.345,-1.28,2.693,93.7,red,251,TRUE
656,1660789197.884,5284,7481,3348,0.273,-1.518,-3.097,93.6,blue,251,TRUE
657,1660789197.977,2934,-2722,2526,5.479,-0.577,0.206,93.8,green,251,TRUE
658,1660789198.212,3970,-2794,882,5.136,-0.627,0.086,93.7,yellow,251,TRUE
659,1660789198.399,983,6675,750,5.275,-1.23,2.847,93.4,red,251,TRUE
660,1660789198.602,2927,-2741,2526,5.478,-0.576,0.206,93.7,green,251,TRUE
661,1660789198.899,4058,-2765,882,5.136,-0.621,0.083,93.6,yellow,251,TRUE
662,1660789199.086,875,6649,750,5.224,-1.293,2.874,94.0,red,251,TRUE
663,1660789199.18,5157,7444,3348,5.998,-1.469,0.005,93.5,blue,251,TRUE
664,1660789199.274,2919,-2754,2526,5.477,-0.575,0.209,93.8,green,251,TRUE
665,1660789199.493,4047,-2756,882,5.133,-0.612,0.08,93.9,yellow,251,TRUE
666,1660789199.68,810,6655,750,5.143,-1.294,2.961,93.7,red,251,TRUE
667,1660789199.774,5175,7508,3348,6.24,-1.52,-0.025,93.6,blue,251,TRUE
668,1660789199.868,2895,-2771,2526,5.474,-0.573,0.199,93.6,green,251,TRUE
669,1660789200.086,4039,-2769,882,5.133,-0.616,0.08,93.7,yellow,251,TRUE
670,1660789200.274,734,6618,750,5.178,-1.317,2.917,93.7,red,251,TRUE
671,1660789200.367,5188,7480,3348,0.134,-1.426,-1.6,93.9,blue,251,TRUE
672,1660789200.461,2886,-2778,2526,5.474,-0.573,0.185,93.6,green,251,TRUE
673,1660789200.758,3994,-2743,882,5.133,-0.617,0.08,93.9,yellow,251,TRUE
674,1660789200.946,623,6589,750,5.151,-1.329,2.921,93.6,red,251,TRUE
675,1660789201.055,5182,7412,3348,0.139,-1.43,-1.625,94.0,blue,251,TRUE
676,1660789201.149,2873,-2771,2526,5.452,-0.556,0.207,93.5,green,251,TRUE
677,1660789201.586,665,6684,750,5.137,-1.356,2.88,93.7,red,251,TRUE
678,1660789201.68,5192,7423,3348,0.097,-1.438,-1.602,93.8,blue,251,TRUE
679,1660789201.773,2848,-2775,2526,5.455,-0.557,0.23,93.9,green,251,TRUE
680,1660789202.07,4038,-2751,882,5.133,-0.61,0.08,93.9,yellow,251,TRUE
681,1660789202.258,585,6643,750,4.988,-1.367,2.978,94.0,red,251,TRUE
682,1660789202.352,5154,7397,3348,0.084,-1.438,-1.649,93.5,blue,251,TRUE
683,1660789202.445,2848,-2789,2526,5.459,-0.551,0.23,93.7,green,251,TRUE
684,1660789202.664,3984,-2737,882,5.133,-0.629,0.081,93.8,yellow,251,TRUE
685,1660789202.853,483,6614,750,5.127,-1.381,2.907,93.7,red,251,TRUE
686,1660789202.947,5137,7407,3348,0.119,-1.449,-1.694,93.7,blue,251,TRUE
687,1660789203.04,2851,-2798,2526,5.46,-0.55,0.229,93.7,green,251,TRUE
688,1660789203.275,3924,-2720,882,5.133,-0.62,0.081,93.7,yellow,251,TRUE
689,1660789203.462,453,6605,750,5.315,-1.273,2.92,93.7,red,251,TRUE
690,1660789203.556,5116,7398,3348,0.108,-1.439,-1.682,93.8,blue,251,TRUE
691,1660789203.65,2871,-2812,2526,5.463,-0.559,0.224,93.8,green,251,TRUE
692,1660789203.931,3903,-2719,882,5.133,-0.619,0.081,93.7,yellow,251,TRUE
693,1660789204.118,399,6565,750,6.207,-1.19,2.328,93.7,red,251,TRUE
694,1660789204.212,5112,7408,3348,0.099,-1.436,-1.609,93.8,blue,251,TRUE
695,1660789204.306,2795,-2830,2526,5.451,-0.604,0.216,78.1,green,251,TRUE
696,1660789204.524,3860,-2711,882,5.133,-0.617,0.081,109.4,yellow,251,TRUE
697,1660789204.727,440,6529,750,0.538,-1.22,2.652,93.5,red,251,TRUE
698,1660789204.821,5089,7432,3348,0.07,-1.439,-1.685,94.1,blue,251,TRUE
699,1660789206.182,3859,-2716,882,5.132,-0.622,0.095,93.7,yellow,251,TRUE
700,1660789206.37,617,6608,750,6.185,-1.343,-2.978,93.4,red,251,TRUE
701,1660789206.463,5076,7479,3348,0.056,-1.445,-1.742,94.0,blue,251,TRUE
702,1660789206.808,3882,-2718,882,5.12,-0.607,0.061,93.7,yellow,251,TRUE
703,1660789206.996,704,6645,750,5.173,-1.328,3.137,93.7,red,251,TRUE
704,1660789207.09,5158,7565,3348,0.073,-1.441,-1.817,93.8,blue,251,TRUE
705,1660789207.183,2802,-2815,2526,5.416,-0.556,0.207,93.7,green,251,TRUE
706,1660789207.402,3952,-2730,882,5.118,-0.608,0.043,93.8,yellow,251,TRUE
707,1660789207.589,659,6603,750,4.355,-1.331,2.889,94.0,red,251,TRUE
708,1660789207.683,5174,7601,3348,0.074,-1.448,-1.762,93.7,blue,251,TRUE
709,1660789207.777,2834,-2807,2526,5.417,-0.551,0.204,93.8,green,251,TRUE
710,1660789208.075,3978,-2738,882,5.117,-0.608,0.046,93.7,yellow,251,TRUE
711,1660789208.263,583,6579,750,5.109,-1.265,2.874,93.8,red,251,TRUE
712,1660789208.357,5134,7547,3348,0.038,-1.44,-1.729,93.7,blue,251,TRUE
713,1660789208.45,2861,-2794,2526,5.426,-0.533,0.159,93.8,green,251,TRUE
714,1660789208.669,4028,-2745,882,5.121,-0.605,0.079,93.4,yellow,251,TRUE
715,1660789208.857,690,6732,750,5.595,-1.031,2.644,93.7,red,251,TRUE
716,1660789209.075,2885,-2778,2526,5.415,-0.516,0.193,93.7,green,251,TRUE
717,1660789209.294,4054,-2749,882,5.117,-0.602,0.068,93.7,yellow,251,TRUE
718,1660789209.481,722,6724,750,6.276,-1.153,2.602,93.6,red,251,TRUE
719,1660789209.575,5113,7537,3348,0.047,-1.44,-1.593,93.7,blue,251,TRUE
720,1660789209.669,2920,-2761,2526,5.414,-0.523,0.2,93.7,green,251,TRUE
721,1660789209.95,3962,-2719,882,5.121,-0.599,0.07,78.4,yellow,251,TRUE
722,1660789210.122,768,6655,750,0.845,-1.355,3.016,93.7,red,251,TRUE
723,1660789210.216,5124,7556,3348,0.056,-1.445,-1.58,93.8,blue,251,TRUE
724,1660789210.309,2944,-2769,2526,5.415,-0.526,0.196,93.6,green,251,TRUE
725,1660789210.529,4003,-2725,882,5.124,-0.605,0.069,94.1,yellow,251,TRUE
726,1660789210.717,973,6707,750,1.15,-1.283,2.507,93.7,red,251,TRUE
727,1660789210.81,5122,7556,3348,0.088,-1.445,-1.52,94.0,blue,251,TRUE
728,1660789210.904,2965,-2774,2526,5.42,-0.531,0.199,78.1,green,251,TRUE
729,1660789211.123,4064,-2735,882,5.123,-0.59,0.068,93.6,yellow,251,TRUE
730,1660789211.311,1246,6733,750,1.092,-1.202,2.19,93.7,red,251,TRUE
731,1660789211.404,5123,7547,3348,0.076,-1.441,-1.548,93.7,blue,251,TRUE
732,1660789211.779,4113,-2747,882,5.123,-0.59,0.07,94.1,yellow,251,TRUE
733,1660789211.967,1429,6788,750,6.097,-1.194,2.386,93.7,red,251,TRUE
734,1660789212.06,5142,7552,3348,0.079,-1.442,-1.6,95.3,blue,251,TRUE
735,1660789212.156,2971,-2763,2526,5.413,-0.516,0.203,93.7,green,251,TRUE
736,1660789212.374,4130,-2750,882,5.121,-0.588,0.07,93.5,yellow,251,TRUE
737,1660789212.577,1519,6879,750,5.221,-1.236,2.407,93.7,red,251,TRUE
738,1660789212.671,5145,7561,3348,0.064,-1.442,-1.652,93.8,blue,251,TRUE
739,1660789212.765,3007,-2771,2526,5.412,-0.515,0.203,78.2,green,251,TRUE
740,1660789212.984,4180,-2758,882,5.124,-0.601,0.071,93.6,yellow,251,TRUE
741,1660789213.187,1547,7015,750,4.313,-1.281,2.89,93.4,red,251,TRUE
742,1660789213.28,5153,7565,3348,0.07,-1.441,-1.704,94.0,blue,251,TRUE
743,1660789213.374,3012,-2767,2526,5.423,-0.515,0.192,93.7,green,251,TRUE
744,1660789213.672,4197,-2761,882,5.124,-0.598,0.071,93.7,yellow,251,TRUE
745,1660789213.86,1480,7089,750,4.045,-1.367,2.658,93.7,red,251,TRUE
746,1660789213.954,5170,7574,3348,0.074,-1.44,-1.715,93.7,blue,251,TRUE
747,1660789214.047,3075,-2740,2526,5.427,-0.515,0.197,93.8,green,251,TRUE
748,1660789214.266,4168,-2755,882,5.123,-0.595,0.071,93.8,yellow,251,TRUE
749,1660789214.453,1474,7187,750,3.708,-1.321,2.727,93.8,red,251,TRUE
750,1660789214.547,5179,7571,3348,0.069,-1.44,-1.689,93.8,blue,251,TRUE
751,1660789214.641,3059,-2734,2526,5.436,-0.512,0.202,93.6,green,251,TRUE
752,1660789214.86,4140,-2753,882,5.123,-0.593,0.071,93.7,yellow,251,TRUE
753,1660789215.047,1569,7367,750,3.355,-1.288,2.909,93.8,red,251,TRUE
754,1660789215.141,5168,7556,3348,0.063,-1.441,-1.707,93.6,blue,251,TRUE
755,1660789215.235,3029,-2716,2526,5.437,-0.513,0.192,93.8,green,251,TRUE
756,1660789215.533,4121,-2748,882,5.124,-0.604,0.072,94.1,yellow,251,TRUE
757,1660789215.72,1706,7513,750,3.372,-1.437,2.474,93.7,red,251,TRUE
758,1660789215.814,5173,7539,3348,0.057,-1.432,-1.587,93.7,blue,251,TRUE
759,1660789215.908,3001,-2696,2526,5.425,-0.501,0.191,93.7,green,251,TRUE
760,1660789216.111,4133,-2750,882,5.123,-0.598,0.073,93.7,yellow,251,TRUE
761,1660789216.3,1714,7500,750,2.891,-1.374,2.794,93.8,red,251,TRUE
762,1660789216.394,5187,7551,3348,0.059,-1.437,-1.609,93.4,blue,251,TRUE
763,1660789216.487,2984,-2692,2526,5.423,-0.491,0.19,94.0,green,251,TRUE
764,1660789216.723,4158,-2757,882,5.124,-0.593,0.071,93.7,yellow,251,TRUE
765,1660789216.911,1861,7659,750,2.745,-1.145,2.947,93.8,red,251,TRUE
766,1660789217.005,5214,7550,3348,0.038,-1.436,-1.614,93.7,blue,251,TRUE
767,1660789217.098,2957,-2695,2526,5.412,-0.491,0.197,93.8,green,251,TRUE
768,1660789217.38,4162,-2763,882,5.125,-0.603,0.073,93.7,yellow,251,TRUE
769,1660789217.584,1822,7765,750,2.697,-1.117,2.942,94.0,red,251,TRUE
770,1660789217.678,5192,7538,3348,0.039,-1.436,-1.564,93.7,blue,251,TRUE
771,1660789217.771,2927,-2679,2526,5.407,-0.487,0.195,93.8,green,251,TRUE
772,1660789217.99,4174,-2766,882,5.125,-0.601,0.073,93.7,yellow,251,TRUE
773,1660789218.178,1765,7870,750,1.871,-1.3,-3.127,93.7,red,251,TRUE
774,1660789218.271,5215,7523,3348,0.046,-1.432,-1.506,93.5,blue,251,TRUE
775,1660789218.365,2903,-2663,2526,5.409,-0.482,0.195,94.0,green,251,TRUE
776,1660789218.584,4171,-2767,882,5.123,-0.592,0.073,93.4,yellow,251,TRUE
777,1660789218.771,1681,7992,750,1.395,-1.272,2.919,93.8,red,251,TRUE
778,1660789218.865,5235,7527,3348,0.051,-1.425,-1.466,93.7,blue,251,TRUE
779,1660789218.959,2909,-2662,2526,5.418,-0.491,0.192,93.8,green,251,TRUE
780,1660789219.24,4172,-2767,882,5.123,-0.589,0.073,93.4,yellow,251,TRUE
781,1660789219.427,1646,8011,750,1.368,-1.356,2.568,93.7,red,251,TRUE
782,1660789219.521,5235,7513,3348,0.039,-1.436,-1.535,109.3,blue,251,TRUE
783,1660789219.63,2889,-2642,2526,5.418,-0.493,0.195,93.8,green,251,TRUE
784,1660789219.849,4174,-2769,882,5.123,-0.602,0.074,94.0,yellow,251,TRUE
785,1660789220.037,1704,7985,750,2.153,-1.397,3.014,93.7,red,251,TRUE
786,1660789220.13,5264,7532,3348,0.055,-1.449,-1.647,93.8,blue,251,TRUE
787,1660789220.224,2863,-2618,2526,5.418,-0.49,0.201,93.7,green,251,TRUE
788,1660789220.443,4175,-2771,882,5.123,-0.603,0.074,94.6,yellow,251,TRUE
789,1660789220.631,1781,7915,750,3.334,-1.27,2.949,93.7,red,251,TRUE
790,1660789220.725,5267,7537,3348,0.061,-1.451,-1.679,93.7,blue,251,TRUE
791,1660789221.131,4149,-2760,882,5.133,-0.638,0.068,93.8,yellow,251,TRUE
792,1660789221.319,1907,7853,750,3.534,-1.296,3.017,93.8,red,251,TRUE
793,1660789221.413,5271,7544,3348,0.079,-1.452,-3.024,93.7,blue,251,TRUE
794,1660789221.506,2822,-2600,2526,5.414,-0.499,0.209,93.7,green,251,TRUE
795,1660789221.725,4135,-2760,882,5.139,-0.629,0.082,93.7,yellow,251,TRUE
796,1660789221.912,2040,7813,750,3.401,-1.32,2.992,93.6,red,251,TRUE
797,1660789222.006,5282,7543,3348,0.083,-1.451,-1.669,93.8,blue,251,TRUE
798,1660789222.334,4145,-2767,882,5.149,-0.589,0.084,93.8,yellow,251,TRUE
799,1660789222.522,2187,7760,750,3.115,-1.329,2.913,93.8,red,251,TRUE
800,1660789222.615,5232,7490,3348,0.479,-1.525,-0.036,93.7,blue,251,TRUE
801,1660789222.709,2868,-2621,2526,5.416,-0.499,0.209,93.7,green,251,TRUE
802,1660789222.99,4170,-2771,882,5.117,-0.603,0.056,95.3,yellow,251,TRUE
803,1660789223.179,2332,7727,750,3.091,-1.312,2.909,93.7,red,251,TRUE
804,1660789223.273,5218,7476,3348,1.107,-1.509,-0.044,93.7,blue,251,TRUE
805,1660789223.82,2471,7692,750,3.255,-1.301,2.845,93.8,red,251,TRUE
806,1660789223.913,5235,7464,3348,1.136,-1.467,-0.076,93.6,blue,251,TRUE
807,1660789224.007,2908,-2617,2526,5.421,-0.52,0.212,93.7,green,251,TRUE
808,1660789224.304,4115,-2737,882,5.114,-0.612,0.083,93.8,yellow,251,TRUE
809,1660789224.491,2576,7640,750,3.242,-1.321,2.835,93.7,red,251,TRUE
810,1660789224.585,5220,7450,3348,1.172,-1.478,-3.064,93.8,blue,251,TRUE
811,1660789224.679,2925,-2625,2526,5.411,-0.512,0.216,93.7,green,251,TRUE
812,1660789224.913,4123,-2733,882,5.116,-0.61,0.082,93.6,yellow,251,TRUE
813,1660789225.101,2723,7602,750,3.231,-1.318,2.886,93.8,red,251,TRUE
814,1660789225.194,5168,7426,3348,1.139,-1.472,-3.06,78.1,blue,251,TRUE
815,1660789225.272,2918,-2633,2526,5.412,-0.517,0.214,93.8,green,251,TRUE
816,1660789225.507,4089,-2722,882,5.113,-0.617,0.083,95.2,yellow,251,TRUE
817,1660789225.696,2832,7558,750,3.227,-1.292,2.88,93.8,red,251,TRUE
818,1660789225.789,5162,7421,3348,1.142,-1.478,-3.062,93.7,blue,251,TRUE
819,1660789225.883,2911,-2642,2526,5.4,-0.506,0.195,93.6,green,251,TRUE
820,1660789226.164,4072,-2727,882,5.114,-0.608,0.074,94.0,yellow,251,TRUE
821,1660789226.461,5097,7415,3348,1.115,-1.477,-3.061,78.1,blue,251,TRUE
822,1660789226.539,2925,-2650,2526,5.399,-0.496,0.194,93.8,green,251,TRUE
823,1660789226.758,4020,-2711,882,5.117,-0.626,0.062,93.9,yellow,251,TRUE
824,1660789226.945,2939,7454,750,3.232,-1.295,2.883,93.7,red,251,TRUE
825,1660789227.039,5081,7417,3348,1.105,-1.482,-3.064,94.9,blue,251,TRUE
826,1660789227.134,2922,-2667,2526,5.394,-0.489,0.195,94.1,green,251,TRUE
827,1660789227.369,4001,-2702,882,5.115,-0.611,0.063,93.8,yellow,251,TRUE
828,1660789227.556,2935,7421,750,3.229,-1.3,2.884,93.7,red,251,TRUE
