,timestamp,x,y,z,yaw,roll,pitch,latency,student,session,success
0,1661210049.475,567.4020300912464,-1219.5431637276702,1000,5.945,-1.556,3.138,99.7,blue,253,TRUE
1,1661210049.567,807.0891548550408,-958.4325076751499,1000,4.852,-1.369,0.053,127.7,red,253,TRUE
2,1661210052.901,905.791515850868,-430.84077614432545,1000,2.839,-1.379,0.453,115.7,red,253,TRUE
3,1661210052.995,3893.7251832253855,-2492.1183062966406,1000,5.388,-0.789,-0.064,96.7,yellow,253,TRUE
4,1661210053.084,3105.7304235247484,-2582.108632984589,1000,6.092,-0.646,-0.034,112.7,green,253,TRUE
5,1661210053.362,777.6701389594429,-1065.3378802390475,1000,4.095,-1.506,-3.141,118.7,blue,253,TRUE
6,1661210053.465,966.4041323916887,80.2457199435443,1000,2.382,-1.5,0.064,120.7,red,253,TRUE
7,1661210056.839,1251.3069992019298,744.9748682159908,1000,0.264,-1.45,0.024,1132.1,red,253,TRUE
8,1661210060.087,1417.4494185181165,-364.44972254926034,1000,6.228,-1.51,3.133,99.8,blue,253,TRUE
9,1661210060.179,1582.7939592671512,1495.6745688042283,1000,5.781,-1.444,0.412,127.8,red,253,TRUE
10,1661210060.287,4002.495490931627,-2655.8009843299446,1000,5.379,-0.8,-0.06,109.7,yellow,253,TRUE
11,1661210060.383,3114.7603574185546,-2583.311298802286,1000,6.106,-0.638,0.039,117.6,green,253,TRUE
12,1661210060.667,1840.1207613613572,494.9339677712192,1000,5.869,-1.508,3.133,103.8,blue,253,TRUE
13,1661210060.759,1939.2044625355375,2241.4386267924956,1000,5.72,-1.46,0.012,101.8,red,253,TRUE
14,1661210060.848,4014.500123407063,-2650.064695828775,1000,5.402,-0.82,0.059,117.7,yellow,253,TRUE
15,1661210060.949,3090.5758705643098,-2572.611818770387,1000,6.087,-0.66,-0.025,105.7,green,253,TRUE
16,1661210061.221,2225.096781501809,1293.1405823094772,1000,5.024,-1.465,3.109,103.7,blue,253,TRUE
17,1661210061.314,2005.4421633066595,2537.279972320927,1000,5.51,-1.443,0.132,99.7,red,253,TRUE
18,1661210061.401,4026.559307635978,-2655.437945523939,1000,5.381,-0.794,-0.051,117.7,yellow,253,TRUE
19,1661210061.503,3098.522825871088,-2560.0745179289975,1000,6.077,-0.641,-0.034,105.7,green,253,TRUE
20,1661210061.776,2528.0268442140696,2206.471138858702,1000,4.583,-1.474,-3.099,101.7,blue,253,TRUE
21,1661210061.865,2226.221421843753,2750.905463419749,1000,5.459,-1.463,0.022,117.7,red,253,TRUE
22,1661210061.967,4079.62627224477,-2668.365576071484,1000,5.365,-0.776,-0.095,105.7,yellow,253,TRUE
23,1661210062.058,3148.130298699172,-2578.578248786864,1000,6.082,-0.675,-0.014,103.7,green,253,TRUE
24,1661210062.33,2772.668657732975,2793.1915401508445,1000,4.592,-1.452,-3.125,102.4,blue,253,TRUE
25,1661210062.418,2474.8778369354295,3029.164119201665,1000,5.327,-1.503,0.056,119.0,red,253,TRUE
26,1661210062.521,4085.287880434534,-2681.7707621365503,1000,5.371,-0.765,-0.055,120.6,yellow,253,TRUE
27,1661210064.767,3067.9221214497356,3288.5166860062086,1000,3.575,-1.514,3.122,104.2,blue,253,TRUE
28,1661210064.863,2587.786039190854,3097.54663134898,1000,5.03,-1.489,3.078,98.8,red,253,TRUE
29,1661210064.953,4217.5932990180445,-2710.143396576924,1000,5.397,-0.803,-0.14,97.6,yellow,253,TRUE
30,1661210065.038,3176.5552678558665,-2586.562550090941,1000,6.086,-0.694,-0.001,102.7,green,253,TRUE
31,1661210065.31,2954.679356097998,3516.0117964198184,1000,3.505,-1.523,0.047,99.7,blue,253,TRUE
32,1661210065.397,2592.7349323855447,3062.1018353754603,1000,4.77,-1.552,0.0,117.7,red,253,TRUE
33,1661210065.499,4185.772588636778,-2710.1941197236915,1000,5.387,-0.807,-0.112,105.4,yellow,253,TRUE
34,1661210065.59,3134.7323803099894,-2566.735178467604,1000,6.089,-0.71,-0.035,103.7,green,253,TRUE
35,1661210065.845,2881.3067435391736,3660.48097981416,1000,3.457,-1.501,0.069,119.1,blue,253,TRUE
36,1661210065.948,2544.8769896665867,3018.899588735029,1000,4.716,-1.558,0.008,121.7,red,253,TRUE
37,1661210066.053,4179.29332600304,-2644.624987496268,1000,5.377,-0.804,-0.075,121.4,yellow,253,TRUE
38,1661210066.144,3085.8129886519796,-2543.433206589409,1000,6.089,-0.711,-0.035,103.8,green,253,TRUE
39,1661210066.398,2789.084285414099,3701.29915369537,1000,3.449,-1.503,3.074,118.8,blue,253,TRUE
40,1661210066.501,2546.8771170818377,2990.296317958735,1000,4.737,-1.551,0.019,105.7,red,253,TRUE
41,1661210066.593,4204.8464663999675,-2602.3157228073474,1000,5.377,-0.8,-0.094,103.7,yellow,253,TRUE
42,1661210066.683,3075.2329629267783,-2510.5197805635885,1000,6.088,-0.717,-0.032,103.7,green,253,TRUE
43,1661210066.95,2836.880726122288,3816.6093690264593,1000,3.491,-1.494,3.067,121.7,blue,253,TRUE
44,1661210067.055,2546.501412678045,2955.0599203016695,1000,4.755,-1.535,3.123,106.7,red,253,TRUE
45,1661210067.147,4137.824984463979,-2556.8220781040804,1000,5.372,-0.77,-0.117,117.7,yellow,253,TRUE
46,1661210067.236,3033.1335003331365,-2500.913755194046,1000,6.087,-0.719,-0.032,103.7,green,253,TRUE
47,1661210067.503,2864.968659594749,3887.1179738918486,1000,3.449,-1.498,3.071,106.3,blue,253,TRUE
48,1661210067.596,2550.0711789030643,2891.897531920859,1000,4.747,-1.508,3.123,102.8,red,253,TRUE
49,1661210067.686,4091.255840281523,-2558.366039212166,1000,5.385,-0.804,-0.106,102.5,yellow,253,TRUE
50,1661210067.777,2973.4111478173377,-2481.3805404458003,1000,6.087,-0.718,-0.032,146.6,green,253,TRUE
51,1661210068.089,2783.2755348748947,3837.780624013108,1000,3.295,-1.508,-3.139,103.7,blue,253,TRUE
52,1661210068.179,2576.5466752255884,2875.400383962438,1000,4.746,-1.509,3.125,104.3,red,253,TRUE
53,1661210068.273,3929.8685791343432,-2511.0196014624307,1000,5.388,-0.894,-0.067,99.7,yellow,253,TRUE
54,1661210068.36,2966.3227484462955,-2490.1957470795674,1000,6.087,-0.718,-0.031,118.7,green,253,TRUE
55,1661210068.643,2808.0593357338767,3784.5077510043393,1000,3.356,-1.487,3.127,103.7,blue,253,TRUE
56,1661210068.735,2559.05625116779,2853.9353730385697,1000,4.742,-1.504,3.126,101.7,red,253,TRUE
57,1661210068.823,3936.2570684528378,-2514.544793475989,1000,5.393,-0.794,-0.084,117.7,yellow,253,TRUE
58,1661210068.925,2955.75804481004,-2491.859458410579,1000,6.088,-0.713,-0.028,135.6,green,253,TRUE
59,1661210069.211,2678.0594354639966,3710.3848065697616,1000,3.348,-1.464,3.115,104.1,blue,253,TRUE
60,1661210069.305,2572.6742258380864,2842.1279210742327,1000,4.732,-1.504,3.127,99.7,red,253,TRUE
61,1661210069.392,3975.1074024135346,-2566.3187423169597,1000,5.399,-0.743,-0.091,117.7,yellow,253,TRUE
62,1661210069.494,2990.5279291177394,-2511.661969088446,1000,6.084,-0.72,-0.027,105.7,green,253,TRUE
63,1661210069.768,2641.246867038332,3729.7148233245007,1000,3.361,-1.465,3.117,101.8,blue,253,TRUE
64,1661210069.856,2603.1101859459945,2828.5846460224625,1000,4.73,-1.497,3.122,117.6,red,253,TRUE
65,1661210069.958,3981.444826640383,-2585.5543988177456,1000,5.408,-0.746,-0.083,120.7,yellow,253,TRUE
66,1661210070.063,2989.3395893689103,-2508.668002819262,1000,6.088,-0.717,-0.027,106.5,green,253,TRUE
67,1661210070.336,2510.9516957444616,3641.3692502704926,1000,3.341,-1.466,3.118,101.8,blue,253,TRUE
68,1661210070.424,2596.3510662110125,2824.5410813932217,1000,4.743,-1.494,3.12,118.7,red,253,TRUE
69,1661210070.527,3997.505364692031,-2595.9997672808845,1000,5.401,-0.76,-0.063,105.7,yellow,253,TRUE
70,1661210070.618,3031.3704598298877,-2535.74049199519,1000,6.091,-0.682,-0.015,104.1,green,253,TRUE
71,1661210070.888,2375.8972031065605,3528.568596997473,1000,3.359,-1.469,3.118,118.7,blue,253,TRUE
72,1661210070.991,2590.282120612815,2817.7179613478424,1000,4.728,-1.501,3.119,105.5,red,253,TRUE
73,1661210071.083,4011.970877092557,-2576.632819446068,1000,5.391,-0.756,-0.069,102.7,yellow,253,TRUE
74,1661210071.173,3062.4826060987284,-2550.79658742103,1000,6.079,-0.705,-0.023,102.7,green,253,TRUE
75,1661210071.439,2351.708974070581,3487.6632595595456,1000,3.352,-1.481,3.122,120.7,blue,253,TRUE
76,1661210071.544,2587.04327545131,2826.3097376905257,1000,4.752,-1.506,3.115,105.8,red,253,TRUE
77,1661210071.636,4074.82570445399,-2572.2755531434573,1000,5.388,-0.742,-0.084,103.9,yellow,253,TRUE
78,1661210071.726,3101.4096619488023,-2569.4775049573987,1000,6.11,-0.736,-0.142,103.8,green,253,TRUE
79,1661210071.993,2334.505266040976,3475.990330430471,1000,3.307,-1.492,3.123,105.7,blue,253,TRUE
80,1661210072.086,2552.2730052843217,2835.304221431815,1000,4.757,-1.493,3.123,102.8,red,253,TRUE
81,1661210072.175,4063.3398671586388,-2565.4225867351965,1000,5.385,-0.748,-0.087,119.7,yellow,253,TRUE
82,1661210075.515,4060.951983982919,-2536.5631895347183,1000,5.394,-0.804,0.08,1119.1,yellow,253,TRUE
83,1661210076.806,2384.439591524739,3533.2325435768566,1000,3.258,-1.486,3.122,112.7,blue,253,TRUE
84,1661210076.905,2553.1435054001176,2837.0634636805516,1000,4.718,-1.499,3.117,117.5,red,253,TRUE
85,1661210077.007,4037.890157861975,-2553.5368516018975,1000,5.365,-0.774,-0.118,121.7,yellow,253,TRUE
86,1661210079.286,2352.4731628715663,3551.3718541639514,1000,3.186,-1.486,3.135,1119.4,blue,253,TRUE
87,1661210080.396,4029.981665622696,-2589.538350594434,1000,5.351,-0.79,-0.052,99.7,yellow,253,TRUE
88,1661210080.488,3107.9851352165665,-2556.6542599435857,1000,6.121,-0.705,-0.068,97.7,green,253,TRUE
89,1661210080.752,2400.5977612472543,3544.9947985308468,1000,3.194,-1.509,3.139,102.7,blue,253,TRUE
90,1661210080.842,2509.6041192096545,2833.82286346436,1000,4.755,-1.46,3.131,117.7,red,253,TRUE
91,1661210080.943,4033.534945374347,-2614.548250935778,1000,5.349,-0.78,-0.063,106.7,yellow,253,TRUE
92,1661210081.033,3105.1364309789838,-2549.5232842689197,1000,6.118,-0.684,-0.068,105.7,green,253,TRUE
93,1661210081.307,2422.973092870562,3558.58072756126,1000,3.187,-1.515,3.139,100.7,blue,253,TRUE
94,1661210081.395,2479.675541344604,2834.8046682111276,1000,4.758,-1.465,3.131,117.7,red,253,TRUE
95,1661210081.497,4036.1563388544128,-2640.575519845141,1000,5.353,-0.785,-0.088,105.7,yellow,253,TRUE
96,1661210083.698,2474.0106968619225,3583.932143907665,1000,3.685,-1.51,3.099,1122.3,blue,253,TRUE
97,1661210084.809,4059.427332077887,-2658.4561176536695,1000,5.356,-0.747,-0.085,100.6,yellow,253,TRUE
98,1661210084.902,3145.8902122205127,-2574.480195457359,1000,6.098,-0.7,-0.037,97.8,green,253,TRUE
99,1661210085.15,2529.832817165737,3655.1517675475966,1000,3.374,-1.468,3.122,103.7,blue,253,TRUE
100,1661210085.242,2411.8373421103456,2781.6819754940716,1000,4.662,-1.439,-3.055,101.7,red,253,TRUE
101,1661210085.332,4032.868118015474,-2659.736233730779,1000,5.364,-0.758,-0.085,117.7,yellow,253,TRUE
102,1661210085.42,3205.121018644508,-2606.2898317596596,1000,6.111,-0.681,-0.053,104.1,green,253,TRUE
103,1661210085.674,2533.5723307929347,3596.79914529638,1000,3.364,-1.454,3.113,103.7,blue,253,TRUE
104,1661210085.767,2355.5625513568584,2717.0085773225314,1000,4.668,-1.431,-3.054,100.8,red,253,TRUE
105,1661210085.854,4055.7703640316017,-2640.519451607347,1000,5.364,-0.756,-0.097,133.6,yellow,253,TRUE
106,1661210085.957,3220.651390576318,-2615.237612508617,1000,6.117,-0.681,-0.072,121.7,green,253,TRUE
107,1661210086.243,2612.0587168954876,3602.321788820987,1000,3.339,-1.452,3.112,104.3,blue,253,TRUE
108,1661210086.337,2329.350846104358,2643.3971443025794,1000,4.667,-1.432,-3.054,99.7,red,253,TRUE
109,1661210086.424,4053.810996555754,-2609.1387590807376,1000,5.364,-0.767,-0.1,132.9,yellow,253,TRUE
110,1661210086.526,3226.712537008621,-2612.4687389362284,1000,6.115,-0.685,-0.037,120.9,green,253,TRUE
111,1661210086.813,2674.5644400392343,3675.0790583012476,1000,3.327,-1.454,3.11,102.7,blue,253,TRUE
112,1661210086.903,2311.267327087006,2640.820891627774,1000,4.605,-1.49,-3.114,117.7,red,253,TRUE
113,1661210087.005,4076.3182734664765,-2602.9035389366322,1000,5.363,-0.755,-0.1,105.7,yellow,253,TRUE
114,1661210087.096,3251.46259903734,-2637.3092302255855,1000,6.087,-0.699,-0.047,103.7,green,253,TRUE
115,1661210087.368,2746.626710316515,3707.841373628659,1000,3.317,-1.458,3.109,117.7,blue,253,TRUE
116,1661210087.469,2329.357934477103,2639.3921624614627,1000,4.515,-1.509,-3.09,120.6,red,253,TRUE
117,1661210087.574,4090.311190908713,-2590.048060666019,1000,5.361,-0.733,-0.103,105.9,yellow,253,TRUE
118,1661210087.666,3268.9829992690097,-2641.6935177102655,1000,6.125,-0.741,-0.11,118.8,green,253,TRUE
119,1661210087.95,2807.322187598454,3795.7223804662176,1000,3.316,-1.454,3.109,119.3,blue,253,TRUE
120,1661210088.054,2334.731041803189,2599.916085856799,1000,4.46,-1.5,-3.12,105.7,red,253,TRUE
121,1661210088.146,4064.161371615393,-2574.312812032997,1000,5.363,-0.764,-0.118,103.7,yellow,253,TRUE
122,1661210088.236,3278.3436761425132,-2642.7388763082117,1000,6.111,-0.687,-0.057,102.7,green,253,TRUE
123,1661210088.518,2786.569538474568,3769.098298032328,1000,3.319,-1.456,3.111,105.7,blue,253,TRUE
124,1661210088.609,2428.42230837916,2652.9666155469367,1000,4.444,-1.485,-3.118,103.8,red,253,TRUE
125,1661210088.699,4036.1087264102403,-2568.225236941826,1000,5.363,-0.773,-0.121,118.7,yellow,253,TRUE
126,1661210088.791,3183.850875920924,-2604.747900773115,1000,6.088,-0.619,0.029,131.7,green,253,TRUE
127,1661210089.088,2783.816006992533,3736.3588764602773,1000,3.347,-1.488,3.137,103.7,blue,253,TRUE
128,1661210089.179,2520.163392850753,2737.2236294880863,1000,4.713,-1.521,-3.122,102.7,red,253,TRUE
129,1661210089.269,4060.4741771118115,-2574.869691541718,1000,5.365,-0.768,-0.108,116.7,yellow,253,TRUE
130,1661210089.359,3143.3818909713304,-2568.2189042672376,1000,6.072,-0.665,-0.019,102.7,green,253,TRUE
131,1661210089.642,2833.6781859176062,3714.7407457427,1000,3.658,-1.433,2.766,103.4,blue,253,TRUE
132,1661210089.732,2692.832710966554,2919.45068192782,1000,5.507,-1.496,0.065,103.7,red,253,TRUE
133,1661210089.823,4072.8427931760975,-2598.1559803990735,1000,5.367,-0.778,-0.091,101.8,yellow,253,TRUE
134,1661210092.052,2799.247157909536,3815.3416109503123,1000,4.544,-1.45,-2.724,104.7,blue,253,TRUE
135,1661210092.148,2700.482444338578,3422.650279463072,1000,5.171,-1.333,0.044,97.7,red,253,TRUE
136,1661210092.237,4050.1333276663586,-2577.5372608912385,1000,5.376,-0.706,-0.048,98.7,yellow,253,TRUE
137,1661210092.326,3131.172875237331,-2558.507138570244,1000,6.06,-0.684,-0.019,99.4,green,253,TRUE
138,1661210092.606,2758.343152686926,4019.5198531183128,1000,5.137,-1.547,-0.003,104.1,blue,253,TRUE
139,1661210092.696,2687.897518868717,4042.2121402055213,1000,5.131,-1.214,0.299,103.5,red,253,TRUE
140,1661210092.788,4058.287140735905,-2598.2810345888847,1000,5.382,-0.721,0.014,101.8,yellow,253,TRUE
141,1661210092.86,3153.5506518457987,-2564.9043044417595,1000,6.066,-0.716,-0.045,118.7,green,253,TRUE
142,1661210093.16,2631.8171272437007,4222.0428784698615,1000,5.021,-1.536,3.11,103.7,blue,253,TRUE
143,1661210093.249,2630.695149414529,4781.692243179146,1000,4.975,-1.359,0.057,103.9,red,253,TRUE
144,1661210093.343,4003.745840930716,-2664.2541403161645,1000,5.345,-0.725,-0.015,114.7,yellow,253,TRUE
145,1661210096.694,4440.210261510903,-2003.6011976500452,1000,5.345,-0.762,-0.093,1133.0,yellow,253,TRUE
146,1661210097.998,2461.5871239557796,4806.117343280856,1000,4.015,-1.32,3.062,113.0,blue,253,TRUE
147,1661210098.099,2553.5235238186274,5654.469794890887,1000,2.27,-1.526,-3.117,102.0,red,253,TRUE
148,1661210098.187,4386.488681931445,-2018.9836122400686,1000,5.348,-0.768,-0.101,103.8,yellow,253,TRUE
149,1661210098.279,3157.097705744239,-2573.7558899537253,1000,6.097,-0.704,0.009,101.8,green,253,TRUE
150,1661210098.559,2339.7799006932496,5477.617086457177,1000,4.014,-1.3,3.059,105.7,blue,253,TRUE
151,1661210098.651,2473.716812878275,6518.665041624442,1000,2.391,-1.532,-0.002,103.7,red,253,TRUE
152,1661210098.741,4353.224149632052,-2008.6278236359537,1000,5.348,-0.768,-0.101,102.9,yellow,253,TRUE
153,1661210098.832,3162.817506942723,-2581.498702277709,1000,6.093,-0.709,-0.004,101.7,green,253,TRUE
154,1661210099.115,2174.9909993522756,6110.89104845361,1000,3.999,-1.323,3.084,103.7,blue,253,TRUE
155,1661210099.205,2299.7029563904794,7280.282258755361,1000,2.377,-1.492,0.011,103.7,red,253,TRUE
156,1661210099.298,4337.441120652131,-2029.2029039994495,1000,5.348,-0.767,-0.101,99.7,yellow,253,TRUE
157,1661210099.385,3169.1244637266445,-2562.1437899792477,1000,6.097,-0.708,-0.007,117.7,green,253,TRUE
158,1661210099.683,2017.3105183447387,6585.114745959984,1000,4.011,-1.332,3.07,103.4,blue,253,TRUE
159,1661210099.773,2254.7580611231556,7659.766132463025,1000,2.332,-1.51,0.016,103.7,red,253,TRUE
160,1661210099.864,4283.278018259261,-2014.4091039903567,1000,5.348,-0.764,-0.092,101.8,yellow,253,TRUE
161,1661210099.952,3173.4412737883945,-2573.7849675919406,1000,6.097,-0.707,-0.007,118.6,green,253,TRUE
162,1661210100.236,1914.9718163091027,6999.111600221677,1000,4.048,-1.342,3.034,103.7,blue,253,TRUE
163,1661210100.329,2247.7686945357696,7920.799212002447,1000,2.289,-1.552,3.134,101.7,red,253,TRUE
164,1661210100.417,4336.407901024185,-1983.9412034980833,1000,5.353,-0.75,-0.057,117.7,yellow,253,TRUE
165,1661210100.504,3193.2279689750444,-2590.3843735665073,1000,6.097,-0.706,-0.007,106.7,green,253,TRUE
166,1661210100.778,1873.510525522596,7331.085684537026,1000,4.022,-1.328,3.063,101.7,blue,253,TRUE
167,1661210100.866,2282.114473667922,8108.844106329217,1000,2.311,-1.556,3.136,118.7,red,253,TRUE
168,1661210100.968,3902.370192387292,-2676.1729935430444,1000,5.353,-0.747,-0.053,120.7,yellow,253,TRUE
169,1661210101.058,3145.8432140068617,-2567.6107975036703,1000,6.093,-0.677,-0.003,105.7,green,253,TRUE
170,1661210101.332,1938.231688726607,7355.338090856655,1000,4.025,-1.329,3.04,100.8,blue,253,TRUE
171,1661210101.42,2285.941911612314,8126.905553197518,1000,2.381,-1.458,0.029,118.1,red,253,TRUE
172,1661210101.522,3911.5304846167505,-2664.8347935980564,1000,5.351,-0.761,-0.091,90.8,yellow,253,TRUE
173,1661210101.601,3154.9958149693534,-2572.426024563913,1000,6.089,-0.685,0.02,101.8,green,253,TRUE
174,1661210101.868,1940.6400875113832,7356.5095436274505,1000,4.024,-1.332,3.038,119.3,blue,253,TRUE
175,1661210101.971,2279.8080524448346,8117.528137905209,1000,2.404,-1.418,0.221,121.1,red,253,TRUE
176,1661210102.076,3899.514983285513,-2675.4261667667984,1000,5.343,-0.756,-0.111,105.5,yellow,253,TRUE
177,1661210102.168,3152.2952403042295,-2568.1374954294456,1000,6.088,-0.674,0.01,103.7,green,253,TRUE
178,1661210102.439,1931.2979829954036,7356.982128314809,1000,4.019,-1.329,3.04,118.7,blue,253,TRUE
179,1661210102.54,2255.777163494817,8122.959567628365,1000,2.347,-1.403,0.206,105.7,red,253,TRUE
180,1661210102.632,3894.237553998828,-2682.776946470953,1000,5.349,-0.753,-0.111,103.7,yellow,253,TRUE
181,1661210102.722,3173.6181710345368,-2587.1817656836974,1000,6.112,-0.707,-0.065,103.7,green,253,TRUE
182,1661210103.005,1936.2950170593122,7343.130023529974,1000,4.019,-1.337,3.042,106.1,blue,253,TRUE
183,1661210103.1,2226.0535086370323,8110.29134189892,1000,2.234,-1.355,0.241,100.8,red,253,TRUE
184,1661210103.187,3895.896462196277,-2698.804833353824,1000,5.366,-0.754,-0.1,103.7,yellow,253,TRUE
185,1661210103.278,3180.9781394885904,-2607.6550876390424,1000,6.086,-0.644,-0.015,101.7,green,253,TRUE
186,1661210103.559,1931.4339242347057,7340.248153728393,1000,4.016,-1.34,3.038,105.8,blue,253,TRUE
187,1661210103.65,2216.3398032434416,8102.056647221645,1000,2.146,-1.34,0.343,103.5,red,253,TRUE
188,1661210103.74,3878.1091744387745,-2688.1204583566428,1000,5.367,-0.745,-0.106,118.5,yellow,253,TRUE
189,1661210103.831,3159.6884423526258,-2599.9260548251937,1000,6.088,-0.695,-0.003,117.7,green,253,TRUE
190,1661210104.129,1915.8439944751706,7348.1028463160355,1000,4.021,-1.333,3.034,104.4,blue,253,TRUE
191,1661210104.219,2205.2686363566568,8098.9862346714035,1000,2.183,-1.501,0.032,104.1,red,253,TRUE
192,1661210104.313,3872.8432557133074,-2673.78823982479,1000,5.366,-0.755,-0.109,116.1,yellow,253,TRUE
193,1661210104.399,3150.861719392855,-2595.2342246900366,1000,6.09,-0.709,-0.012,134.7,green,253,TRUE
194,1661210104.699,1893.200800647772,7332.949547007397,1000,4.022,-1.335,3.033,103.6,blue,253,TRUE
195,1661210104.791,2203.3293978208712,8082.582885095467,1000,2.101,-1.489,-3.115,101.7,red,253,TRUE
196,1661210104.879,3897.644441901375,-2691.5742313557125,1000,5.369,-0.734,-0.093,132.4,yellow,253,TRUE
197,1661210104.981,3143.919938868837,-2597.1664050830154,1000,6.094,-0.711,-0.026,135.6,green,253,TRUE
198,1661210105.282,1894.0674744837768,7335.835667703813,1000,4.021,-1.336,3.033,103.7,blue,253,TRUE
199,1661210105.374,2164.9426984906295,8070.55611749025,1000,2.129,-1.527,-3.133,100.7,red,253,TRUE
200,1661210105.462,3927.999742972907,-2692.935054727214,1000,5.379,-0.721,-0.081,103.7,yellow,253,TRUE
201,1661210105.549,3095.2786707347864,-2570.0942416246485,1000,6.094,-0.707,-0.02,121.1,green,253,TRUE
202,1661210105.837,1887.3900432355033,7332.66378550342,1000,4.02,-1.335,3.033,102.7,blue,253,TRUE
203,1661210105.926,2201.178385988418,8053.341585001312,1000,2.101,-1.527,-3.119,117.7,red,253,TRUE
204,1661210106.028,3944.2302896356873,-2688.5799578988917,1000,5.358,-0.748,-0.104,105.7,yellow,253,TRUE
205,1661210106.12,3104.653274017322,-2577.752903398945,1000,6.094,-0.706,-0.02,133.6,green,253,TRUE
206,1661210106.42,1888.19725472362,7333.941153680765,1000,4.03,-1.341,3.047,117.7,blue,253,TRUE
207,1661210106.522,2215.454915122715,8045.996972030546,1000,2.121,-1.528,-3.121,106.1,red,253,TRUE
208,1661210106.614,3962.344871517151,-2676.5739814350814,1000,5.352,-0.748,-0.105,119.2,yellow,253,TRUE
209,1661210106.704,3089.6236335954836,-2557.2352847601323,1000,6.094,-0.706,-0.02,103.7,green,253,TRUE
210,1661210106.987,1915.996155212326,7340.570866865036,1000,4.056,-1.338,3.036,120.7,blue,253,TRUE
211,1661210107.091,2222.967305744462,8044.5883018743625,1000,2.128,-1.517,-3.122,105.7,red,253,TRUE
212,1661210107.183,3978.841873284398,-2670.0946791928127,1000,5.353,-0.743,-0.101,118.7,yellow,253,TRUE
213,1661210107.273,3103.770124970289,-2565.381029704007,1000,6.093,-0.709,-0.02,103.7,green,253,TRUE
214,1661210107.556,1927.23111085872,7352.3722529764245,1000,4.1,-1.344,2.989,105.7,blue,253,TRUE
215,1661210107.647,2251.789946878967,8028.372157616545,1000,2.137,-1.508,-3.122,103.8,red,253,TRUE
216,1661210107.737,3990.9150550282925,-2665.6898196201987,1000,5.353,-0.74,-0.101,118.5,yellow,253,TRUE
217,1661210111.092,4399.478370829115,-2014.2935141841692,1000,5.353,-0.754,-0.101,1133.3,yellow,253,TRUE
218,1661210112.4,1867.7125809151787,7356.130949522808,1000,3.396,-1.36,2.991,109.5,blue,253,TRUE
219,1661210112.497,2294.180263441075,8058.163658576952,1000,2.177,-1.505,-3.126,117.8,red,253,TRUE
220,1661210112.598,4382.364574877106,-2004.1635518135133,1000,5.354,-0.76,-0.093,105.8,yellow,253,TRUE
221,1661210112.69,3150.9056810022885,-2598.275388201898,1000,6.093,-0.708,-0.021,103.8,green,253,TRUE
222,1661210112.96,1855.9564281296705,7354.058235471617,1000,3.382,-1.354,3.002,118.8,blue,253,TRUE
223,1661210113.062,2361.769768433332,8087.541317215,1000,2.182,-1.502,-3.126,105.7,red,253,TRUE
224,1661210113.154,4416.491827887697,-1988.2594645313554,1000,5.348,-0.752,-0.084,103.9,yellow,253,TRUE
225,1661210113.244,3111.227342422147,-2566.3504078641404,1000,6.093,-0.708,-0.021,103.7,green,253,TRUE
226,1661210113.526,1853.3386072939302,7358.149933361311,1000,3.383,-1.35,3.006,105.7,blue,253,TRUE
227,1661210113.619,2365.098522323815,8098.887533310019,1000,2.188,-1.492,-3.125,102.8,red,253,TRUE
228,1661210113.708,4410.27931652287,-1986.2658986112385,1000,5.352,-0.755,-0.097,103.8,yellow,253,TRUE
229,1661210115.935,1872.6107894637773,7370.193460936417,1000,3.367,-1.349,3.012,120.7,blue,253,TRUE
230,1661210116.033,2381.871140246624,8118.231813981353,1000,2.182,-1.497,-3.123,111.8,red,253,TRUE
231,1661210116.137,4444.164624345936,-2004.99209569777,1000,5.355,-0.765,0.011,97.7,yellow,253,TRUE
232,1661210116.222,3110.5437821459673,-2559.6887476438715,1000,6.098,-0.731,-0.048,102.8,green,253,TRUE
233,1661210116.503,1853.2593452132921,7367.5740284971025,1000,3.364,-1.354,3.013,120.6,blue,253,TRUE
234,1661210116.608,2349.0543582400132,8128.772778095307,1000,2.186,-1.502,-3.123,105.7,red,253,TRUE
235,1661210116.7,4451.473568873681,-2017.9617858908362,1000,5.361,-0.769,0.059,118.7,yellow,253,TRUE
236,1661210116.79,3108.106506136395,-2563.679940541087,1000,6.098,-0.736,-0.094,117.7,green,253,TRUE
237,1661210117.087,1844.3034050794092,7356.363496484439,1000,3.362,-1.357,3.014,105.8,blue,253,TRUE
238,1661210117.179,2338.560537899322,8135.088475444239,1000,2.201,-1.501,-3.125,104.0,red,253,TRUE
239,1661210117.269,4039.839730530006,-2659.5931839594355,1000,5.348,-0.793,0.019,103.7,yellow,253,TRUE
240,1661210117.362,3106.3102420803098,-2555.5407374025053,1000,6.101,-0.725,-0.061,100.8,green,253,TRUE
241,1661210117.628,1956.9769751740696,7367.7513225356515,1000,3.335,-1.354,3.012,103.7,blue,253,TRUE
242,1661210117.718,2302.350502984086,8125.003575251353,1000,2.205,-1.501,-3.123,103.8,red,253,TRUE
243,1661210117.809,4062.452528754673,-2655.088702499135,1000,5.325,-0.778,-0.143,116.9,yellow,253,TRUE
244,1661210117.898,3054.3062839658483,-2516.3469762837494,1000,6.109,-0.713,-0.026,117.7,green,253,TRUE
245,1661210118.197,1987.7648013395847,7416.148399741728,1000,3.387,-1.442,2.875,104.7,blue,253,TRUE
246,1661210118.286,2296.4172757878573,8121.44515699907,1000,2.191,-1.492,-3.121,103.8,red,253,TRUE
247,1661210118.38,4056.01442210097,-2649.832262027444,1000,5.308,-0.778,-0.242,100.1,yellow,253,TRUE
248,1661210118.467,3037.44658499978,-2516.453239870963,1000,6.112,-0.687,0.025,132.7,green,253,TRUE
249,1661210118.765,1979.0937587364087,7428.184778379324,1000,3.33,-1.451,3.088,103.7,blue,253,TRUE
250,1661210118.857,2317.1290555853957,8108.665577330368,1000,2.189,-1.432,0.172,101.7,red,253,TRUE
251,1661210118.946,4068.1629945294285,-2642.8182672800926,1000,5.298,-0.801,-0.173,117.5,yellow,253,TRUE
252,1661210119.047,3048.2122509973638,-2535.264721286276,1000,6.1,-0.661,0.038,105.7,green,253,TRUE
253,1661210119.323,1977.3481397547737,7456.468956882213,1000,3.335,-1.444,2.786,99.8,blue,253,TRUE
254,1661210119.409,2350.097825318581,8121.494039770328,1000,1.754,-1.42,0.143,117.7,red,253,TRUE
255,1661210122.763,2502.0252184956366,7911.630495672781,1000,1.82,-1.32,0.041,1118.4,red,253,TRUE
256,1661210123.873,3102.3503682842434,-2564.396153692484,1000,6.096,-0.693,-0.001,97.8,green,253,TRUE
257,1661210124.153,2220.786638640944,7228.994390614264,1000,0.755,-1.544,-3.138,103.7,blue,253,TRUE
258,1661210124.243,2697.0898912150055,7656.08324790217,1000,1.17,-1.305,0.223,104.2,red,253,TRUE
259,1661210124.338,3928.0141274635466,-2577.5498784754705,1000,4.856,-1.129,0.113,100.2,yellow,253,TRUE
260,1661210124.424,3105.34599946874,-2556.94860816191,1000,6.098,-0.685,0.004,117.5,green,253,TRUE
261,1661210124.723,2439.2000724830946,6980.076936232456,1000,0.6,-1.561,-0.003,103.7,blue,253,TRUE
262,1661210124.814,2912.218391365344,7399.6520425694,1000,1.18,-1.333,0.274,101.4,red,253,TRUE
263,1661210124.903,3913.1921228116366,-2540.64578491027,1000,4.739,-0.978,-0.167,119.7,yellow,253,TRUE
264,1661210125.231,2618.0480537957023,6754.746219392323,1000,0.556,-1.562,0.008,103.8,blue,253,TRUE
265,1661210125.324,3131.9138163571674,7169.614118653852,1000,0.876,-1.337,0.076,101.3,red,253,TRUE
266,1661210125.412,3878.052535805946,-2503.3828283969588,1000,4.744,-0.843,-0.217,117.7,yellow,253,TRUE
267,1661210125.514,3285.275416555673,-2600.925287079861,1000,6.097,-0.689,0.004,120.8,green,253,TRUE
268,1661210125.801,2849.3156313713534,6472.036150298463,1000,0.633,-1.557,0.009,103.7,blue,253,TRUE
269,1661210125.892,3330.936539296115,6918.838169635128,1000,0.95,-1.334,0.019,101.7,red,253,TRUE
270,1661210125.98,3851.33723691151,-2481.5041575469645,1000,4.74,-0.843,-0.144,118.7,yellow,253,TRUE
271,1661210126.083,3287.4088994034782,-2627.5233217599903,1000,6.096,-0.698,0.003,120.7,green,253,TRUE
272,1661210126.357,3130.7068971977374,6192.513547775423,1000,0.651,-1.535,0.022,100.7,blue,253,TRUE
273,1661210126.445,3508.6674111400484,6618.527292845182,1000,1.164,-1.332,0.11,117.7,red,253,TRUE
274,1661210126.547,3818.4906880245326,-2466.9447005568422,1000,4.743,-0.861,-0.1,105.6,yellow,253,TRUE
275,1661210126.638,3258.2341774893007,-2625.7400796168276,1000,6.098,-0.69,0.003,103.6,green,253,TRUE
276,1661210126.908,3344.220543398649,5926.70878128981,1000,0.612,-1.542,0.019,117.7,blue,253,TRUE
277,1661210127.01,3606.8980058197535,6559.561390318665,1000,1.19,-1.333,0.107,120.4,red,253,TRUE
278,1661210127.115,3828.734805805519,-2451.727299182907,1000,4.926,-0.855,-0.185,105.6,yellow,253,TRUE
279,1661210127.206,3270.689267918503,-2615.502330369054,1000,6.098,-0.692,0.0,103.7,green,253,TRUE
280,1661210127.477,3365.5470576502994,5964.166561580107,1000,0.636,-1.538,0.021,117.7,blue,253,TRUE
281,1661210127.578,3659.7327348464682,6578.806855134887,1000,1.144,-1.328,0.099,105.6,red,253,TRUE
282,1661210127.67,3878.6447732862925,-2464.4137678047787,1000,4.824,-0.818,-0.129,104.8,yellow,253,TRUE
283,1661210127.761,3256.6689803633126,-2615.18016448406,1000,6.097,-0.689,0.002,103.8,green,253,TRUE
284,1661210128.043,3353.1269622940968,5995.779804665668,1000,0.62,-1.549,0.014,105.9,blue,253,TRUE
285,1661210128.136,3682.057121732422,6573.811106514426,1000,1.154,-1.395,0.121,102.6,red,253,TRUE
286,1661210128.225,3847.767545036277,-2451.1900094171183,1000,4.829,-0.82,-0.091,104.7,yellow,253,TRUE
287,1661210128.319,3246.6431785164473,-2615.962000611418,1000,6.096,-0.696,0.0,99.6,green,253,TRUE
288,1661210128.612,3390.2629839707492,6021.524027407532,1000,0.756,-1.551,-0.017,105.7,blue,253,TRUE
289,1661210128.703,3734.7962582566247,6510.797790124932,1000,0.819,-1.513,-0.028,103.8,red,253,TRUE
290,1661210128.793,3847.1661199298856,-2448.989041237304,1000,4.836,-0.819,-0.123,103.7,yellow,253,TRUE
291,1661210128.885,3229.6494792977974,-2613.7301502971663,1000,6.096,-0.7,0.003,102.0,green,253,TRUE
292,1661210129.167,3477.3322692705383,6030.128744947451,1000,0.675,-1.511,3.094,103.6,blue,253,TRUE
293,1661210129.257,3769.1495136087833,6557.324502701212,1000,0.651,-1.494,-3.089,103.7,red,253,TRUE
294,1661210129.351,3849.8217766533803,-2441.525355921321,1000,4.839,-0.834,-0.118,99.7,yellow,253,TRUE
295,1661210129.437,3216.4811552316132,-2605.942484624458,1000,6.096,-0.701,0.004,118.7,green,253,TRUE
296,1661210129.721,3531.74006693113,6073.6876308222245,1000,0.335,-1.454,0.115,103.7,blue,253,TRUE
297,1661210129.813,3792.2080278910285,6653.2168722773795,1000,0.675,-1.5,-3.085,101.8,red,253,TRUE
298,1661210129.902,3929.077312622332,-2428.6432090550848,1000,4.842,-0.852,-0.11,87.8,yellow,253,TRUE
299,1661210129.976,3217.3762184073803,-2607.1914529945893,1000,6.096,-0.699,0.004,118.5,green,253,TRUE
300,1661210130.26,3640.7346025036936,6123.372500445974,1000,0.324,-1.479,0.088,103.7,blue,253,TRUE
301,1661210130.353,3819.9358217132044,6704.773281737834,1000,0.654,-1.491,-3.085,99.7,red,253,TRUE
302,1661210130.44,3909.9776058386074,-2419.6604375071984,1000,4.847,-0.832,-0.107,117.7,yellow,253,TRUE
303,1661210130.542,3211.557548787851,-2613.7195011328313,1000,6.096,-0.697,0.004,105.6,green,253,TRUE
304,1661210130.815,3667.413237877057,6122.005317706054,1000,0.357,-1.49,0.077,101.8,blue,253,TRUE
305,1661210130.904,3833.6128240619214,6782.860952047516,1000,0.626,-1.487,-3.083,117.7,red,253,TRUE
306,1661210131.005,3968.1501441926575,-2436.907031660498,1000,4.823,-0.87,-0.107,120.7,yellow,253,TRUE
307,1661210131.11,3233.0836510857075,-2617.2464684566744,1000,6.096,-0.697,0.004,105.7,green,253,TRUE
308,1661210131.386,3783.0096780893764,6103.317398495296,1000,0.351,-1.485,0.074,99.6,blue,253,TRUE
309,1661210131.472,3840.262269961467,6852.1698542836675,1000,0.698,-1.539,-0.01,117.7,red,253,TRUE
310,1661210131.574,3996.416617360455,-2438.6091887822668,1000,4.856,-0.894,0.007,105.8,yellow,253,TRUE
311,1661210131.667,3244.8833622820307,-2617.2983888689546,1000,6.096,-0.693,0.007,102.7,green,253,TRUE
312,1661210131.935,3829.186311766658,6106.20742946813,1000,0.322,-1.48,0.076,103.7,blue,253,TRUE
313,1661210132.026,3788.7834498261705,6871.537564298567,1000,0.837,-1.365,0.019,117.7,red,253,TRUE
314,1661210132.128,3993.9291994419686,-2455.7307006874594,1000,4.957,-0.929,0.487,105.7,yellow,253,TRUE
315,1661210132.22,3265.159069718457,-2625.4520696637933,1000,6.096,-0.693,0.005,104.1,green,253,TRUE
316,1661210132.49,3863.7461648999347,6239.930527546295,1000,0.311,-1.493,0.068,117.5,blue,253,TRUE
317,1661210132.592,3783.052061052922,6804.79754272626,1000,0.966,-1.282,0.043,105.7,red,253,TRUE
318,1661210132.683,3912.7545158293487,-2475.5933008455613,1000,4.973,-1.0,0.973,103.7,yellow,253,TRUE
319,1661210132.773,3060.695840444567,-2507.6619922550594,1000,6.093,-0.69,0.016,88.8,green,253,TRUE
320,1661210133.026,3898.275559343246,6244.039434760038,1000,0.29,-1.492,0.074,120.7,blue,253,TRUE
321,1661210133.13,3799.0773316263826,6690.479385340815,1000,0.96,-1.284,0.051,106.3,red,253,TRUE
322,1661210133.223,3751.919948761148,-2472.6690268322695,1000,4.788,-1.108,0.92,103.7,yellow,253,TRUE
323,1661210133.314,3022.828021431649,-2476.8682944496704,1000,6.093,-0.687,0.021,102.7,green,253,TRUE
324,1661210133.58,3902.625329196821,6277.097091550859,1000,0.298,-1.486,0.082,105.7,blue,253,TRUE
325,1661210133.672,3820.9646365030117,6633.872417938016,1000,0.946,-1.276,0.073,103.7,red,253,TRUE
326,1661210133.762,3634.9746788827256,-2533.7285666881335,1000,4.8,-1.091,0.393,88.8,yellow,253,TRUE
327,1661210133.839,3028.7015246362935,-2473.909329862365,1000,6.096,-0.686,0.014,101.6,green,253,TRUE
328,1661210134.119,3920.703565945769,6258.645808035043,1000,0.3,-1.484,0.081,105.7,blue,253,TRUE
329,1661210134.211,3812.9745198507867,6494.050090784095,1000,0.94,-1.281,0.075,104.0,red,253,TRUE
330,1661210134.301,4055.3920057636665,-2095.3541580873293,1000,4.759,-1.09,0.223,89.0,yellow,253,TRUE
331,1661210134.379,3017.882103482434,-2473.702969356999,1000,6.093,-0.69,0.02,100.7,green,253,TRUE
332,1661210134.66,3886.654682285014,6211.352066551483,1000,0.308,-1.485,0.079,103.7,blue,253,TRUE
333,1661210134.75,3814.1197100075296,6436.672213555145,1000,0.889,-1.282,0.069,103.7,red,253,TRUE
334,1661210134.842,3932.0399492146876,-2155.994146984253,1000,4.746,-1.106,0.252,102.3,yellow,253,TRUE
335,1661210134.93,3021.131116922181,-2472.4322198195373,1000,6.092,-0.692,0.022,118.7,green,253,TRUE
336,1661210135.229,3879.711721685971,6227.247981531179,1000,0.281,-1.481,0.081,103.8,blue,253,TRUE
337,1661210135.321,3788.5918951760846,6470.49880578943,1000,0.797,-1.294,0.014,101.8,red,253,TRUE
338,1661210135.412,3863.7928846650734,-2177.405876517599,1000,4.77,-1.179,0.191,86.3,yellow,253,TRUE
339,1661210135.484,2973.7883241566783,-2454.9078940673694,1000,6.096,-0.55,0.069,119.2,green,253,TRUE
340,1661210135.768,3830.2994733917926,6109.699786412933,1000,0.273,-1.486,0.079,103.7,blue,253,TRUE
341,1661210135.86,3791.9973278122393,6486.685279064801,1000,0.753,-1.295,0.025,117.2,red,253,TRUE
342,1661210139.215,3820.0378395239118,6552.275747593951,1000,0.776,-1.27,0.056,1132.2,red,253,TRUE
343,1661210142.463,3818.7126649567704,6230.827549742312,1000,0.271,-1.48,0.068,1116.8,blue,253,TRUE
344,1661210143.57,3891.728794647606,-2157.78210603081,1000,5.118,-1.125,-0.206,114.7,yellow,253,TRUE
345,1661210145.798,3804.0314648211206,6260.016903390221,1000,0.32,-1.489,0.073,118.6,blue,253,TRUE
346,1661210145.894,3765.5702570286558,6581.31001599201,1000,0.591,-1.514,-0.048,111.7,red,253,TRUE
347,1661210145.996,3966.47008614777,-2182.54365068391,1000,5.112,-1.032,-0.154,98.8,yellow,253,TRUE
348,1661210146.082,3127.7729339837224,-2552.6726027545574,1000,6.081,-0.738,-0.051,102.8,green,253,TRUE
349,1661210146.353,3805.910874019115,6292.484332910172,1000,0.343,-1.496,3.066,100.8,blue,253,TRUE
350,1661210146.441,3724.9375602651,6618.105092892961,1000,0.6,-1.521,-0.041,117.7,red,253,TRUE
351,1661210146.543,4018.5666155120703,-2119.084318354036,1000,5.072,-1.078,-0.128,120.6,yellow,253,TRUE
352,1661210146.644,3111.402522550856,-2562.9150332023714,1000,6.082,-0.74,-0.077,109.7,green,253,TRUE
353,1661210146.92,3842.2085688234224,6412.685429933691,1000,0.348,-1.499,3.07,117.7,blue,253,TRUE
354,1661210147.022,3711.594459743031,6658.5210382867335,1000,0.591,-1.512,-0.04,122.0,red,253,TRUE
355,1661210147.127,3546.513328293573,-2553.528380555521,1000,5.044,-1.035,-0.093,120.7,yellow,253,TRUE
356,1661210147.218,3087.713256233752,-2571.3283250613017,1000,6.085,-0.809,-0.182,118.7,green,253,TRUE
357,1661210147.503,3885.226336159531,6454.098590925437,1000,0.353,-1.497,0.073,119.2,blue,253,TRUE
358,1661210147.606,3836.2091662343155,6655.115180827066,1000,0.616,-1.496,-0.024,105.7,red,253,TRUE
359,1661210147.698,3664.669509247327,-2481.04279022086,1000,5.198,-0.912,-0.052,118.7,yellow,253,TRUE
360,1661210149.927,3895.5719973761866,6519.3037240208605,1000,0.373,-1.492,0.074,104.7,blue,253,TRUE
361,1661210150.022,3868.949950914224,6632.009594601309,1000,0.575,-1.49,-0.025,98.7,red,253,TRUE
362,1661210150.113,3720.7679815082015,-2491.758558704423,1000,5.307,-0.695,-0.105,127.7,yellow,253,TRUE
363,1661210150.214,3087.2426510604114,-2574.26867960197,1000,6.081,-0.711,-0.021,101.8,green,253,TRUE
364,1661210150.482,3904.0829556296558,6441.584119716099,1000,0.371,-1.493,0.073,117.4,blue,253,TRUE
365,1661210150.584,3803.793166538058,6645.91937745138,1000,0.589,-1.518,-0.026,105.7,red,253,TRUE
366,1661210150.675,3769.1839479747873,-2486.6281581374346,1000,5.186,-0.866,-0.199,103.5,yellow,253,TRUE
367,1661210150.765,3087.2204079561184,-2579.0817072566556,1000,6.067,-0.7,-0.023,103.4,green,253,TRUE
368,1661210151.047,3896.931468994901,6387.658071420982,1000,0.447,-1.484,0.082,121.6,blue,253,TRUE
369,1661210151.147,3800.2861164455294,6622.939139940395,1000,0.564,-1.5,-0.048,110.7,red,253,TRUE
370,1661210151.243,3754.1439460577117,-2471.9779816268615,1000,5.228,-0.969,-0.161,118.7,yellow,253,TRUE
371,1661210151.335,3089.158777949237,-2572.6618077864387,1000,6.063,-0.711,-0.033,146.8,green,253,TRUE
372,1661210151.649,3935.6735667557446,6406.8635125288865,1000,0.477,-1.479,0.082,103.0,blue,253,TRUE
373,1661210151.739,3802.203478085101,6646.485774476205,1000,0.573,-1.509,-0.045,103.0,red,253,TRUE
374,1661210151.83,3777.3241661487377,-2470.545611575358,1000,5.199,-0.958,-0.101,116.9,yellow,253,TRUE
375,1661210151.919,3105.0012831662825,-2568.535039528541,1000,6.06,-0.71,-0.039,132.9,green,253,TRUE
376,1661210152.232,3960.5628080428073,6347.668478424191,1000,0.454,-1.484,0.082,104.0,blue,253,TRUE
377,1661210152.322,3773.2653734268556,6598.5465915029135,1000,0.588,-1.514,-0.043,103.7,red,253,TRUE
378,1661210152.416,3785.0109510985626,-2462.0774641727007,1000,5.211,-0.927,-0.112,99.8,yellow,253,TRUE
379,1661210152.503,3168.079219254438,-2597.9663141350197,1000,6.056,-0.709,-0.026,118.2,green,253,TRUE
380,1661210152.787,3953.608623861111,6347.717186730343,1000,0.459,-1.49,0.077,103.7,blue,253,TRUE
381,1661210152.879,3659.194964225527,6614.320155560076,1000,0.583,-1.517,-0.041,101.7,red,253,TRUE
382,1661210152.967,3766.8932890218366,-2472.557027173987,1000,5.211,-0.924,-0.117,117.7,yellow,253,TRUE
383,1661210153.069,3145.744634639396,-2570.879270326405,1000,6.056,-0.722,-0.027,106.9,green,253,TRUE
384,1661210153.346,4003.454346088014,6385.189175333336,1000,0.455,-1.489,0.077,99.7,blue,253,TRUE
385,1661210153.433,3600.3327589896785,6652.6395598967165,1000,0.592,-1.516,-0.039,117.7,red,253,TRUE
386,1661210153.534,3782.2994854926965,-2417.1999357801346,1000,5.205,-0.92,-0.124,120.7,yellow,253,TRUE
387,1661210153.639,3156.730912568539,-2573.9072258337815,1000,6.056,-0.712,-0.027,105.7,green,253,TRUE
388,1661210153.896,3983.76541531049,6329.880082411303,1000,0.457,-1.489,0.077,103.7,blue,253,TRUE
389,1661210153.986,3612.000714264444,6631.392835404172,1000,0.609,-1.518,-0.039,102.7,red,253,TRUE
390,1661210154.076,3735.458826148031,-2403.658459376822,1000,5.16,-0.902,-0.13,102.7,yellow,253,TRUE
391,1661210154.165,3150.4539427430386,-2571.3268320381094,1000,6.056,-0.712,-0.027,102.7,green,253,TRUE
392,1661210154.435,4015.789647096444,6382.973545865453,1000,0.46,-1.489,0.077,117.7,blue,253,TRUE
393,1661210154.536,3620.6623537608957,6650.977423738018,1000,0.621,-1.523,-0.04,121.6,red,253,TRUE
394,1661210154.641,3752.2096280476403,-2412.671428854344,1000,5.135,-0.858,-0.127,105.7,yellow,253,TRUE
395,1661210154.734,3193.437763779788,-2599.9215822472893,1000,6.056,-0.712,-0.027,102.7,green,253,TRUE
396,1661210155.002,4000.339684300559,6441.054453571556,1000,0.461,-1.488,0.077,118.7,blue,253,TRUE
397,1661210155.105,3622.0015218078115,6628.90780543396,1000,0.616,-1.521,-0.04,105.7,red,253,TRUE
398,1661210155.197,3759.888358573122,-2424.754944459621,1000,5.119,-0.843,-0.129,103.7,yellow,253,TRUE
399,1661210155.287,3199.7832422159877,-2603.4365931435746,1000,6.057,-0.716,-0.024,118.6,green,253,TRUE
400,1661210155.584,3968.889965479432,6428.13618990684,1000,0.46,-1.49,0.077,105.7,blue,253,TRUE
401,1661210155.676,3636.810008379278,6619.581664300498,1000,0.616,-1.516,-0.041,103.4,red,253,TRUE
402,1661210155.766,3801.061674089198,-2433.383345301268,1000,5.116,-0.838,-0.139,103.4,yellow,253,TRUE
403,1661210155.857,3169.3072201620744,-2569.2077470162953,1000,6.064,-0.705,0.008,132.1,green,253,TRUE
404,1661210156.171,3954.397651843463,6314.280274806263,1000,0.459,-1.49,0.076,102.8,blue,253,TRUE
405,1661210156.261,3646.1470005134966,6555.815042339605,1000,0.611,-1.514,-0.041,103.1,red,253,TRUE
406,1661210156.354,3790.251958403611,-2432.826170901596,1000,5.118,-0.833,-0.134,115.5,yellow,253,TRUE
407,1661210156.441,3200.6905420541134,-2599.0575561703654,1000,6.069,-0.688,0.017,118.1,green,253,TRUE
408,1661210156.725,3893.4876271307153,6200.583935760808,1000,0.454,-1.487,0.075,103.5,blue,253,TRUE
409,1661210156.814,3654.981980509197,6553.212436447913,1000,0.625,-1.517,-0.041,103.9,red,253,TRUE
410,1661210156.906,3798.984677662896,-2450.676871275382,1000,5.129,-0.845,-0.123,117.2,yellow,253,TRUE
411,1661210159.148,3817.665156094447,6019.123257461153,1000,2.343,-1.477,-3.081,104.7,blue,253,TRUE
412,1661210159.244,3607.7480227617198,6406.454173332233,1000,1.897,-1.391,1.004,97.7,red,253,TRUE
413,1661210159.334,3848.0576291702696,-2467.4295978810187,1000,5.166,-0.833,-0.113,97.7,yellow,253,TRUE
414,1661210159.423,3149.9047655269846,-2566.1524192806733,1000,6.054,-0.707,0.0,113.7,green,253,TRUE
415,1661210159.717,3728.4462192572278,5648.362286169427,1000,2.537,-1.516,3.099,103.8,blue,253,TRUE
416,1661210159.807,3520.4637765097814,6173.156548420237,1000,2.639,-1.331,0.156,103.7,red,253,TRUE
417,1661210159.899,3854.8349691815843,-2462.823486800707,1000,5.183,-0.84,-0.117,118.2,yellow,253,TRUE
418,1661210162.141,3725.1642335472266,4899.809839448613,1000,2.393,-1.5,-0.068,104.7,blue,253,TRUE
419,1661210162.237,3554.155086532306,5632.5193861211155,1000,2.315,-1.2,0.065,97.7,red,253,TRUE
420,1661210162.327,3875.155896162869,-2456.419461149988,1000,5.133,-0.792,-0.135,113.7,yellow,253,TRUE
421,1661210162.416,3100.0464722602487,-2541.1343541006695,1000,6.046,-0.752,-0.051,128.7,green,253,TRUE
422,1661210162.725,3794.3923913267477,4167.3453278361785,1000,1.68,-1.535,3.138,118.7,blue,253,TRUE
423,1661210162.815,3643.424862861648,4980.561009786484,1000,1.944,-1.268,0.239,103.7,red,253,TRUE
424,1661210162.907,3863.5042475001173,-2453.606512231168,1000,5.129,-0.79,-0.139,101.7,yellow,253,TRUE
425,1661210165.135,3808.6843761838804,3471.1011507006933,1000,1.058,-1.533,-3.109,104.7,blue,253,TRUE
426,1661210165.23,3745.164339087942,4428.83969733969,1000,1.022,-1.52,-3.095,98.8,red,253,TRUE
427,1661210165.321,3898.4944408689576,-2457.8817750753515,1000,5.156,-0.785,-0.147,157.6,yellow,253,TRUE
428,1661210168.702,3878.096786038715,-2441.2788061754645,1000,5.183,-0.794,-0.12,1118.6,yellow,253,TRUE
429,1661210170.007,3939.6446485200154,2788.0989674832545,1000,1.062,-1.528,-3.1,112.7,blue,253,TRUE
430,1661210170.107,3830.69735512065,3803.8207661747215,1000,1.082,-1.497,-0.021,117.4,red,253,TRUE
431,1661210173.509,3907.872836001407,3293.0944473561285,1000,1.047,-1.472,-0.014,1131.3,red,253,TRUE
432,1661210174.63,3031.565908779908,-2509.7569832368777,1000,6.049,-0.731,-0.059,99.7,green,253,TRUE
433,1661210174.913,3997.4046471087427,2279.371482347811,1000,1.067,-1.526,-3.098,100.7,blue,253,TRUE
434,1661210175.0,4057.9561051244054,2917.2394423527835,1000,1.041,-1.465,-0.011,134.3,red,253,TRUE
435,1661210178.386,4074.5671807956846,2850.516498807689,1000,1.023,-1.493,-0.028,114.7,red,253,TRUE
436,1661210178.479,3850.271365925753,-2474.507423939817,1000,5.171,-0.801,-0.158,110.7,yellow,253,TRUE
437,1661210180.699,3980.312072252942,1906.4170278445251,1000,1.07,-1.526,-3.098,92.7,blue,253,TRUE
438,1661210180.781,4062.5813839680263,2888.679382898255,1000,1.092,-1.333,0.07,113.7,red,253,TRUE
439,1661210180.873,3763.2006558017806,-2476.529875221063,1000,5.478,-1.429,0.687,111.4,yellow,253,TRUE
440,1661210183.078,3955.9880164669557,1796.199063880815,1000,1.069,-1.525,-3.096,106.7,blue,253,TRUE
441,1661210183.175,4009.6556930847705,2834.0453905698755,1000,1.167,-1.445,-0.145,98.7,red,253,TRUE
442,1661210183.266,3766.575641648468,-2515.0367618135783,1000,5.335,-1.262,0.167,112.4,yellow,253,TRUE
443,1661210186.541,3958.2114540118823,2849.196607895022,1000,1.156,-1.425,-0.256,1131.6,red,253,TRUE
444,1661210189.8,3842.9831693852284,1859.7360070941584,1000,6.18,-1.44,-2.255,115.7,blue,253,TRUE
445,1661210189.895,3955.3419950480693,2822.6703629671465,1000,3.046,-1.206,0.348,110.7,red,253,TRUE
446,1661210189.997,3831.7306527457963,-2514.8571407606564,1000,5.359,-1.247,0.214,113.0,yellow,253,TRUE
447,1661210195.561,3774.6832254080437,2619.9864784279257,1000,6.096,-1.452,3.043,1117.9,blue,253,TRUE
448,1661210196.67,4232.581123054693,-2231.884992996985,1000,5.367,-1.25,0.166,113.7,yellow,253,TRUE
449,1661210198.898,3652.055920160386,3262.826828035281,1000,6.024,-1.481,3.086,101.8,blue,253,TRUE
450,1661210198.991,3929.552474237918,3431.2363276865267,1000,0.184,-1.257,0.016,97.8,red,253,TRUE
451,1661210199.081,4247.794615831123,-2280.4815110367176,1000,5.387,-1.257,0.177,127.7,yellow,253,TRUE
452,1661210204.691,3287.1114503049303,3973.6477644319225,1000,4.949,-1.529,3.127,1132.0,blue,253,TRUE
453,1661210209.093,3725.3764435196495,4015.577741092596,1000,1.585,-1.321,0.128,113.7,red,253,TRUE
454,1661210212.492,3439.9804121295197,4335.507423538876,1000,3.341,-1.201,0.28,1160.2,red,253,TRUE
455,1661210213.834,3143.6132493736204,4400.923647951892,1000,4.175,-1.466,3.057,103.2,blue,253,TRUE
456,1661210213.925,3149.8875472445548,4664.40453172545,1000,3.584,-1.321,0.132,102.0,red,253,TRUE
457,1661210214.014,4248.45755475486,-2249.359537627947,1000,5.12,-1.089,-0.338,102.8,yellow,253,TRUE
458,1661210214.312,2893.699106982867,4889.661062021888,1000,4.141,-1.448,2.404,103.9,blue,253,TRUE
459,1661210214.406,2889.588685630368,4957.8678287174835,1000,3.675,-1.3,0.298,99.8,red,253,TRUE
460,1661210214.493,4266.550536094389,-2238.8357176913164,1000,5.124,-1.161,-0.35,90.8,yellow,253,TRUE
461,1661210214.776,2662.0913475704433,5323.936178628662,1000,4.201,-1.45,2.34,103.8,blue,253,TRUE
462,1661210214.868,2647.713162331223,5345.014018071157,1000,3.642,-1.305,0.334,101.7,red,253,TRUE
463,1661210214.956,4222.244149333251,-2196.308573529163,1000,5.06,-1.044,-0.274,162.9,yellow,253,TRUE
464,1661210215.315,2455.4536228674524,5031.791792538747,1000,4.278,-1.462,3.053,103.8,blue,253,TRUE
465,1661210215.409,2401.7531774512213,4998.34051084859,1000,3.623,-1.311,0.326,115.1,red,253,TRUE
466,1661210218.836,2478.8951116091753,4807.297045519052,1000,3.726,-1.288,0.268,1132.2,red,253,TRUE
467,1661210222.083,2196.5139065776725,4825.807573986101,1000,4.313,-1.452,3.057,99.7,blue,253,TRUE
468,1661210222.174,2473.7926333087485,4797.906886295784,1000,3.692,-1.354,0.66,128.7,red,253,TRUE
469,1661210225.601,2286.847392654489,4695.711963128802,1000,2.177,-1.326,0.363,1131.3,red,253,TRUE
470,1661210228.851,2388.8049778872282,4286.337348943373,1000,3.808,-1.476,3.109,114.6,blue,253,TRUE
471,1661210228.944,2088.7046772157587,4593.989550170729,1000,2.845,-1.322,0.411,126.7,red,253,TRUE
472,1661210232.369,2019.1419788918984,4443.344740628293,1000,1.028,-1.3,0.355,1178.1,red,253,TRUE
473,1661210233.759,2326.6909218645073,3902.0527558478084,1000,6.102,-1.239,2.776,102.6,blue,253,TRUE
474,1661210233.848,2126.5807010225,4318.730631107975,1000,1.55,-1.244,-0.073,104.0,red,253,TRUE
475,1661210233.939,4069.809679263404,-2213.213133247548,1000,5.376,-1.292,0.164,90.8,yellow,253,TRUE
476,1661210234.238,2377.0303565838294,3595.5169806305116,1000,0.087,-1.296,2.557,102.7,blue,253,TRUE
477,1661210234.327,2108.004223023819,4063.924273252383,1000,2.332,-1.275,0.094,103.8,red,253,TRUE
478,1661210234.419,3584.247757828339,-2524.3261738040123,1000,5.379,-1.311,0.182,91.8,yellow,253,TRUE
479,1661210234.71,2441.457137719616,3289.0985061045653,1000,0.399,-1.352,2.265,109.7,blue,253,TRUE
480,1661210234.805,2159.3506918305698,3836.4660250943493,1000,3.149,-1.329,0.373,118.7,red,253,TRUE
481,1661210236.113,2487.304282978891,2975.0910456159086,1000,6.213,-1.444,-3.025,98.6,blue,253,TRUE
482,1661210236.198,2461.671345481325,3797.8074303086337,1000,3.359,-1.294,-0.031,118.9,red,253,TRUE
483,1661210237.505,2535.5595870261027,2629.8971403858773,1000,0.115,-1.491,3.131,112.7,blue,253,TRUE
484,1661210237.604,2795.430663221541,3712.970023563685,1000,2.214,-1.329,0.32,117.7,red,253,TRUE
485,1661210237.706,3534.2646318362968,-2506.8737750845203,1000,5.34,-1.294,0.255,92.7,yellow,253,TRUE
486,1661210237.977,2540.292182584482,2555.252379503059,1000,0.532,-1.502,-3.085,119.2,blue,253,TRUE
487,1661210238.08,2958.860134796492,3572.9282538160737,1000,2.574,-1.369,-0.156,121.3,red,253,TRUE
488,1661210238.185,3560.3347904159477,-2588.2824743088745,1000,5.303,-1.316,0.297,78.8,yellow,253,TRUE
489,1661210238.442,2649.4217679512913,2557.4194670465135,1000,0.579,-1.556,-0.014,103.7,blue,253,TRUE
490,1661210238.533,2938.8125718875485,3431.843984144754,1000,2.867,-1.331,-0.1,117.7,red,253,TRUE
491,1661210239.838,2727.995923211462,2481.09051113025,1000,6.233,-1.467,-3.047,100.4,blue,253,TRUE
492,1661210239.926,2643.165096063433,3160.6322313674377,1000,3.994,-1.318,-0.037,116.8,red,253,TRUE
493,1661210241.23,2796.72568770219,2604.7749143863275,1000,5.738,-1.527,3.123,99.7,blue,253,TRUE
494,1661210241.317,2273.260974398929,2952.093871684374,1000,3.987,-1.301,-0.116,102.5,red,253,TRUE
495,1661210241.408,3597.8037199779496,-2610.08628945808,1000,5.258,-1.49,0.002,75.8,yellow,253,TRUE
496,1661210241.675,2819.9031106043585,2724.7998700674307,1000,5.498,-1.561,-3.138,103.7,blue,253,TRUE
497,1661210241.765,1866.463006978328,2680.200985408276,1000,3.925,-1.401,-0.221,103.7,red,253,TRUE
498,1661210241.854,3611.9551583996104,-2634.636731527703,1000,5.244,-1.428,0.082,92.8,yellow,253,TRUE
499,1661210242.152,2845.579818621171,2954.0976410095354,1000,4.76,-1.461,3.081,105.7,blue,253,TRUE
500,1661210242.243,1431.0999497588393,2472.486387175664,1000,3.85,-1.364,-0.305,103.4,red,253,TRUE
501,1661210242.333,3627.6207325797354,-2632.5588355452005,1000,5.265,-1.469,0.011,148.6,yellow,253,TRUE
502,1661210242.675,2793.9668657785865,3255.7908140775326,1000,4.551,-1.492,3.095,105.7,blue,253,TRUE
503,1661210242.767,1028.9292305675222,2301.174889842811,1000,3.888,-1.31,-0.18,103.7,red,253,TRUE
504,1661210242.856,3625.7880839730465,-2631.2409284879545,1000,5.284,-1.479,0.012,92.7,yellow,253,TRUE
505,1661210243.154,2691.652578442498,3534.5406969654928,1000,4.28,-1.497,3.126,105.7,blue,253,TRUE
506,1661210243.245,587.2263199048872,2151.432736986035,1000,4.312,-1.305,0.189,119.2,red,253,TRUE
507,1661210244.552,2031.624795832411,3683.8494965524337,1000,3.906,-1.453,3.052,100.7,blue,253,TRUE
508,1661210244.638,587.435992349913,2218.4866760423215,1000,5.608,-1.294,0.079,102.7,red,253,TRUE
509,1661210244.727,3636.2297355620813,-2626.6302661501995,1000,5.255,-1.451,0.142,90.8,yellow,253,TRUE
510,1661210245.009,1702.0491352742772,3724.9633756562293,1000,3.865,-1.433,2.537,120.7,blue,253,TRUE
511,1661210245.114,725.0135792800344,2294.83134920433,1000,5.571,-1.256,0.059,120.6,red,253,TRUE
512,1661210246.423,1401.700601272766,3818.854453607466,1000,3.48,-1.476,3.135,98.5,blue,253,TRUE
513,1661210246.511,805.4151826314255,2397.7476210311765,1000,4.451,-1.337,-0.115,115.4,red,253,TRUE
514,1661210247.829,1265.322616397674,3807.976056781906,1000,2.978,-1.121,2.527,98.7,blue,253,TRUE
515,1661210247.915,868.9157369219424,2514.1152913274796,1000,4.72,-1.426,-1.973,116.7,red,253,TRUE
516,1661210249.22,1184.327492479876,3702.0727770474246,1000,3.103,-1.236,2.316,114.8,blue,253,TRUE
517,1661210249.322,946.1597026006012,2633.3039076068894,1000,4.528,-1.258,0.24,117.3,red,253,TRUE
518,1661210250.628,990.8291561296777,3634.5022193609825,1000,3.608,-1.526,-3.105,99.0,blue,253,TRUE
519,1661210250.714,996.4081024473131,2766.2022297640456,1000,4.215,-1.366,0.218,102.7,red,253,TRUE
520,1661210250.803,3542.946010553595,-2575.709276718576,1000,5.303,-1.403,0.035,90.7,yellow,253,TRUE
521,1661210251.087,1432.0431133278992,3803.231837071589,1000,3.691,-1.496,-3.094,119.7,blue,253,TRUE
522,1661210251.189,829.2872144005606,2774.5213841975037,1000,4.194,-1.382,0.61,121.8,red,253,TRUE
523,1661210252.498,1409.0734096189287,3785.2511132995137,1000,2.797,-1.518,-3.09,98.7,blue,253,TRUE
524,1661210252.585,773.5924131496816,2883.7189435278815,1000,5.22,-1.325,0.333,115.7,red,253,TRUE
525,1661210253.89,1380.547093481592,3773.6542324916136,1000,2.797,-1.512,-3.108,98.7,blue,253,TRUE
526,1661210253.977,811.2895522453283,2903.6744141792915,1000,4.998,-1.382,0.792,116.7,red,253,TRUE
527,1661210255.282,1251.092403071673,3732.123114100057,1000,3.064,-1.482,3.07,98.8,blue,253,TRUE
528,1661210255.369,824.922840784035,2943.899365308662,1000,4.851,-1.371,0.935,116.6,red,253,TRUE
529,1661210256.673,1078.2771849312062,3720.684601164723,1000,2.723,-1.398,2.697,98.7,blue,253,TRUE
530,1661210256.759,877.8027089109263,3006.8550085375246,1000,4.771,-1.397,1.12,118.7,red,253,TRUE
531,1661210258.065,1050.8678817308783,3671.8182197201622,1000,2.699,-1.396,2.702,98.5,blue,253,TRUE
532,1661210258.151,930.1888440192384,2998.5068038451277,1000,4.319,-1.275,0.188,117.7,red,253,TRUE
533,1661210259.456,891.5538258584952,3561.791640474321,1000,2.688,-1.402,2.719,98.8,blue,253,TRUE
534,1661210259.544,1097.059882604451,3070.817456944036,1000,5.529,-1.196,0.285,116.9,red,253,TRUE
535,1661210260.849,970.3738515881514,3555.6540777985906,1000,2.387,-1.52,3.11,98.8,blue,253,TRUE
536,1661210260.937,1099.0114639581643,2968.9823972175163,1000,4.621,-1.406,0.273,100.7,red,253,TRUE
537,1661210261.025,3514.7069715153425,-2584.885332700833,1000,5.272,-1.397,0.068,88.2,yellow,253,TRUE
538,1661210261.325,975.4692898970192,3525.8982761399807,1000,2.938,-1.512,-3.141,102.7,blue,253,TRUE
539,1661210261.416,1004.1071636006809,2955.3744628443383,1000,4.86,-1.261,0.268,101.7,red,253,TRUE
540,1661210261.504,3518.4869546012,-2622.1717125983314,1000,5.259,-1.377,0.062,75.8,yellow,253,TRUE
541,1661210261.774,1008.9099632730316,3615.477592948658,1000,2.423,-1.424,-2.486,102.4,blue,253,TRUE
542,1661210261.863,975.0695971098443,2909.7796235990013,1000,5.093,-1.311,0.386,102.7,red,253,TRUE
543,1661210261.954,3552.271071625577,-2661.1178262324433,1000,5.259,-1.38,0.075,102.0,yellow,253,TRUE
544,1661210262.267,1190.71328343389,3640.4093368852114,1000,1.493,-1.472,-3.065,103.8,blue,253,TRUE
545,1661210262.357,933.802991389799,2884.5481085622123,1000,4.884,-1.409,0.553,117.7,red,253,TRUE
546,1661210263.663,1478.3011639135566,3735.174770508806,1000,0.81,-1.417,-2.188,99.7,blue,253,TRUE
547,1661210263.749,963.8723132227686,2968.3786052137634,1000,4.674,-1.397,1.072,118.3,red,253,TRUE
548,1661210265.056,1823.1418264270997,3853.5788922731067,1000,1.412,-1.491,3.064,99.0,blue,253,TRUE
549,1661210265.142,905.58695814241,2988.9374266178943,1000,4.597,-1.392,1.059,103.7,red,253,TRUE
550,1661210265.236,3560.46269069327,-2662.730363029265,1000,5.268,-1.407,0.097,100.8,yellow,253,TRUE
551,1661210265.516,2074.155674822476,3916.4450821142123,1000,1.481,-1.528,3.137,102.8,blue,253,TRUE
552,1661210265.607,916.052093495243,3067.36959617365,1000,4.631,-1.383,0.969,116.7,red,253,TRUE
553,1661210266.912,2692.3180256839373,3853.0752489378087,1000,1.371,-1.561,3.139,100.0,blue,253,TRUE
554,1661210267.001,991.4364008010263,3085.763524664464,1000,5.142,-1.244,0.427,115.7,red,253,TRUE
555,1661210268.307,3300.6565123362075,3606.5004273203244,1000,1.852,-1.449,-2.363,98.7,blue,253,TRUE
556,1661210268.393,1019.3989704540826,3102.57970047832,1000,4.599,-1.448,1.145,117.7,red,253,TRUE
557,1661210269.699,3799.9636628165795,3419.293548805899,1000,2.016,-1.416,-2.383,113.7,blue,253,TRUE
558,1661210269.8,898.712360780472,3157.745074412928,1000,4.518,-1.265,0.039,117.7,red,253,TRUE
559,1661210271.108,4319.777988253562,3170.778947337218,1000,1.722,-1.506,-3.114,100.0,blue,253,TRUE
560,1661210271.194,819.4196518963654,3121.340081106357,1000,4.68,-1.307,0.113,102.7,red,253,TRUE
561,1661210271.282,3523.0989379914913,-2663.3546154245246,1000,5.273,-1.409,0.104,90.8,yellow,253,TRUE
562,1661210271.567,4782.9373947651975,2827.8832051014215,1000,2.195,-1.402,-2.841,103.5,blue,253,TRUE
563,1661210271.658,754.0150914542373,3090.9239325715084,1000,4.752,-1.309,0.099,101.8,red,253,TRUE
564,1661210271.747,3529.042702487251,-2659.2552453307726,1000,5.272,-1.396,0.091,89.8,yellow,253,TRUE
565,1661210272.014,5269.299799199946,2547.491021915753,1000,2.618,-1.298,2.789,120.7,blue,253,TRUE
566,1661210272.119,702.7081973001422,3072.366382125396,1000,4.967,-1.407,0.272,120.7,red,253,TRUE
567,1661210272.224,3502.338061449204,-2659.0396724727107,1000,5.273,-1.397,0.116,150.6,yellow,253,TRUE
568,1661210272.555,5529.669249964572,2376.6648817547266,1000,2.669,-1.274,2.686,103.7,blue,253,TRUE
569,1661210272.647,672.3771515952558,3072.1908697956333,1000,4.924,-1.322,0.519,116.7,red,253,TRUE
570,1661210273.953,5656.128378668712,2340.26302655218,1000,2.702,-1.316,2.526,112.7,blue,253,TRUE
571,1661210274.053,697.484813127669,3074.807349125178,1000,4.872,-1.117,0.408,133.2,red,253,TRUE
572,1661210275.374,5766.2409318094,2269.1559934653537,1000,2.736,-1.341,2.503,99.8,blue,253,TRUE
573,1661210275.463,783.3700765566718,2987.6024297223234,1000,4.577,-1.208,0.135,115.8,red,253,TRUE
574,1661210276.766,5801.849299562332,2205.0581732968253,1000,2.774,-1.329,2.446,98.8,blue,253,TRUE
575,1661210276.853,746.7347555785501,2988.630795783054,1000,4.598,-1.25,-0.143,117.7,red,253,TRUE
576,1661210278.143,5799.05915417098,2222.914999141898,1000,2.836,-1.32,2.425,99.9,blue,253,TRUE
577,1661210278.23,870.0109955518677,2979.8760618867,1000,5.781,-1.357,0.097,117.5,red,253,TRUE
578,1661210279.522,5721.104558637945,2203.4835493038504,1000,2.838,-1.324,2.401,98.7,blue,253,TRUE
579,1661210279.61,1208.3408944428,3006.183038176716,1000,6.14,-1.164,0.348,116.7,red,253,TRUE
580,1661210280.914,5739.61486018906,2194.3659898539768,1000,2.858,-1.337,2.225,98.8,blue,253,TRUE
581,1661210281.002,1265.994902361613,2801.6750882647716,1000,3.723,-1.257,0.29,115.7,red,253,TRUE
582,1661210282.306,5682.323929228435,2175.6616392348437,1000,2.789,-1.512,-3.109,98.8,blue,253,TRUE
583,1661210282.392,1158.6631390034363,2639.499342772998,1000,3.911,-1.331,0.101,102.7,red,253,TRUE
584,1661210282.482,3953.674763773052,-2244.0119383573556,1000,5.342,-1.449,0.303,73.8,yellow,253,TRUE
585,1661210282.751,5697.1724381719805,2232.419183942848,1000,2.512,-1.434,2.776,102.7,blue,253,TRUE
586,1661210282.84,1123.9620035456703,2497.403336714944,1000,3.914,-1.388,-0.233,104.7,red,253,TRUE
587,1661210282.932,4388.8917720749305,-1853.1590082153027,1000,5.333,-1.441,0.283,73.8,yellow,253,TRUE
588,1661210283.227,5688.241282191239,2242.691948293524,1000,1.987,-1.496,3.138,105.4,blue,253,TRUE
589,1661210283.318,1159.533424403495,2312.523176081548,1000,3.94,-1.361,-0.184,118.6,red,253,TRUE
590,1661210284.653,6195.621886326219,3382.771964016565,1000,0.376,-1.48,3.101,1089.3,blue,253,TRUE
591,1661210285.726,4415.706572854834,-1840.4842078484987,1000,5.294,-1.401,0.19,135.7,yellow,253,TRUE
592,1661210286.042,6464.917933385286,3487.455813430656,1000,1.046,-1.484,3.079,119.1,blue,253,TRUE
593,1661210286.145,990.576675602928,2103.964591559891,1000,3.951,-1.333,-0.191,120.7,red,253,TRUE
594,1661210286.25,4866.660580034815,-1514.7239032162163,1000,5.282,-1.352,0.176,78.3,yellow,253,TRUE
595,1661210286.493,6494.258537147242,3547.927115721808,1000,0.946,-1.456,3.087,103.6,blue,253,TRUE
596,1661210286.582,586.5867242309934,1852.7712726947357,1000,3.949,-1.337,-0.197,103.7,red,253,TRUE
