,timestamp,x,y,z,yaw,roll,pitch,latency,student,session,success
0,1661220230.86,1177.9687654581169,-856.5085580528784,1000,5.715,-1.412,-1.64,129.7,red,255,TRUE
1,1661220230.969,2984.137978845007,-1926.1020465254858,1000,5.077,-1.266,0.111,111.2,yellow,255,TRUE
2,1661220232.262,1525.6602832573083,-88.85429910423588,1000,6.021,-1.525,0.0,104.7,blue,255,TRUE
3,1661220232.356,1422.8441384289515,-412.2488563617365,1000,5.586,-1.466,-0.079,100.0,red,255,TRUE
4,1661220232.443,3178.219816527223,-2128.3120958978125,1000,5.082,-1.27,0.134,87.8,yellow,255,TRUE
5,1661220233.713,2143.973838779195,376.5295873966102,1000,6.22,-1.386,0.422,104.7,blue,255,TRUE
6,1661220233.809,1639.9808247602045,98.30398607955617,1000,5.247,-1.425,-0.427,113.9,red,255,TRUE
7,1661220236.176,1875.720932573099,738.2525661623043,1000,5.177,-1.517,-3.103,113.7,red,255,TRUE
8,1661220237.535,2625.160934827252,1436.9605543951723,1000,4.52,-1.362,-0.254,101.2,blue,255,TRUE
9,1661220237.625,2196.4245691049045,1768.9659583171826,1000,4.213,-1.418,-1.259,116.0,red,255,TRUE
10,1661220239.945,2708.9149264517146,2503.2012282262126,1000,2.09,-1.445,-1.745,114.7,red,255,TRUE
11,1661220242.308,2802.554500142502,2967.044535778734,1000,3.207,-1.373,-1.458,115.7,red,255,TRUE
12,1661220244.66,2743.6292775598304,3226.042906552784,1000,2.953,-1.389,-1.444,112.7,red,255,TRUE
13,1661220246.029,2360.56029974312,1532.1734247975917,1000,3.266,-1.426,-0.617,104.7,blue,255,TRUE
14,1661220246.123,2630.5681633910203,3292.812239918471,1000,2.795,-1.383,-1.348,115.7,red,255,TRUE
15,1661220247.484,2179.126850025718,1529.0661851754808,1000,3.605,-1.469,0.044,101.0,blue,255,TRUE
16,1661220247.574,2466.2452237066004,3047.890826667035,1000,2.459,-1.394,-1.562,115.7,red,255,TRUE
17,1661220248.935,2163.8293780296735,1600.0358266186474,1000,1.963,-1.486,0.022,101.7,blue,255,TRUE
18,1661220249.024,2290.4030537447065,2639.912699493305,1000,2.302,-1.374,-1.536,117.6,red,255,TRUE
19,1661220250.387,2287.6064399380543,1961.7796863099086,1000,0.046,-1.478,-0.058,100.7,blue,255,TRUE
20,1661220250.476,2026.329784103591,2549.3737399193906,1000,0.353,-1.338,-1.382,116.7,red,255,TRUE
21,1661220251.838,2283.93397757314,2235.6064752301063,1000,5.932,-1.461,0.015,100.8,blue,255,TRUE
22,1661220251.926,2027.6349238196483,2653.6081458073904,1000,5.955,-1.497,-3.069,118.1,red,255,TRUE
23,1661220253.291,2185.8615262446497,2211.517404495584,1000,4.916,-1.461,-0.015,100.4,blue,255,TRUE
24,1661220253.378,2149.1258736730656,2774.7129818715025,1000,5.657,-1.434,-1.713,117.7,red,255,TRUE
25,1661220254.744,2399.1688838796513,2418.4253280680323,1000,4.356,-1.438,0.231,99.8,blue,255,TRUE
26,1661220254.831,2258.086698763956,2861.835103907537,1000,4.993,-1.429,-1.571,118.7,red,255,TRUE
27,1661220256.197,2649.0867080855583,2716.93042039811,1000,4.058,-1.443,-0.105,114.2,blue,255,TRUE
28,1661220256.298,2301.9754314785523,2951.8601452815547,1000,5.212,-1.437,-1.27,133.6,red,255,TRUE
29,1661220257.678,2794.370778550343,2927.6569861779008,1000,3.979,-1.44,-0.046,98.8,blue,255,TRUE
30,1661220257.765,2367.24351178445,3047.9538348132955,1000,5.293,-1.449,-1.002,101.9,red,255,TRUE
31,1661220257.854,3205.078445642492,-2187.9940051675444,1000,5.058,-0.873,0.307,75.8,yellow,255,TRUE
32,1661220257.988,2848.1494533630744,3059.1160958507367,1000,4.031,-1.44,0.035,117.7,blue,255,TRUE
33,1661220258.09,2403.378979135368,3068.0384350253967,1000,5.31,-1.454,-0.093,120.7,red,255,TRUE
34,1661220258.195,3269.632425524313,-2242.4647165893116,1000,5.061,-0.868,0.299,90.4,yellow,255,TRUE
35,1661220258.329,2851.312129186896,3153.8586461171467,1000,3.998,-1.433,0.009,120.7,blue,255,TRUE
36,1661220258.428,2456.930727174156,3031.846931796923,1000,5.334,-1.452,-0.093,126.7,red,255,TRUE
37,1661220259.814,2812.715084866423,3123.1157089818857,1000,4.241,-1.43,0.245,100.7,blue,255,TRUE
38,1661220259.902,2445.9235635121354,3001.9267441810666,1000,5.39,-1.453,-0.1,117.7,red,255,TRUE
39,1661220261.267,2804.913099405027,3138.9230631816677,1000,4.133,-1.452,0.013,100.0,blue,255,TRUE
40,1661220261.354,2442.149395334425,2987.7844387251275,1000,5.381,-1.454,-0.107,117.7,red,255,TRUE
41,1661220262.717,2815.8909023481337,3111.4705771077465,1000,4.099,-1.426,0.036,102.0,blue,255,TRUE
42,1661220262.807,2465.3582108002615,2986.337842024074,1000,5.394,-1.451,-1.104,116.7,red,255,TRUE
43,1661220264.17,2800.7931820643003,3135.385409260156,1000,4.094,-1.433,0.206,100.7,blue,255,TRUE
44,1661220264.26,2476.4424842639633,3001.893664738412,1000,5.389,-1.449,-1.141,115.6,red,255,TRUE
45,1661220265.621,2882.723325825906,3195.718652425101,1000,4.037,-1.448,0.179,101.3,blue,255,TRUE
46,1661220265.712,2507.6739882763545,3017.853362287236,1000,5.465,-1.465,-0.101,116.3,red,255,TRUE
47,1661220267.076,2930.321043139436,3219.257516513912,1000,4.046,-1.436,0.155,98.7,blue,255,TRUE
48,1661220267.165,2517.998728542565,3006.3866038567103,1000,5.49,-1.463,-0.104,115.7,red,255,TRUE
49,1661220268.539,2953.441268405195,3246.7448256974008,1000,4.01,-1.457,0.005,100.7,blue,255,TRUE
50,1661220268.629,2523.3269105840145,3002.206878017974,1000,5.526,-1.469,-0.094,116.8,red,255,TRUE
51,1661220269.991,2999.985514929222,3272.475124096218,1000,4.014,-1.451,0.052,101.3,blue,255,TRUE
52,1661220270.08,2548.5851561190443,3006.546640634895,1000,5.51,-1.465,-0.1,116.7,red,255,TRUE
53,1661220271.442,2987.5852122257816,3273.019964997711,1000,4.034,-1.476,0.004,100.8,blue,255,TRUE
54,1661220271.53,2564.2760299683555,3007.094489831968,1000,5.502,-1.465,-0.101,118.7,red,255,TRUE
55,1661220272.894,3008.7128781882298,3237.2302179372286,1000,4.037,-1.473,0.005,100.7,blue,255,TRUE
56,1661220272.981,2587.2879492419706,2995.3320246396656,1000,5.502,-1.461,-0.106,117.7,red,255,TRUE
57,1661220274.346,2928.7383364115444,3206.170446524411,1000,4.04,-1.465,0.01,99.7,blue,255,TRUE
58,1661220274.433,2540.8637904146094,2997.5242913433344,1000,5.49,-1.463,-0.106,117.7,red,255,TRUE
59,1661220275.797,2911.84134099738,3209.561393832657,1000,4.049,-1.46,0.01,99.7,blue,255,TRUE
60,1661220275.883,2554.779467524651,2998.6456306415707,1000,5.527,-1.465,-0.101,102.7,red,255,TRUE
61,1661220277.233,2890.4380917604535,3136.8257838232216,1000,4.229,-1.473,0.022,100.3,blue,255,TRUE
62,1661220277.32,2571.730027250898,3006.294901242228,1000,5.55,-1.467,-0.1,133.6,red,255,TRUE
63,1661220278.715,2831.324559195557,3098.5349693608496,1000,4.14,-1.467,0.019,99.7,blue,255,TRUE
64,1661220278.802,2561.1351614817854,3009.2738906050567,1000,5.55,-1.468,-0.1,116.5,red,255,TRUE
65,1661220279.936,-493.6002557937778,-1581.8404838909405,1000,5.262,-0.874,-0.039,1167.8,green,255,TRUE
66,1661220281.11,2804.505679779988,3117.306920817174,1000,4.091,-1.476,0.015,113.7,blue,255,TRUE
67,1661220281.202,2540.952979060144,3009.5195649034736,1000,5.562,-1.468,-0.099,100.7,red,255,TRUE
68,1661220283.548,2543.127105615014,3016.583720700414,1000,5.549,-1.472,-0.096,114.7,red,255,TRUE
69,1661220285.911,2575.406945115478,3008.6240182582496,1000,5.456,-1.47,-0.094,114.7,red,255,TRUE
70,1661220288.276,2555.0528432033375,3017.334394293274,1000,5.419,-1.47,-0.093,113.8,red,255,TRUE
71,1661220289.648,2796.420551746052,3135.8826967202226,1000,4.108,-1.476,0.028,104.7,blue,255,TRUE
72,1661220289.741,2537.018114586561,3008.2721642824786,1000,5.418,-1.469,-0.093,115.7,red,255,TRUE
73,1661220291.103,2844.9048547674943,3160.3889309555693,1000,4.045,-1.497,0.015,100.5,blue,255,TRUE
74,1661220291.194,2528.00452821551,3003.7939533553913,1000,5.417,-1.469,-0.093,114.7,red,255,TRUE
75,1661220292.554,2785.997450295788,3086.6346551289894,1000,4.109,-1.481,0.016,99.7,blue,255,TRUE
76,1661220292.643,2544.1807826019317,2991.494996586811,1000,4.973,-1.362,-1.921,115.8,red,255,TRUE
77,1661220294.005,2780.6825499138126,3122.1901595961153,1000,4.107,-1.482,0.021,100.8,blue,255,TRUE
78,1661220294.095,2510.97531887804,2992.4908821480603,1000,4.898,-1.333,-1.951,115.7,red,255,TRUE
79,1661220295.456,2861.3953492419246,3173.391070902655,1000,3.938,-1.468,0.015,100.7,blue,255,TRUE
80,1661220295.544,2456.098974128206,2978.9061832478455,1000,5.032,-1.414,-1.472,117.7,red,255,TRUE
81,1661220296.908,2879.3466693336827,3162.98454353124,1000,3.926,-1.445,0.023,100.7,blue,255,TRUE
82,1661220296.996,2406.0865896051605,2968.706441258477,1000,5.03,-1.415,-1.446,117.7,red,255,TRUE
83,1661220298.359,2872.003238793412,3132.112355935535,1000,4.067,-1.465,0.007,100.7,blue,255,TRUE
84,1661220298.447,2372.6053900121174,2955.8464999272287,1000,5.067,-1.417,-1.22,118.3,red,255,TRUE
85,1661220299.811,2840.889437696043,3124.8879779010185,1000,4.105,-1.477,0.022,100.5,blue,255,TRUE
86,1661220299.899,2335.980553940192,2955.392314581952,1000,5.076,-1.426,-1.239,116.7,red,255,TRUE
87,1661220301.263,2910.023829251693,3174.570427847106,1000,4.082,-1.469,0.024,100.7,blue,255,TRUE
88,1661220301.35,2310.3902757181154,2965.028260063646,1000,5.06,-1.41,-1.055,132.6,red,255,TRUE
89,1661220302.731,2951.8313978464844,3184.3570863515856,1000,4.022,-1.473,0.017,99.7,blue,255,TRUE
90,1661220302.817,2270.205928349556,2946.9408734091853,1000,5.09,-1.42,-1.045,117.7,red,255,TRUE
91,1661220304.182,2907.4110049895794,3161.584405829588,1000,4.023,-1.463,0.02,99.8,blue,255,TRUE
92,1661220304.27,2284.7803138192626,2951.109482652029,1000,5.1,-1.424,-1.045,116.7,red,255,TRUE
93,1661220305.633,2866.759811812243,3089.5410379822183,1000,3.952,-1.473,0.009,100.6,blue,255,TRUE
94,1661220305.722,2316.1951688333315,2956.6028677052986,1000,5.132,-1.425,-0.894,115.7,red,255,TRUE
95,1661220307.084,2858.843294247829,3118.444891487726,1000,3.942,-1.485,0.002,101.6,blue,255,TRUE
96,1661220307.176,2316.802872336473,2960.4275398116424,1000,5.135,-1.428,-0.96,113.7,red,255,TRUE
97,1661220308.536,2905.7132157743795,3111.1841819912947,1000,4.349,-1.466,0.037,101.0,blue,255,TRUE
98,1661220308.624,2323.312831923037,2950.6019839537967,1000,5.181,-1.422,-0.963,117.7,red,255,TRUE
99,1661220309.989,2908.9909907760884,3118.6405854189966,1000,4.323,-1.469,0.02,99.7,blue,255,TRUE
100,1661220310.076,2322.2524367908363,2940.204661622367,1000,5.22,-1.426,-1.031,117.7,red,255,TRUE
101,1661220311.441,2865.831219283405,3083.445741994621,1000,4.006,-1.467,0.016,99.8,blue,255,TRUE
102,1661220311.528,2340.906931817053,2942.3069160709433,1000,5.185,-1.426,-1.102,117.6,red,255,TRUE
103,1661220312.893,2853.906151097391,3074.9108457841326,1000,4.283,-1.491,0.025,101.0,blue,255,TRUE
104,1661220312.982,2335.229592196387,2932.098692421076,1000,5.186,-1.425,-1.1,117.6,red,255,TRUE
105,1661220314.352,2903.164535621246,3168.254377551715,1000,4.212,-1.49,0.021,113.7,blue,255,TRUE
106,1661220314.453,2367.698995302838,2911.155693429409,1000,5.169,-1.422,-1.176,116.7,red,255,TRUE
107,1661220315.803,2947.43145274336,3192.1555508049205,1000,4.276,-1.48,0.029,100.2,blue,255,TRUE
108,1661220315.891,2366.020978100397,2915.414966232014,1000,5.157,-1.419,-1.209,116.7,red,255,TRUE
109,1661220317.255,2932.2052376169045,3188.68357944178,1000,4.366,-1.469,0.057,99.7,blue,255,TRUE
110,1661220317.341,2365.769705444068,2930.7621456726106,1000,5.157,-1.418,-1.144,132.6,red,255,TRUE
111,1661220318.72,2900.4227785030193,3191.2506094781725,1000,4.33,-1.458,0.046,100.7,blue,255,TRUE
112,1661220318.81,2345.79025336924,2935.6579168666935,1000,5.152,-1.426,-1.173,115.7,red,255,TRUE
113,1661220320.172,2904.5786989997882,3209.4546506508955,1000,4.285,-1.449,0.385,100.1,blue,255,TRUE
114,1661220320.262,2336.978192808484,2936.7355790040147,1000,5.165,-1.426,-1.101,114.7,red,255,TRUE
115,1661220321.623,2905.37903742683,3220.91846083734,1000,4.036,-1.454,0.041,100.8,blue,255,TRUE
116,1661220321.713,2347.427377025751,2929.160022813099,1000,5.213,-1.425,-0.985,115.7,red,255,TRUE
117,1661220323.075,2899.9324675740622,3166.044388309921,1000,4.23,-1.453,0.039,100.7,blue,255,TRUE
118,1661220323.166,2277.190448428053,2951.7157217199697,1000,5.415,-1.444,-0.981,114.7,red,255,TRUE
119,1661220324.527,2838.296904256306,3084.3874959389154,1000,4.186,-1.436,0.345,100.7,blue,255,TRUE
120,1661220324.614,2325.3525372896147,2986.3070259912547,1000,6.042,-1.508,-0.061,117.7,red,255,TRUE
121,1661220325.979,2854.342271230397,3132.1285572067513,1000,4.874,-1.413,0.472,100.7,blue,255,TRUE
122,1661220326.066,2420.0654193358096,3029.725838162151,1000,5.624,-1.44,-1.17,117.7,red,255,TRUE
123,1661220327.43,2984.54311189898,3367.119852248498,1000,5.436,-1.366,0.491,100.7,blue,255,TRUE
124,1661220327.518,2524.7746234194387,3230.9419216015103,1000,5.183,-1.496,-0.062,117.9,red,255,TRUE
125,1661220328.88,3078.7764130629985,3731.499443125947,1000,5.475,-1.362,0.375,101.7,blue,255,TRUE
126,1661220328.969,2506.3821947483752,3647.129810822285,1000,4.916,-1.484,-0.085,118.7,red,255,TRUE
127,1661220330.347,3176.600928398473,4317.973608217149,1000,5.607,-1.313,0.194,100.8,blue,255,TRUE
128,1661220330.434,2477.3264772131274,4220.181934074776,1000,5.023,-1.464,-0.089,118.1,red,255,TRUE
129,1661220331.798,3144.9929109558816,4926.971213742717,1000,4.713,-1.43,0.373,102.7,blue,255,TRUE
130,1661220331.887,2481.558116592863,4774.990831706564,1000,5.071,-1.514,-0.032,132.6,red,255,TRUE
131,1661220333.269,3171.9160108163996,5546.980252539882,1000,4.827,-1.424,0.668,97.7,blue,255,TRUE
132,1661220333.354,2404.1326060437295,5350.29849206821,1000,5.268,-1.499,-0.051,134.2,red,255,TRUE
133,1661220334.734,3158.1303019752704,6083.232436714269,1000,4.719,-1.462,0.037,100.8,blue,255,TRUE
134,1661220334.824,2272.046582100449,5916.384826368941,1000,5.3,-1.491,-0.07,115.7,red,255,TRUE
135,1661220336.186,3025.3924940983943,6437.118268537856,1000,4.661,-1.455,0.021,100.6,blue,255,TRUE
136,1661220336.277,2155.8330361334597,6301.765476010623,1000,5.249,-1.482,-0.079,114.7,red,255,TRUE
137,1661220337.637,2943.0962615782882,6704.336018303598,1000,4.633,-1.442,0.519,100.8,blue,255,TRUE
138,1661220337.726,2169.7881864000897,6475.020955096726,1000,5.198,-1.461,-0.104,116.7,red,255,TRUE
139,1661220339.088,2859.1314495446773,6650.290397352223,1000,4.48,-1.467,0.016,100.7,blue,255,TRUE
140,1661220339.18,2178.536564751693,6507.661202603175,1000,5.073,-1.46,-0.107,113.7,red,255,TRUE
141,1661220340.539,2898.93107672649,6664.75262787325,1000,4.457,-1.461,0.013,100.9,blue,255,TRUE
142,1661220340.627,2113.080705783808,6495.903527191025,1000,5.066,-1.466,-0.085,118.1,red,255,TRUE
143,1661220341.993,2888.611632607026,6718.459261250798,1000,4.453,-1.452,0.008,100.8,blue,255,TRUE
144,1661220342.082,2115.8963054701712,6460.647761222025,1000,5.119,-1.47,-0.075,117.1,red,255,TRUE
145,1661220343.445,2893.818455503931,6724.40769454791,1000,4.562,-1.45,0.266,100.4,blue,255,TRUE
146,1661220343.534,2098.16116691078,6398.941609242629,1000,5.165,-1.475,-0.077,116.7,red,255,TRUE
147,1661220344.896,2911.890041704048,6763.641099431439,1000,4.492,-1.461,0.028,100.8,blue,255,TRUE
148,1661220344.984,2112.6279575134654,6394.79850014298,1000,5.167,-1.47,-0.075,117.7,red,255,TRUE
149,1661220346.349,2900.045853782732,6784.132579148342,1000,4.519,-1.427,0.153,99.7,blue,255,TRUE
150,1661220346.436,1980.0910343596458,6406.164780928081,1000,5.439,-1.505,-0.061,117.7,red,255,TRUE
151,1661220347.8,2889.9907656037303,6839.7221510139825,1000,4.519,-1.426,0.146,100.7,blue,255,TRUE
152,1661220347.888,1976.5441412678958,6417.863118716058,1000,5.402,-1.497,-0.06,132.7,red,255,TRUE
153,1661220349.267,2871.8409402319503,6845.636742322269,1000,4.531,-1.419,0.157,100.7,blue,255,TRUE
154,1661220349.359,2043.8643984317998,6457.12546754065,1000,5.322,-1.489,-0.065,114.7,red,255,TRUE
155,1661220350.718,2870.152811834692,6843.332392830602,1000,4.53,-1.442,0.182,100.8,blue,255,TRUE
156,1661220350.808,1991.0752565654066,6498.782301441458,1000,5.344,-1.497,-0.067,116.3,red,255,TRUE
157,1661220352.172,2851.7037048085476,6847.998218041202,1000,4.551,-1.45,0.214,100.7,blue,255,TRUE
158,1661220352.263,2042.087760966775,6527.957574926616,1000,5.39,-1.494,-0.07,114.6,red,255,TRUE
159,1661220352.349,2043.6613595467427,6534.293600888091,1000,5.39,-1.494,-0.07,1105.4,red,255,TRUE
160,1661220353.574,2854.836129510391,6820.775065209506,1000,4.547,-1.445,0.221,105.3,blue,255,TRUE
161,1661220353.665,2188.191566215331,6534.76403984832,1000,5.395,-1.491,-0.072,118.7,red,255,TRUE
162,1661220355.03,2883.4849383754263,6797.517171561372,1000,4.611,-1.421,0.202,100.7,blue,255,TRUE
163,1661220355.119,2182.5700575703518,6561.925462417439,1000,5.408,-1.497,-0.059,116.7,red,255,TRUE
164,1661220356.482,2885.373916029725,6798.7730296053915,1000,4.581,-1.45,0.225,100.7,blue,255,TRUE
165,1661220356.571,2164.221890520039,6599.8756372370035,1000,5.461,-1.468,-3.041,117.9,red,255,TRUE
166,1661220357.933,2921.0927193120638,6824.02740494661,1000,4.601,-1.454,0.024,86.8,blue,255,TRUE
167,1661220358.007,2229.1279412791396,6576.3421456239885,1000,5.527,-1.508,-0.052,117.7,red,255,TRUE
168,1661220359.371,2914.24890753743,6800.097047607396,1000,4.487,-1.469,0.019,99.7,blue,255,TRUE
169,1661220359.458,2168.1668763029143,6625.025854146639,1000,5.324,-1.498,-0.056,118.6,red,255,TRUE
170,1661220360.835,2918.852608560484,6877.256949457357,1000,4.496,-1.455,0.017,100.7,blue,255,TRUE
171,1661220360.923,2135.0127367998753,6606.222772276392,1000,4.91,-1.407,-1.682,117.6,red,255,TRUE
172,1661220362.288,2883.7918784849185,6909.090792096672,1000,4.657,-1.438,0.205,99.8,blue,255,TRUE
173,1661220362.377,2081.9602020418242,6575.8101382625455,1000,4.896,-1.421,-1.562,116.2,red,255,TRUE
174,1661220363.739,2854.4425004233926,6954.111444157839,1000,4.926,-1.468,0.041,100.8,blue,255,TRUE
175,1661220363.828,2077.5679329941363,6528.5341960407195,1000,5.126,-1.465,-0.091,115.7,red,255,TRUE
176,1661220365.19,2859.3624012360146,6939.709796986953,1000,4.444,-1.475,0.0,100.7,blue,255,TRUE
177,1661220365.281,2044.1456521624175,6466.682919194035,1000,5.142,-1.468,-0.082,114.7,red,255,TRUE
178,1661220366.639,2851.4577574949994,6899.732052024073,1000,4.394,-1.473,-0.001,101.7,blue,255,TRUE
179,1661220366.73,2018.6300755931152,6444.863672116005,1000,5.151,-1.469,-0.081,115.6,red,255,TRUE
180,1661220368.092,2880.6690422572133,6866.753796932685,1000,4.434,-1.466,0.004,100.7,blue,255,TRUE
181,1661220368.18,2055.7104098912505,6384.551707025013,1000,5.167,-1.47,-0.08,117.7,red,255,TRUE
182,1661220369.546,2885.7957781402492,6812.32278852306,1000,4.441,-1.466,0.004,100.3,blue,255,TRUE
183,1661220369.633,2021.1599552645573,6361.917724257234,1000,5.172,-1.464,-0.081,117.7,red,255,TRUE
184,1661220370.997,2918.7357584352244,6761.690120413329,1000,4.516,-1.475,0.019,100.7,blue,255,TRUE
185,1661220371.086,2041.0639467195979,6374.3348331939815,1000,5.162,-1.467,-0.086,117.2,red,255,TRUE
186,1661220372.449,2947.6879000888753,6719.893601178178,1000,4.64,-1.473,0.014,101.0,blue,255,TRUE
187,1661220372.537,2063.966543592782,6377.80549282349,1000,5.13,-1.462,-0.092,117.7,red,255,TRUE
188,1661220373.902,2918.1948899088643,6733.204538920504,1000,4.553,-1.442,0.111,99.8,blue,255,TRUE
189,1661220373.989,2135.9504019847627,6400.323198079891,1000,5.128,-1.46,-0.091,117.7,red,255,TRUE
190,1661220375.353,2898.0749396571537,6776.456711706284,1000,4.596,-1.466,0.017,99.9,blue,255,TRUE
191,1661220375.44,2118.828975543301,6387.2555966639775,1000,4.869,-1.395,-1.791,132.4,red,255,TRUE
192,1661220376.82,2891.403585760396,6796.256256378717,1000,4.585,-1.449,0.125,99.7,blue,255,TRUE
193,1661220376.908,2088.0365232253357,6369.737988644109,1000,4.867,-1.416,-1.577,131.6,red,255,TRUE
194,1661220378.286,2860.7770951293824,6818.38530259949,1000,4.579,-1.431,0.165,100.7,blue,255,TRUE
195,1661220378.378,2105.296497841968,6374.241978119399,1000,4.874,-1.433,-1.437,113.7,red,255,TRUE
196,1661220379.738,2876.6765670626846,6814.302924804312,1000,4.574,-1.429,0.172,101.1,blue,255,TRUE
197,1661220379.828,2041.6581135913093,6344.446867240737,1000,4.946,-1.449,-1.401,117.6,red,255,TRUE
198,1661220381.191,2890.1105797336386,6749.960062874104,1000,4.568,-1.436,0.136,100.7,blue,255,TRUE
199,1661220381.283,2010.3145552416365,6368.156150342417,1000,5.055,-1.458,-0.1,128.7,red,255,TRUE
200,1661220382.657,2921.40915711249,6726.963657288891,1000,4.585,-1.432,0.133,100.8,blue,255,TRUE
201,1661220382.747,1955.248727508043,6343.10504637571,1000,5.065,-1.454,-0.107,115.7,red,255,TRUE
202,1661220384.108,2925.3036160003307,6698.091342134278,1000,4.591,-1.429,0.146,100.8,blue,255,TRUE
203,1661220384.196,1973.32907568742,6349.5745862504555,1000,5.067,-1.453,-0.109,117.7,red,255,TRUE
204,1661220385.561,2910.3722243776524,6722.687885387407,1000,4.605,-1.427,0.157,100.2,blue,255,TRUE
205,1661220385.648,2010.9902104799776,6367.797442125197,1000,5.08,-1.455,-0.108,118.2,red,255,TRUE
206,1661220387.012,2926.809850849622,6724.254399540536,1000,4.587,-1.42,0.153,100.7,blue,255,TRUE
207,1661220387.099,1992.7389479455196,6364.1115250813755,1000,5.096,-1.454,-0.106,117.5,red,255,TRUE
208,1661220388.463,2902.1918542928593,6765.269759553918,1000,4.561,-1.436,0.092,100.7,blue,255,TRUE
209,1661220388.551,2023.9530409251747,6384.0478624384605,1000,5.123,-1.457,-0.106,117.7,red,255,TRUE
210,1661220389.916,2913.193806122453,6783.356405879383,1000,4.536,-1.448,0.041,99.7,blue,255,TRUE
211,1661220390.004,1932.2205455969734,6309.216765982248,1000,5.001,-1.379,-1.961,117.7,red,255,TRUE
212,1661220392.357,1905.9319284365865,6342.774988081186,1000,5.365,-1.482,-3.053,115.1,red,255,TRUE
213,1661220394.676,1913.2762203981983,6406.032171881728,1000,5.681,-1.496,-3.067,114.7,red,255,TRUE
214,1661220397.04,1887.9594640300863,6481.191963379865,1000,5.573,-1.515,-0.055,113.7,red,255,TRUE
215,1661220398.411,2905.3183729227353,6809.426808224419,1000,4.651,-1.455,0.036,104.7,blue,255,TRUE
216,1661220398.503,1923.4541172623638,6580.321635136511,1000,5.569,-1.513,-0.057,102.5,red,255,TRUE
217,1661220399.851,2887.941468321073,6826.863128610719,1000,4.679,-1.475,0.033,100.7,blue,255,TRUE
218,1661220399.939,1949.1236058313395,6569.470406307584,1000,4.848,-1.321,-2.033,133.6,red,255,TRUE
219,1661220401.319,2871.6025040381305,6847.728013624794,1000,4.71,-1.439,0.215,99.6,blue,255,TRUE
220,1661220401.407,2036.237925421144,6615.019768965809,1000,5.01,-1.402,-1.77,115.7,red,255,TRUE
221,1661220402.769,2848.1629383715244,6845.082780864882,1000,4.743,-1.452,0.021,101.0,blue,255,TRUE
222,1661220402.859,2096.6102741915656,6610.199806816847,1000,6.022,-1.53,-0.029,115.7,red,255,TRUE
223,1661220404.22,2894.2170721892758,6891.157459077659,1000,5.352,-1.418,0.381,100.8,blue,255,TRUE
224,1661220404.313,2188.279675464945,6595.024026954877,1000,0.908,-1.47,-3.048,112.7,red,255,TRUE
225,1661220405.672,2961.035856299731,6941.300082549627,1000,0.947,-1.407,0.288,100.7,blue,255,TRUE
226,1661220405.762,2387.4901866345613,6477.909229898312,1000,1.095,-1.404,-0.762,115.7,red,255,TRUE
227,1661220407.125,3098.490429728587,6863.161848307951,1000,1.986,-1.405,-0.098,99.8,blue,255,TRUE
228,1661220407.212,2599.3363742372426,6227.597820326614,1000,1.088,-1.352,-0.636,117.7,red,255,TRUE
229,1661220408.576,3262.0342355238286,6758.9582892990575,1000,1.436,-1.41,-0.004,100.6,blue,255,TRUE
230,1661220408.663,2861.1827020447986,6105.3603731492285,1000,6.114,-1.43,-0.817,117.6,red,255,TRUE
231,1661220410.028,3433.5469209771545,6726.3763461584595,1000,1.095,-1.403,0.196,99.8,blue,255,TRUE
232,1661220410.114,3166.7177329301016,6074.458722312407,1000,5.678,-1.488,-0.079,117.7,red,255,TRUE
233,1661220411.478,3621.7074512042896,6599.908056751988,1000,0.952,-1.458,0.0,100.8,blue,255,TRUE
234,1661220411.565,3469.263910517544,6006.033650943344,1000,0.073,-1.5,-3.074,117.7,red,255,TRUE
235,1661220412.929,3708.6116327884015,6542.028459841236,1000,0.968,-1.455,0.019,101.7,blue,255,TRUE
236,1661220413.017,3721.6934556107794,5877.699653162348,1000,0.053,-1.469,-3.042,117.9,red,255,TRUE
237,1661220414.381,3780.80847523258,6559.698005959467,1000,0.924,-1.467,0.015,101.0,blue,255,TRUE
238,1661220414.469,3836.7622731728893,5854.734033784906,1000,6.174,-1.496,-0.074,132.9,red,255,TRUE
239,1661220415.851,3813.979602584756,6627.320279313808,1000,0.896,-1.441,0.19,98.7,blue,255,TRUE
240,1661220415.938,3926.9248994616078,5969.46747806419,1000,6.193,-1.501,-3.072,131.7,red,255,TRUE
241,1661220417.316,3864.6195336129385,6696.0289690144555,1000,0.848,-1.431,0.118,100.7,blue,255,TRUE
242,1661220417.407,3975.822269064469,6039.854185357868,1000,6.16,-1.491,-0.079,114.7,red,255,TRUE
243,1661220418.769,3917.856350092821,6632.68420205846,1000,1.334,-1.422,0.253,99.7,blue,255,TRUE
244,1661220418.858,3931.573052105475,5989.499795411008,1000,6.026,-1.434,-1.512,116.0,red,255,TRUE
245,1661220420.219,3964.2908843886994,6664.479491715993,1000,1.104,-1.398,0.196,100.7,blue,255,TRUE
246,1661220420.311,3871.807212152495,5982.464179922142,1000,5.979,-1.446,-0.779,113.7,red,255,TRUE
247,1661220421.67,4041.589527938216,6604.694344782314,1000,1.3,-1.41,0.228,101.3,blue,255,TRUE
248,1661220421.76,3800.6765099229974,5990.217281927045,1000,6.116,-1.466,-0.086,116.2,red,255,TRUE
249,1661220423.123,4073.2917354522615,6538.438199985962,1000,1.19,-1.401,0.261,99.7,blue,255,TRUE
250,1661220423.21,3741.5901056649504,6009.575053988888,1000,6.129,-1.474,-0.089,117.7,red,255,TRUE
251,1661220424.573,4109.935793804659,6490.717746003839,1000,1.236,-1.329,0.315,101.8,blue,255,TRUE
252,1661220424.662,3696.433345961726,6014.434926584731,1000,6.142,-1.472,-0.084,117.7,red,255,TRUE
253,1661220426.025,4074.478133506322,6468.557135460302,1000,1.093,-1.359,0.041,101.7,blue,255,TRUE
254,1661220426.113,3649.191773295532,5977.244681247415,1000,6.138,-1.469,-0.084,117.7,red,255,TRUE
255,1661220427.478,4149.418327541583,6543.301465846009,1000,1.098,-1.361,-0.017,100.7,blue,255,TRUE
256,1661220427.566,3669.0561273814615,5966.22440159471,1000,6.145,-1.467,-0.083,118.7,red,255,TRUE
257,1661220428.93,4189.128539342732,6533.175652300066,1000,1.122,-1.349,-0.014,100.7,blue,255,TRUE
258,1661220429.017,3696.058620297818,5958.082748260905,1000,6.126,-1.462,-0.086,117.7,red,255,TRUE
259,1661220430.381,4137.874093747232,6549.933933066637,1000,1.139,-1.319,0.056,100.7,blue,255,TRUE
260,1661220430.471,3684.0372955931393,5974.570008604528,1000,6.022,-1.452,-0.087,115.7,red,255,TRUE
261,1661220431.835,4167.678725716871,6491.559081059804,1000,1.098,-1.313,0.115,99.7,blue,255,TRUE
262,1661220431.925,3706.9931346989983,5973.975817054082,1000,6.188,-1.49,-0.068,114.7,red,255,TRUE
263,1661220433.285,4147.378912602615,6488.73175801208,1000,1.06,-1.326,0.081,100.9,blue,255,TRUE
264,1661220433.376,3710.2824339824183,5979.393218935475,1000,6.234,-1.464,-0.056,115.7,red,255,TRUE
265,1661220434.737,4218.938027921809,6445.4808417643935,1000,1.077,-1.31,0.036,100.7,blue,255,TRUE
266,1661220434.825,3707.9275039876698,5966.806235935884,1000,6.248,-1.445,-0.491,117.2,red,255,TRUE
267,1661220436.19,4171.341126022206,6349.958969683009,1000,1.06,-1.307,0.044,99.7,blue,255,TRUE
268,1661220436.278,3697.575395383295,6039.49788125943,1000,6.24,-1.454,-0.061,117.8,red,255,TRUE
269,1661220437.642,4108.7831542861595,6375.6806895536,1000,1.084,-1.285,0.067,100.8,blue,255,TRUE
270,1661220437.729,3668.0359588399933,6116.114438798719,1000,6.262,-1.437,-0.435,117.7,red,255,TRUE
271,1661220439.093,4167.338190414013,6347.413570995811,1000,1.131,-1.284,0.06,101.2,blue,255,TRUE
272,1661220439.182,3678.840038012391,6218.39481483884,1000,6.259,-1.437,-0.443,118.7,red,255,TRUE
273,1661220440.545,4150.017730961265,6369.700462453281,1000,1.206,-1.299,0.153,100.8,blue,255,TRUE
274,1661220440.633,3690.2953398713285,6203.610085545388,1000,6.237,-1.443,-0.468,117.7,red,255,TRUE
275,1661220441.997,4153.177256833691,6384.515071129378,1000,1.201,-1.38,0.161,100.7,blue,255,TRUE
276,1661220442.084,3699.301555478958,6269.914926933401,1000,6.249,-1.442,-0.47,119.0,red,255,TRUE
277,1661220443.449,4111.716493018062,6413.684694150042,1000,1.1,-1.37,0.202,100.7,blue,255,TRUE
278,1661220443.536,3725.1026822548156,6343.414307147391,1000,6.255,-1.445,-0.518,118.1,red,255,TRUE
279,1661220444.901,4114.447795528336,6425.208619584094,1000,1.04,-1.334,0.157,99.7,blue,255,TRUE
280,1661220444.988,3698.2936269897405,6313.417565859493,1000,6.256,-1.442,-0.452,132.6,red,255,TRUE
281,1661220446.37,4174.9836958789965,6420.253034507597,1000,0.984,-1.346,0.084,99.7,blue,255,TRUE
282,1661220446.459,3703.379981068556,6242.362523878207,1000,6.226,-1.439,-0.417,115.5,red,255,TRUE
283,1661220447.82,4170.2187510542435,6412.004406609986,1000,1.093,-1.266,0.179,101.5,blue,255,TRUE
284,1661220447.91,3692.41698478809,6156.9819699689515,1000,6.229,-1.438,-0.441,117.4,red,255,TRUE
285,1661220449.273,4225.431662533622,6364.02446497807,1000,1.071,-1.284,0.168,100.7,blue,255,TRUE
286,1661220449.364,3695.3205747196357,6208.833095230101,1000,6.226,-1.431,-0.477,114.7,red,255,TRUE
287,1661220450.725,4200.9255458233365,6306.350030418836,1000,1.045,-1.295,0.179,100.7,blue,255,TRUE
288,1661220450.815,3744.040477362611,6179.717878526124,1000,6.221,-1.44,-0.617,115.7,red,255,TRUE
289,1661220452.176,4174.1224097903405,6285.19619959256,1000,1.026,-1.3,0.124,100.8,blue,255,TRUE
290,1661220452.265,3708.9109606455568,6229.41456315035,1000,6.241,-1.439,-0.574,116.4,red,255,TRUE
291,1661220453.628,4143.821864263824,6276.86815207848,1000,1.061,-1.287,0.145,100.9,blue,255,TRUE
292,1661220453.716,3767.4012332308357,6293.634978579561,1000,6.196,-1.415,-0.476,117.6,red,255,TRUE
293,1661220455.08,4102.54029912529,6242.671892265189,1000,1.061,-1.283,0.156,100.9,blue,255,TRUE
294,1661220455.169,3773.8003738632992,6287.096766547944,1000,6.216,-1.432,-0.47,116.7,red,255,TRUE
295,1661220456.53,4144.518532243605,6283.291370491562,1000,1.023,-1.288,0.161,101.7,blue,255,TRUE
296,1661220456.62,3762.682304571292,6268.163386492357,1000,6.221,-1.436,-0.485,116.7,red,255,TRUE
297,1661220457.981,4079.358070716197,6300.190256612215,1000,1.084,-1.294,0.122,101.8,blue,255,TRUE
298,1661220458.07,3733.9298161240513,6215.227581060521,1000,6.235,-1.428,-0.422,117.7,red,255,TRUE
299,1661220459.434,4103.489519816837,6296.888552429216,1000,1.086,-1.294,0.127,100.8,blue,255,TRUE
300,1661220459.524,3672.1576879793324,6170.773696449323,1000,6.242,-1.432,-0.488,115.7,red,255,TRUE
301,1661220460.886,4163.73520242623,6320.9952002677355,1000,1.113,-1.285,0.134,99.8,blue,255,TRUE
302,1661220460.973,3688.5067628598167,6078.586991371852,1000,6.24,-1.427,-0.456,132.6,red,255,TRUE
303,1661220462.352,4190.779804679759,6311.861657255919,1000,1.139,-1.275,0.177,100.7,blue,255,TRUE
304,1661220462.444,3639.5036057412544,6017.9582300683505,1000,6.228,-1.429,-0.611,113.8,red,255,TRUE
305,1661220463.803,4227.254651411511,6320.590343806188,1000,1.127,-1.28,0.189,101.8,blue,255,TRUE
306,1661220463.894,3618.804871430048,6047.044477614308,1000,6.233,-1.42,-0.585,115.7,red,255,TRUE
307,1661220465.255,4202.739050515832,6291.972752193141,1000,1.122,-1.283,0.181,100.7,blue,255,TRUE
308,1661220465.345,3610.35258370326,6076.84618834516,1000,6.269,-1.434,-0.511,116.7,red,255,TRUE
309,1661220466.705,4175.75234753809,6293.504400202723,1000,1.126,-1.283,0.176,101.7,blue,255,TRUE
310,1661220466.796,3599.9191386695834,6107.485692635743,1000,6.273,-1.429,-0.459,115.7,red,255,TRUE
311,1661220468.157,4157.054982465553,6326.2314855974955,1000,1.105,-1.266,0.215,100.7,blue,255,TRUE
312,1661220468.244,3609.4653081698584,6196.391845952819,1000,6.233,-1.434,-0.698,117.7,red,255,TRUE
313,1661220469.608,4068.2507803452354,6312.449150937132,1000,1.098,-1.278,0.159,100.4,blue,255,TRUE
314,1661220469.696,3587.064657072568,6245.082197019393,1000,6.186,-1.431,-0.718,117.7,red,255,TRUE
315,1661220471.063,4011.50507129304,6328.023580734166,1000,1.113,-1.276,0.168,101.2,blue,255,TRUE
316,1661220471.151,3588.605849968011,6293.338074332649,1000,6.193,-1.424,-0.675,118.3,red,255,TRUE
317,1661220472.517,3869.4222533280245,6368.46699671397,1000,1.089,-1.269,0.137,99.8,blue,255,TRUE
318,1661220472.603,3601.5932306046875,6300.320391723947,1000,6.193,-1.429,-0.736,117.7,red,255,TRUE
319,1661220473.967,3850.7742274557227,6384.864622490237,1000,1.06,-1.286,0.184,100.8,blue,255,TRUE
320,1661220474.054,3612.3384026294757,6306.703803275524,1000,6.187,-1.427,-0.834,117.7,red,255,TRUE
321,1661220475.418,3912.931754731311,6424.165899940005,1000,1.106,-1.269,0.212,100.7,blue,255,TRUE
322,1661220475.508,3645.6092427164745,6278.058015863586,1000,0.096,-1.432,-0.982,115.7,red,255,TRUE
323,1661220476.869,3946.5979122990393,6462.840965950153,1000,1.292,-1.263,0.214,100.8,blue,255,TRUE
324,1661220476.959,3645.4628020923597,6196.573975150597,1000,0.122,-1.415,-1.007,115.7,red,255,TRUE
325,1661220478.322,4031.22042365894,6440.795955288896,1000,1.346,-1.268,0.197,99.8,blue,255,TRUE
326,1661220478.411,3656.654689420433,6194.3913091133845,1000,0.025,-1.413,-0.875,115.7,red,255,TRUE
327,1661220479.771,3992.4576187538746,6336.273175314703,1000,2.029,-1.38,0.532,102.0,blue,255,TRUE
328,1661220479.861,3702.056861940937,6128.303851764528,1000,0.034,-1.422,-1.016,117.7,red,255,TRUE
329,1661220481.226,3953.5912699909636,6085.155889169342,1000,2.642,-1.38,0.683,101.5,blue,255,TRUE
330,1661220481.316,3760.2612413933607,5972.361476316803,1000,1.024,-1.386,-1.5,115.7,red,255,TRUE
331,1661220482.677,3822.0457119260395,5615.081914124258,1000,2.589,-1.335,0.492,100.8,blue,255,TRUE
332,1661220482.765,3859.07427005639,5541.51108386129,1000,2.035,-1.428,-0.635,117.7,red,255,TRUE
333,1661220484.13,3680.528154525875,4960.528892764275,1000,2.731,-1.281,0.466,100.8,blue,255,TRUE
334,1661220484.218,3996.4345014058877,4986.697049493946,1000,1.595,-1.431,-0.796,118.7,red,255,TRUE
335,1661220485.582,3534.5725678755766,4162.604677844239,1000,2.243,-1.389,0.611,100.4,blue,255,TRUE
336,1661220485.669,4138.343304609868,4412.659861606917,1000,1.253,-1.371,-1.708,119.1,red,255,TRUE
337,1661220487.034,3477.389259773307,3489.970147801801,1000,1.158,-1.461,0.048,100.8,blue,255,TRUE
338,1661220487.121,4259.99972154865,3825.3152848808586,1000,1.225,-1.452,-0.047,117.7,red,255,TRUE
339,1661220488.486,3490.304234231191,2876.758938500607,1000,1.12,-1.422,0.082,99.8,blue,255,TRUE
340,1661220488.575,4403.150258497438,3278.6641974893832,1000,0.965,-1.445,-0.829,115.7,red,255,TRUE
341,1661220489.939,3591.6475301904416,2373.994407202252,1000,1.14,-1.427,0.069,114.7,blue,255,TRUE
342,1661220490.04,4459.049124523401,2832.856186655629,1000,0.91,-1.44,-0.901,132.7,red,255,TRUE
343,1661220491.42,3709.653346241173,2114.0145605057864,1000,1.367,-1.379,0.455,99.7,blue,255,TRUE
344,1661220491.51,4485.263276007215,2661.1235340582257,1000,0.886,-1.442,-0.906,114.7,red,255,TRUE
345,1661220492.871,3823.870030482891,2036.8359303742693,1000,1.415,-1.394,0.54,101.1,blue,255,TRUE
346,1661220492.961,4467.44854325401,2647.7436512981617,1000,0.915,-1.443,-0.886,115.7,red,255,TRUE
347,1661220494.323,4023.490868413772,1976.667470894463,1000,1.404,-1.413,0.539,101.4,blue,255,TRUE
348,1661220494.414,4423.501901648805,2658.9984123587474,1000,0.995,-1.461,-0.098,114.7,red,255,TRUE
349,1661220495.776,4041.8110847019466,1960.0801628828547,1000,1.384,-1.385,0.514,100.7,blue,255,TRUE
350,1661220495.865,4410.641610181719,2621.325314903412,1000,1.044,-1.478,-0.086,115.7,red,255,TRUE
351,1661220497.228,4075.1495978837793,1969.3604597245258,1000,1.336,-1.369,0.584,100.7,blue,255,TRUE
352,1661220497.318,4367.4459465053405,2635.0805246065215,1000,0.949,-1.468,-0.085,114.7,red,255,TRUE
353,1661220498.679,4145.753511043828,1972.2165685145908,1000,1.359,-1.384,0.548,100.7,blue,255,TRUE
354,1661220498.767,4372.970047431041,2686.9465905325883,1000,0.938,-1.461,-0.08,117.7,red,255,TRUE
355,1661220500.13,4144.493812181626,1952.6557591484918,1000,1.361,-1.385,0.537,100.7,blue,255,TRUE
356,1661220500.219,4374.303379583435,2735.4764180874295,1000,0.929,-1.452,-0.084,117.7,red,255,TRUE
357,1661220501.581,4108.912328673693,1934.8787203973704,1000,1.374,-1.374,0.533,101.2,blue,255,TRUE
358,1661220501.671,4370.151085007802,2768.9490406035807,1000,0.937,-1.46,-0.088,115.5,red,255,TRUE
359,1661220503.033,4035.435611523786,2029.5327745324842,1000,1.346,-1.377,0.518,100.7,blue,255,TRUE
360,1661220503.122,4389.587618910998,2799.3092853236303,1000,0.974,-1.462,-0.093,101.8,red,255,TRUE
361,1661220504.471,4062.2285819773037,2011.6198970823568,1000,1.366,-1.374,0.523,100.1,blue,255,TRUE
362,1661220504.56,4406.190193225174,2854.7364955907833,1000,0.977,-1.463,-0.089,115.5,red,255,TRUE
363,1661220505.923,4053.186436273427,2006.783631193278,1000,1.369,-1.376,0.547,100.7,blue,255,TRUE
364,1661220506.01,4424.546973744585,2851.463486709206,1000,1.025,-1.467,-0.087,133.6,red,255,TRUE
365,1661220507.388,3993.284607530755,2018.3907146104966,1000,1.359,-1.365,0.505,100.8,blue,255,TRUE
366,1661220507.478,4441.189132740056,2784.7088022677744,1000,1.049,-1.466,-0.085,116.0,red,255,TRUE
367,1661220508.839,3996.1076476233798,2036.6450586972571,1000,1.422,-1.367,0.475,100.8,blue,255,TRUE
368,1661220508.929,4450.537081778301,2763.7018418238436,1000,1.065,-1.472,-0.081,117.1,red,255,TRUE
369,1661220510.289,3970.9362860650326,2049.793464064445,1000,1.389,-1.379,0.515,101.8,blue,255,TRUE
370,1661220510.38,4469.174340752553,2714.2153522538742,1000,1.089,-1.469,-0.083,115.7,red,255,TRUE
371,1661220511.742,3965.349329672363,2042.5011586672051,1000,1.379,-1.374,0.53,100.7,blue,255,TRUE
372,1661220511.832,4470.000761341299,2661.068418424144,1000,1.092,-1.47,-0.081,115.7,red,255,TRUE
373,1661220513.193,3953.1763778138343,2039.8632493126709,1000,1.382,-1.37,0.533,100.8,blue,255,TRUE
374,1661220513.281,4488.056656865144,2625.04388272973,1000,1.029,-1.469,-0.08,102.8,red,255,TRUE
375,1661220514.63,3968.7296268719224,2049.047992849695,1000,1.394,-1.39,0.564,100.7,blue,255,TRUE
376,1661220514.717,4478.011796790913,2593.8351454295494,1000,1.026,-1.467,-0.081,117.7,red,255,TRUE
377,1661220516.067,4001.3804788395987,2045.9861103525582,1000,1.407,-1.379,0.602,101.7,blue,255,TRUE
378,1661220516.155,4464.202907986161,2621.8416168543527,1000,1.025,-1.467,-0.082,117.7,red,255,TRUE
379,1661220517.519,3982.999944629762,2041.256216418311,1000,1.404,-1.378,0.587,99.7,blue,255,TRUE
380,1661220517.608,4452.825676797075,2625.0225159107054,1000,1.026,-1.466,-0.082,115.7,red,255,TRUE
381,1661220518.969,4021.3957519447104,2037.6217942821738,1000,1.405,-1.372,0.584,100.7,blue,255,TRUE
382,1661220519.057,4430.556867820533,2624.5675379044847,1000,1.03,-1.467,-0.085,132.7,red,255,TRUE
383,1661220520.439,4041.143483352351,2078.894043562194,1000,1.398,-1.37,0.601,98.8,blue,255,TRUE
384,1661220520.525,4444.2946509657695,2601.576274953801,1000,1.04,-1.468,-0.083,116.7,red,255,TRUE
385,1661220521.889,4021.286319841293,2056.6304793852937,1000,1.416,-1.358,0.581,100.7,blue,255,TRUE
386,1661220521.979,4451.926268242304,2620.7189813488912,1000,1.04,-1.468,-0.08,115.9,red,255,TRUE
387,1661220523.341,4018.5673958361476,2053.2772622573543,1000,1.513,-1.389,0.596,101.1,blue,255,TRUE
388,1661220523.431,4450.015068161298,2626.2442193372476,1000,1.018,-1.469,-0.081,115.7,red,255,TRUE
389,1661220524.792,3990.8894148258587,2060.9143155423985,1000,1.527,-1.383,0.571,100.7,blue,255,TRUE
390,1661220524.882,4440.404034904011,2610.4341932181774,1000,1.012,-1.47,-0.082,116.5,red,255,TRUE
391,1661220526.243,3995.6053773262006,2058.9870317974296,1000,1.463,-1.364,0.55,100.8,blue,255,TRUE
392,1661220526.334,4438.773791189084,2579.728505619111,1000,0.94,-1.472,-0.082,114.7,red,255,TRUE
393,1661220527.694,3996.2633883161775,2067.94715627253,1000,1.455,-1.361,0.557,101.2,blue,255,TRUE
394,1661220527.783,4473.045261081614,2551.514006977387,1000,0.914,-1.472,-0.085,117.7,red,255,TRUE
395,1661220529.147,3990.7189948398795,2054.002744476866,1000,1.458,-1.359,0.555,100.7,blue,255,TRUE
396,1661220529.235,4473.760234986566,2585.548792293497,1000,0.914,-1.472,-0.085,117.8,red,255,TRUE
397,1661220530.598,3992.326428591437,2082.0594718879383,1000,1.462,-1.367,0.541,100.6,blue,255,TRUE
398,1661220530.689,4430.016521256675,2587.401154810975,1000,0.904,-1.469,-0.092,115.7,red,255,TRUE
399,1661220532.049,3980.736534071497,2082.879764472359,1000,1.455,-1.367,0.561,101.7,blue,255,TRUE
400,1661220532.137,4388.445304520738,2595.022323361862,1000,0.908,-1.465,-0.096,117.7,red,255,TRUE
401,1661220533.503,4037.430459428351,2071.788727949039,1000,1.455,-1.364,0.583,99.7,blue,255,TRUE
402,1661220533.592,4378.854151284332,2611.4578626299412,1000,0.89,-1.46,-0.1,116.7,red,255,TRUE
403,1661220534.956,4035.228118588031,2090.616724556475,1000,1.356,-1.371,0.472,99.7,blue,255,TRUE
404,1661220535.042,4395.835348583859,2602.661582784622,1000,1.031,-1.476,-0.089,132.4,red,255,TRUE
405,1661220536.42,3973.835269521407,2052.2543348515887,1000,1.146,-1.26,0.124,100.7,blue,255,TRUE
406,1661220536.51,4353.793996265609,2660.352267866153,1000,1.165,-1.496,-0.071,115.4,red,255,TRUE
407,1661220537.871,3906.537401291464,2064.997821541956,1000,1.178,-1.333,0.148,100.7,blue,255,TRUE
408,1661220537.961,4343.439736391328,2675.7883747337582,1000,1.136,-1.48,-3.051,116.3,red,255,TRUE
409,1661220539.325,3877.563727558005,2086.0079259107447,1000,0.988,-1.299,0.193,100.7,blue,255,TRUE
410,1661220539.414,4384.996474346701,2624.284276534149,1000,1.092,-1.48,-0.088,115.7,red,255,TRUE
411,1661220540.777,3858.626039722669,2095.986398807829,1000,1.028,-1.4,0.08,101.3,blue,255,TRUE
412,1661220540.867,4409.1244743474645,2577.2582576124364,1000,1.076,-1.476,-0.094,115.7,red,255,TRUE
413,1661220542.23,3768.5539701397015,2104.218796948188,1000,1.028,-1.436,-0.023,99.7,blue,255,TRUE
414,1661220542.317,4398.5118356658595,2586.36736333588,1000,1.066,-1.475,-0.095,117.7,red,255,TRUE
415,1661220543.683,3765.8845112750437,2074.136629284217,1000,1.077,-1.434,0.107,100.7,blue,255,TRUE
416,1661220543.772,4411.047837427796,2596.186738766556,1000,1.001,-1.464,-0.098,116.7,red,255,TRUE
417,1661220545.137,3807.240994094927,2149.9766176444004,1000,1.187,-1.426,0.296,100.2,blue,255,TRUE
418,1661220545.224,4419.69509106738,2540.823998222048,1000,0.997,-1.465,-0.097,117.7,red,255,TRUE
419,1661220546.588,3885.4156231129596,2148.6468269035336,1000,1.3,-1.451,0.392,100.8,blue,255,TRUE
420,1661220546.678,4408.984103782244,2499.8244944518133,1000,1.0,-1.468,-0.096,116.7,red,255,TRUE
421,1661220548.04,3882.4288770337225,2136.6650023311554,1000,1.433,-1.472,0.027,101.7,blue,255,TRUE
422,1661220548.128,4432.289450004399,2518.80972488028,1000,1.004,-1.464,-0.097,117.7,red,255,TRUE
423,1661220549.492,3862.0798233980095,2152.68740851764,1000,1.158,-1.478,0.013,99.8,blue,255,TRUE
424,1661220549.579,4427.952027410945,2514.17366615183,1000,1.023,-1.475,-0.091,117.7,red,255,TRUE
425,1661220550.943,3863.36673542158,2127.1653521076632,1000,1.221,-1.421,0.263,100.8,blue,255,TRUE
426,1661220551.033,4504.785943475943,2480.693247864714,1000,0.87,-1.455,-0.113,116.7,red,255,TRUE
427,1661220552.394,3844.935710731372,2170.180644028424,1000,1.092,-1.434,0.073,100.8,blue,255,TRUE
428,1661220552.484,4463.771776118717,2482.4985515929807,1000,0.837,-1.439,-1.517,115.7,red,255,TRUE
429,1661220553.846,3831.3826021105447,2155.7128680105766,1000,1.098,-1.43,0.089,100.7,blue,255,TRUE
430,1661220553.936,4470.571943486385,2474.7299783434382,1000,0.837,-1.455,-0.111,115.9,red,255,TRUE
431,1661220555.298,3769.4630112816562,2137.911079075167,1000,1.085,-1.425,0.074,101.3,blue,255,TRUE
432,1661220555.388,4482.905250994562,2465.5769635772285,1000,1.482,-1.505,-3.088,115.7,red,255,TRUE
433,1661220556.751,3789.0594450578465,2140.612511928846,1000,1.091,-1.442,0.37,98.7,blue,255,TRUE
434,1661220556.838,4421.714183652325,2440.0174554487553,1000,1.667,-1.464,-3.097,116.7,red,255,TRUE
435,1661220558.2,3771.606678595019,2157.52058639065,1000,6.165,-1.44,-0.415,100.7,blue,255,TRUE
436,1661220558.288,4326.264722379954,2443.4291090801576,1000,2.681,-1.467,-3.064,117.7,red,255,TRUE
437,1661220559.651,3724.9578797470454,2312.925975661385,1000,5.695,-1.4,-0.216,100.8,blue,255,TRUE
438,1661220559.741,4113.8017144714195,2541.513478654893,1000,4.446,-1.506,-3.083,116.1,red,255,TRUE
439,1661220561.104,3639.1095795283823,2468.207681285093,1000,5.806,-1.365,0.067,100.7,blue,255,TRUE
440,1661220561.191,3940.2429255496713,2679.3417815991165,1000,4.721,-1.449,-2.695,118.7,red,255,TRUE
441,1661220562.556,3585.78107170426,2905.9008538393155,1000,6.073,-1.41,0.257,100.7,blue,255,TRUE
442,1661220562.644,3787.107866286436,2841.974448311305,1000,4.814,-1.455,-3.101,117.8,red,255,TRUE
443,1661220564.009,3603.8318617224977,3494.9742040792644,1000,0.137,-1.41,0.219,99.8,blue,255,TRUE
444,1661220564.096,3691.233328086344,3006.713522159937,1000,5.03,-1.431,-1.684,132.7,red,255,TRUE
445,1661220565.476,3578.26382792317,4196.877714050814,1000,0.604,-1.497,0.023,100.8,blue,255,TRUE
446,1661220565.564,3630.9978821109694,3322.935400092448,1000,4.98,-1.503,-0.067,117.2,red,255,TRUE
447,1661220566.927,3638.7491852563967,4895.149141156069,1000,0.879,-1.467,0.07,100.8,blue,255,TRUE
448,1661220567.017,3583.9340007137876,3801.2759116441407,1000,4.712,-1.465,-3.038,115.6,red,255,TRUE
449,1661220568.379,3684.7995516624683,5543.535359785871,1000,0.978,-1.476,0.048,100.7,blue,255,TRUE
450,1661220568.469,3618.444943230165,4213.864184386696,1000,5.292,-1.473,-0.083,115.7,red,255,TRUE
451,1661220569.845,3782.344359063614,6119.778476070912,1000,0.929,-1.479,0.032,100.7,blue,255,TRUE
452,1661220569.934,3703.356703772295,4583.32464403995,1000,5.407,-1.488,-3.066,115.7,red,255,TRUE
453,1661220571.298,3863.509054209335,6417.270715209037,1000,0.966,-1.45,0.605,99.8,blue,255,TRUE
454,1661220571.387,3696.6648379505496,5017.063709886687,1000,5.322,-1.479,-3.055,115.7,red,255,TRUE
455,1661220572.749,3869.086861019514,6570.166310261965,1000,1.232,-1.466,0.067,100.8,blue,255,TRUE
456,1661220572.839,3670.107472744299,5392.639913383904,1000,5.325,-1.475,-3.062,115.8,red,255,TRUE
457,1661220574.2,3902.8251085197285,6527.442645934643,1000,2.028,-1.378,0.617,100.7,blue,255,TRUE
458,1661220574.288,3589.899826219067,5562.238923170887,1000,4.483,-1.436,-1.54,117.7,red,255,TRUE
459,1661220575.651,3874.212678099744,6439.817569387799,1000,1.884,-1.442,0.503,100.7,blue,255,TRUE
460,1661220575.741,3610.4360787544665,5639.22048224666,1000,5.227,-1.455,-3.096,116.7,red,255,TRUE
461,1661220577.102,3910.65588143535,6376.91423447658,1000,1.5,-1.481,-0.008,100.1,blue,255,TRUE
462,1661220577.19,3573.695595513452,5689.8623488941885,1000,5.008,-1.445,-2.697,117.7,red,255,TRUE
463,1661220578.553,3878.8448150448075,6257.523068576615,1000,2.286,-1.433,0.448,100.8,blue,255,TRUE
464,1661220578.641,3549.7472790601073,5652.877151846676,1000,4.864,-1.454,-3.039,118.6,red,255,TRUE
465,1661220580.005,3765.8015307632836,6080.413969179742,1000,3.467,-1.331,0.316,99.8,blue,255,TRUE
466,1661220580.092,3532.3468570103264,5506.449940457677,1000,3.317,-1.401,-2.052,133.6,red,255,TRUE
467,1661220581.471,3670.6006322476055,5964.397099748753,1000,3.58,-1.401,0.435,100.7,blue,255,TRUE
468,1661220581.56,3375.957721184373,5406.053221695856,1000,5.844,-1.345,-1.828,115.7,red,255,TRUE
469,1661220582.922,3547.972961839076,5922.746373897074,1000,4.015,-1.414,0.756,100.7,blue,255,TRUE
470,1661220583.012,3223.9487392678056,5435.641053958102,1000,5.607,-1.33,-1.817,116.9,red,255,TRUE
471,1661220584.373,3450.9266737947496,5886.30837440762,1000,3.938,-1.422,0.734,100.7,blue,255,TRUE
472,1661220584.463,2957.2137921839144,5327.428670683603,1000,3.854,-1.356,-1.708,115.7,red,255,TRUE
473,1661220585.812,3299.8341149346775,5775.054460484269,1000,3.821,-1.45,0.55,98.7,blue,255,TRUE
474,1661220585.9,2755.906979547814,5312.253569093808,1000,0.188,-1.416,-2.171,115.7,red,255,TRUE
475,1661220587.262,3286.0899731510744,5600.812592060461,1000,2.502,-1.482,0.06,100.7,blue,255,TRUE
476,1661220587.35,2566.402128044907,5215.116938449781,1000,1.581,-1.392,-1.304,117.7,red,255,TRUE
477,1661220588.713,3349.070735224192,5200.960851539238,1000,2.773,-1.475,0.022,100.7,blue,255,TRUE
478,1661220588.803,2479.7740660080744,5049.955658546395,1000,1.388,-1.354,-1.793,115.7,red,255,TRUE
479,1661220590.164,3540.5635595598656,4663.810369941209,1000,1.702,-1.486,-3.065,100.7,blue,255,TRUE
480,1661220590.253,2492.7744192755863,4652.783172738648,1000,2.13,-1.226,-1.335,116.7,red,255,TRUE
481,1661220592.589,2023.7930059521357,4037.8448877843784,1000,3.986,-1.251,-1.098,114.7,red,255,TRUE
482,1661220594.954,1708.9934797324006,3606.2478879631285,1000,4.035,-1.378,-1.736,114.7,red,255,TRUE
483,1661220597.318,1369.1419592291447,3048.0466430490087,1000,4.021,-1.391,-1.728,114.7,red,255,TRUE
484,1661220598.691,3867.0028601305075,4112.617500039411,1000,3.506,-1.434,1.438,104.7,blue,255,TRUE
485,1661220598.784,998.5509203948665,2761.0488395894367,1000,3.994,-1.403,-1.581,117.2,red,255,TRUE
486,1661220600.146,3858.9970424537896,3535.5068441341605,1000,3.596,-1.347,1.008,100.7,blue,255,TRUE
487,1661220600.235,548.3116885276603,2501.9359000988748,1000,4.258,-1.393,-1.915,116.7,red,255,TRUE
488,1661220601.599,4068.8081061437606,2780.8017370574757,1000,1.439,-1.529,3.1,100.2,blue,255,TRUE
489,1661220601.687,60.24600151738266,2482.8090280909973,1000,4.014,-1.404,-1.708,117.7,red,255,TRUE
490,1661220603.05,4485.985728409242,2288.166495955234,1000,0.298,-1.432,0.56,100.8,blue,255,TRUE
491,1661220603.138,56.9982786935945,2625.776338596384,1000,4.025,-1.41,-1.751,133.1,red,255,TRUE
492,1661220604.519,4954.704131031699,2025.6141399049604,1000,5.844,-1.345,-0.009,100.8,blue,255,TRUE
493,1661220604.605,-0.08167684089876559,2633.5845761816045,1000,4.218,-1.434,-1.779,117.7,red,255,TRUE
494,1661220605.97,5319.163982430199,1924.406197774746,1000,5.758,-1.318,0.177,100.8,blue,255,TRUE
495,1661220606.06,26.566974797016687,2665.274384442871,1000,4.038,-1.403,-1.634,115.6,red,255,TRUE
496,1661220607.421,5367.116536448478,1729.315455704208,1000,4.531,-1.436,0.239,100.7,blue,255,TRUE
497,1661220607.511,19.373108903463688,2575.1911675245024,1000,3.982,-1.39,-1.671,115.7,red,255,TRUE
498,1661220608.873,5753.363935658285,1603.3786334079934,1000,4.342,-1.442,-2.173,100.7,blue,255,TRUE
499,1661220608.964,-24.266693027964767,2699.0671169198736,1000,3.946,-1.409,-1.425,129.6,red,255,TRUE
500,1661220610.339,5743.631409145016,1634.0698781602077,1000,3.864,-1.46,-0.049,101.4,blue,255,TRUE
501,1661220610.43,-3.9328613599560724,2714.670787126452,1000,3.906,-1.415,-1.475,115.8,red,255,TRUE
502,1661220611.791,5246.362743095903,1862.458430179939,1000,5.322,-1.445,-1.153,100.7,blue,255,TRUE
503,1661220611.881,35.3016032001645,2802.3807748674626,1000,4.153,-1.451,-0.119,115.7,red,255,TRUE
504,1661220613.242,4568.448363736567,2405.4284743398193,1000,4.766,-1.37,0.506,100.7,blue,255,TRUE
505,1661220613.331,130.75879841283464,2886.481671595014,1000,4.731,-1.437,-2.286,116.7,red,255,TRUE
506,1661220614.695,3736.160251964877,2913.8747100563583,1000,3.91,-1.486,0.0,100.6,blue,255,TRUE
507,1661220614.782,101.30061441906831,2880.598351440573,1000,3.911,-1.405,-1.358,117.8,red,255,TRUE
508,1661220616.147,3054.6709518114617,3542.8771283183137,1000,3.967,-1.429,0.4,100.7,blue,255,TRUE
509,1661220616.235,55.58455077827571,2795.640256069811,1000,3.718,-1.412,-1.306,117.7,red,255,TRUE
510,1661220617.6,2433.750545780627,4147.872354619562,1000,3.843,-1.441,0.443,99.7,blue,255,TRUE
511,1661220617.686,-61.179945331103376,2625.968961933518,1000,3.812,-1.416,-1.394,117.7,red,255,TRUE
512,1661220619.05,2016.1112345999288,4749.073533175201,1000,3.53,-1.491,0.014,100.7,blue,255,TRUE
513,1661220619.138,-38.130641633154134,2585.7853866440078,1000,3.722,-1.433,-1.187,133.0,red,255,TRUE
514,1661220620.518,1799.2267076929766,5034.819297567425,1000,3.557,-1.409,0.569,99.7,blue,255,TRUE
515,1661220620.604,20.676212796900227,2598.281322514924,1000,4.835,-1.465,-3.037,117.7,red,255,TRUE
516,1661220621.969,1670.4831862079443,5047.764604153889,1000,3.575,-1.456,0.038,99.7,blue,255,TRUE
517,1661220622.058,205.77339029101677,2436.772591680686,1000,0.539,-1.402,-1.404,115.6,red,255,TRUE
518,1661220623.42,1711.239005582158,5045.4291874383935,1000,3.528,-1.44,0.271,101.2,blue,255,TRUE
519,1661220623.51,629.4214216394898,2506.805991888655,1000,5.304,-1.472,-3.042,117.8,red,255,TRUE
520,1661220624.874,1930.043444429072,5005.425718713037,1000,1.909,-1.508,0.019,100.7,blue,255,TRUE
521,1661220624.966,1053.5260267033025,2848.795155076765,1000,4.031,-1.541,-0.019,113.4,red,255,TRUE
522,1661220626.323,2224.908603320444,4689.9668089204015,1000,2.161,-1.476,-0.001,101.8,blue,255,TRUE
523,1661220626.412,1549.8985749944568,3184.680760223091,1000,2.296,-1.283,-1.559,117.7,red,255,TRUE
524,1661220627.776,2552.8768153620663,4124.97066735353,1000,1.944,-1.407,0.406,100.8,blue,255,TRUE
525,1661220627.865,1931.2121867261515,3462.3240972055714,1000,2.621,-1.492,-3.074,116.0,red,255,TRUE
526,1661220629.227,3085.156445495469,3528.1950837921213,1000,0.615,-1.405,-0.307,100.8,blue,255,TRUE
527,1661220629.316,2296.2940153037493,3616.9813662702913,1000,2.616,-1.545,-3.119,116.7,red,255,TRUE
528,1661220630.679,3823.9267595940582,2907.322439866895,1000,0.977,-1.443,0.434,100.7,blue,255,TRUE
529,1661220630.768,2497.13108130727,3895.0512567072783,1000,1.52,-1.314,-1.967,116.7,red,255,TRUE
530,1661220632.131,4535.920580301628,2140.7431665639233,1000,0.664,-1.443,-1.319,100.7,blue,255,TRUE
531,1661220632.218,2509.9172403878433,4040.74279582994,1000,1.602,-1.309,-1.811,117.7,red,255,TRUE
532,1661220633.583,5047.572422825793,1630.3113993315849,1000,5.63,-1.455,0.055,99.7,blue,255,TRUE
533,1661220633.67,2549.3643540265894,3981.572004491418,1000,1.329,-1.176,-2.114,117.7,red,255,TRUE
534,1661220635.036,5452.968884332678,1375.5335204606097,1000,0.047,-1.418,1.256,98.8,blue,255,TRUE
535,1661220635.122,2647.478619824931,3902.692175229271,1000,1.337,-1.187,-2.113,132.7,red,255,TRUE
536,1661220636.501,5870.172855011184,1249.951305540819,1000,0.176,-1.421,-0.264,100.7,blue,255,TRUE
537,1661220636.591,2702.588906452738,3870.5994565594387,1000,1.509,-1.323,-1.834,115.7,red,255,TRUE
538,1661220637.952,6021.083960700936,1208.0066178166874,1000,0.123,-1.408,-0.052,100.8,blue,255,TRUE
539,1661220638.043,2731.1048560870117,3813.6598846431552,1000,1.45,-1.36,-1.731,114.7,red,255,TRUE
540,1661220639.404,5956.3244253493895,1292.0329763649427,1000,6.036,-1.334,0.307,100.7,blue,255,TRUE
541,1661220639.494,2752.533992517503,3848.0820843174533,1000,1.365,-1.353,-1.799,115.7,red,255,TRUE
542,1661220640.855,5892.663038405171,1536.0151854661046,1000,5.555,-1.45,0.165,100.7,blue,255,TRUE
543,1661220640.946,2774.985636633326,3844.5213957140404,1000,1.335,-1.356,-1.731,114.7,red,255,TRUE
544,1661220642.308,5879.351668158487,1561.3213706416257,1000,5.788,-1.442,0.856,99.7,blue,255,TRUE
545,1661220642.395,2784.0629025957933,3820.7194382440625,1000,1.463,-1.418,-1.704,118.2,red,255,TRUE
546,1661220643.759,5851.602850524431,1588.3228210250315,1000,5.501,-1.5,0.069,100.7,blue,255,TRUE
547,1661220643.848,2784.9101393859823,3792.902873823641,1000,1.366,-1.405,-1.832,116.7,red,255,TRUE
548,1661220645.211,5769.474129154839,1750.6946151992433,1000,5.444,-1.51,0.06,100.7,blue,255,TRUE
549,1661220645.3,2752.356142725944,3774.334943477357,1000,1.649,-1.458,-3.035,116.7,red,255,TRUE
550,1661220646.662,5690.3799691784125,1812.0395375666387,1000,5.524,-1.529,0.039,101.7,blue,255,TRUE
551,1661220646.751,2771.6669624061765,3787.078369665951,1000,1.213,-1.37,-1.7,117.4,red,255,TRUE
552,1661220648.114,5691.207126889657,1804.2151648938616,1000,5.472,-1.54,0.029,100.8,blue,255,TRUE
553,1661220648.201,2743.2564795858693,3736.5087795777486,1000,1.357,-1.407,-1.716,118.7,red,255,TRUE
554,1661220650.555,2689.799574743694,3668.380547067565,1000,1.346,-1.407,-1.664,114.1,red,255,TRUE
555,1661220652.919,2655.747282707327,3656.83305119821,1000,1.874,-1.364,-2.167,114.7,red,255,TRUE
556,1661220655.284,2390.417152638312,3644.545937834336,1000,1.927,-1.431,-1.101,114.6,red,255,TRUE
557,1661220656.655,5756.434788798332,1731.3875343266893,1000,0.383,-1.442,0.232,105.7,blue,255,TRUE
558,1661220656.747,2145.9336980351522,3593.3410449412827,1000,2.019,-1.461,-3.037,117.7,red,255,TRUE
559,1661220658.111,5702.815783763687,1680.7974780537706,1000,5.015,-1.41,0.384,100.6,blue,255,TRUE
560,1661220658.199,1863.5240100542778,3528.459844004826,1000,2.113,-1.464,-3.046,117.5,red,255,TRUE
561,1661220659.562,5643.189553833388,1675.7073436247922,1000,5.316,-1.369,0.591,100.8,blue,255,TRUE
562,1661220659.65,1612.287936718226,3520.8234521584545,1000,1.949,-1.47,-3.043,132.6,red,255,TRUE
563,1661220661.029,5624.710527633065,1681.9346703939182,1000,5.379,-1.382,1.718,99.8,blue,255,TRUE
564,1661220661.118,1372.4344612322466,3541.1639056681347,1000,2.01,-1.496,-3.067,115.7,red,255,TRUE
565,1661220662.479,5724.844725657423,1651.4759713452813,1000,0.771,-1.359,0.52,100.7,blue,255,TRUE
566,1661220662.569,1139.6598858852722,3546.230697739445,1000,1.993,-1.494,-3.066,116.7,red,255,TRUE
567,1661220663.931,5818.368300291761,1598.7948150944255,1000,6.168,-1.36,0.092,100.7,blue,255,TRUE
568,1661220664.023,1126.630069601925,3552.6866780335636,1000,1.977,-1.486,-3.059,113.7,red,255,TRUE
569,1661220665.382,5746.103482128925,1606.9695880799475,1000,5.545,-1.39,1.187,101.8,blue,255,TRUE
570,1661220665.473,1134.1371501419005,3538.410176260968,1000,1.826,-1.457,-3.033,115.7,red,255,TRUE
571,1661220666.835,5856.397437765747,1644.263099535081,1000,5.499,-1.191,3.114,100.5,blue,255,TRUE
572,1661220666.923,1146.7608484942523,3525.8666364022156,1000,1.847,-1.458,-3.033,117.6,red,255,TRUE
573,1661220668.286,5950.092201024915,1694.3996141468388,1000,4.986,-1.381,-2.818,100.7,blue,255,TRUE
574,1661220668.374,1164.0895946881576,3466.241595695336,1000,1.729,-1.453,-3.025,117.7,red,255,TRUE
575,1661220669.74,5872.221933956575,1599.8889699925105,1000,3.761,-1.508,0.06,100.7,blue,255,TRUE
576,1661220669.827,1135.9367478276743,3463.73277690275,1000,1.48,-1.43,-1.384,117.7,red,255,TRUE
577,1661220671.191,5380.8233600125195,1589.1634020752817,1000,4.218,-1.431,-0.029,100.7,blue,255,TRUE
578,1661220671.279,1141.0086617668082,3508.542978910369,1000,1.437,-1.432,-1.33,119.0,red,255,TRUE
579,1661220672.642,5016.483482474139,1866.2718871645764,1000,0.344,-1.431,-0.579,100.7,blue,255,TRUE
580,1661220672.73,1135.5921985285295,3529.169792542148,1000,1.574,-1.443,-1.353,117.7,red,255,TRUE
581,1661220674.081,5017.502406358358,2161.2203124895386,1000,1.275,-1.367,0.42,100.6,blue,255,TRUE
582,1661220674.169,1114.5132768301444,3555.3873014089563,1000,2.037,-1.431,-1.983,132.8,red,255,TRUE
583,1661220675.547,4995.304724320893,2337.5274130569755,1000,1.329,-1.418,0.2,100.8,blue,255,TRUE
584,1661220675.637,1147.7385320638984,3685.3602705772064,1000,6.102,-1.348,-1.657,116.0,red,255,TRUE
585,1661220677.0,4994.564137273482,2452.262055288906,1000,1.724,-1.33,0.358,100.8,blue,255,TRUE
586,1661220677.091,1231.9059783837968,3905.3989084534282,1000,5.221,-1.23,-1.118,113.7,red,255,TRUE
587,1661220678.452,4951.2930035967875,2611.2871192265643,1000,3.437,-1.452,0.072,99.7,blue,255,TRUE
588,1661220678.54,1367.230033886534,4082.457484196429,1000,4.17,-1.403,-1.186,115.7,red,255,TRUE
589,1661220679.903,5039.409029189858,2734.4148571770334,1000,2.805,-1.393,0.483,100.8,blue,255,TRUE
590,1661220679.993,1439.225577133886,4110.91074800149,1000,2.782,-1.406,-1.394,114.6,red,255,TRUE
591,1661220681.354,5117.3407882171,2448.597963574717,1000,0.885,-1.497,0.05,101.7,blue,255,TRUE
592,1661220681.442,1449.1886649426406,4097.592019829007,1000,2.37,-1.409,-1.522,117.7,red,255,TRUE
593,1661220682.793,5278.763950533601,2138.961092426219,1000,0.067,-1.367,0.233,101.0,blue,255,TRUE
594,1661220682.881,1464.9617782634662,4086.574315829182,1000,1.772,-1.422,-1.577,117.5,red,255,TRUE
595,1661220684.245,5481.837861790199,1960.6410457703332,1000,0.187,-1.444,0.381,100.7,blue,255,TRUE
596,1661220684.333,1423.5956251193154,3938.161524944011,1000,1.476,-1.299,-1.863,116.7,red,255,TRUE
597,1661220685.696,5675.985218017847,1734.9488301458407,1000,6.142,-1.52,-0.01,100.8,blue,255,TRUE
598,1661220685.783,1311.6525463655437,3713.4677954258673,1000,1.492,-1.304,-1.88,117.7,red,255,TRUE
599,1661220687.147,5835.559625965502,1641.2370305680759,1000,4.764,-1.527,-0.004,100.0,blue,255,TRUE
600,1661220687.234,1200.3967039242332,3487.3238221152533,1000,1.492,-1.304,-1.881,117.5,red,255,TRUE
601,1661220688.599,6182.170047656881,1597.6088123653983,1000,5.794,-1.453,0.097,99.7,blue,255,TRUE
602,1661220688.686,1117.6719278768237,3409.351598998208,1000,1.521,-1.311,-1.91,132.6,red,255,TRUE
603,1661220690.065,6381.499135396374,1684.7189107134075,1000,5.623,-1.455,0.077,99.7,blue,255,TRUE
604,1661220690.155,1115.4040240804318,3451.7923352463663,1000,0.872,-1.146,-1.6,114.6,red,255,TRUE
