,timestamp,x,y,z,yaw,roll,pitch,latency,student,session,success
0,1661224941.078,1373.003402252838,-1259.0269963087337,1000,5.217,-1.427,2.79,103.7,red,256,TRUE
1,1661224941.168,4029.472259145661,-2665.276322582358,1000,4.898,-0.909,0.424,104.1,yellow,256,TRUE
2,1661224941.261,2547.513914070328,-2768.0727244914783,1000,4.936,-0.478,0.271,100.8,green,256,TRUE
3,1661224941.51,953.8614046137303,-1583.4063271888217,1000,5.417,-1.501,-3.085,135.6,blue,256,TRUE
4,1661224941.632,1408.3701536057163,-991.8345834466912,1000,5.642,-1.334,2.878,103.3,red,256,TRUE
5,1661224941.721,4027.46030083794,-2625.553872322916,1000,4.902,-0.878,0.422,103.3,yellow,256,TRUE
6,1661224941.813,2608.158076794455,-2769.8656257119715,1000,4.936,-0.475,0.274,101.7,green,256,TRUE
7,1661224942.018,997.537354143158,-1531.1273530143028,1000,5.335,-1.452,-0.117,106.2,blue,256,TRUE
8,1661224942.111,1398.1935801534282,-694.3878108636295,1000,6.15,-1.402,3.131,104.3,red,256,TRUE
9,1661224942.201,4047.657154133592,-2606.6789397735197,1000,4.902,-0.882,0.416,103.7,yellow,256,TRUE
10,1661224942.293,2682.298726964537,-2762.9644551196907,1000,4.935,-0.477,0.274,103.7,green,256,TRUE
11,1661224942.483,920.6259500968016,-1277.7940137981689,1000,5.779,-1.448,-0.572,120.9,blue,256,TRUE
12,1661224942.588,1491.163875592242,-396.6345088467017,1000,0.033,-1.436,2.498,105.7,red,256,TRUE
13,1661224942.68,4060.485082627985,-2594.361620831402,1000,4.909,-0.881,0.41,118.7,yellow,256,TRUE
14,1661224942.77,2682.6307482109682,-2725.9704809225846,1000,4.936,-0.478,0.275,103.6,green,256,TRUE
15,1661224943.022,1072.4261761227942,-1054.3745916146645,1000,5.701,-1.389,-0.81,105.7,blue,256,TRUE
16,1661224943.114,1602.2898660739108,-77.9026568888328,1000,5.532,-1.392,2.927,118.6,red,256,TRUE
17,1661224945.451,1755.6956471745161,297.22401052899687,1000,4.346,-1.437,2.519,99.8,red,256,TRUE
18,1661224945.543,4059.5249789927984,-2572.746881911956,1000,4.914,-0.833,0.422,97.5,yellow,256,TRUE
19,1661224945.629,2718.9917991580382,-2760.7872973637677,1000,4.935,-0.477,0.273,86.4,green,256,TRUE
20,1661224945.796,1293.1531234084785,-763.3938268128862,1000,5.268,-1.41,-1.205,114.7,blue,256,TRUE
21,1661224945.895,1940.7280663832335,635.7150027582148,1000,2.908,-1.394,2.878,136.6,red,256,TRUE
22,1661224945.999,4067.2401688895648,-2550.9484293711425,1000,4.913,-0.825,0.423,105.7,yellow,256,TRUE
23,1661224946.261,1546.7074689719636,-451.98457173677474,1000,5.396,-1.402,-1.026,97.8,blue,256,TRUE
24,1661224946.345,2065.740825582971,915.8151979328715,1000,2.367,-1.398,2.79,133.7,red,256,TRUE
25,1661224948.729,2233.9841559936976,1244.5397537358306,1000,0.954,-1.376,2.783,114.7,red,256,TRUE
26,1661224948.822,4066.602606217548,-2530.751626352369,1000,4.887,-0.841,0.376,111.0,yellow,256,TRUE
27,1661224948.92,2920.2604083800475,-2845.0704968095597,1000,4.932,-0.478,0.269,102.7,green,256,TRUE
28,1661224950.132,2332.080475500267,1546.6230255989167,1000,0.798,-1.39,2.59,1135.9,red,256,TRUE
29,1661224953.383,1869.0831323797483,165.3866786259043,1000,5.111,-1.381,-0.314,100.4,blue,256,TRUE
30,1661224953.475,2407.2490272580435,1867.1318183732008,1000,5.877,-1.325,2.808,99.3,red,256,TRUE
31,1661224953.566,3996.5835443047167,-2581.9893265225605,1000,4.82,-1.46,-0.003,128.7,yellow,256,TRUE
32,1661224953.666,2881.2830257269625,-2784.114194735519,1000,4.923,-0.496,0.272,102.7,green,256,TRUE
33,1661224953.904,2207.947931945116,868.7356463343316,1000,4.955,-1.455,0.009,118.9,blue,256,TRUE
34,1661224954.007,2514.833496761449,2146.36995866965,1000,5.811,-1.405,2.693,105.7,red,256,TRUE
35,1661224954.099,3862.5801205041353,-2638.1048999453647,1000,4.863,-1.347,0.236,118.9,yellow,256,TRUE
36,1661224956.284,2461.405272895288,1574.9669306750384,1000,4.384,-1.44,-0.903,1122.0,blue,256,TRUE
37,1661224957.396,3836.424513369202,-2655.0241991204675,1000,4.808,-1.203,0.154,114.7,yellow,256,TRUE
38,1661224959.622,2609.686027236141,2112.3230480279426,1000,3.349,-1.465,-0.101,103.7,blue,256,TRUE
39,1661224959.717,2509.31796372864,2393.974510693042,1000,5.851,-1.323,2.943,98.8,red,256,TRUE
40,1661224959.808,3775.5226583589742,-2678.2507713138934,1000,4.808,-1.192,0.152,127.7,yellow,256,TRUE
41,1661224962.045,2657.6675083917607,2565.265141054704,1000,3.326,-1.409,-0.86,1122.9,blue,256,TRUE
42,1661224963.157,3775.6742244494476,-2691.6761059370892,1000,4.856,-0.974,0.317,117.0,yellow,256,TRUE
43,1661224965.385,2664.0162870802556,3051.148212108071,1000,2.914,-1.408,-0.711,103.7,blue,256,TRUE
44,1661224965.479,2468.4728342055346,2621.276490867677,1000,5.733,-1.249,3.007,99.3,red,256,TRUE
45,1661224965.571,3787.1895489844846,-2700.1626024370066,1000,4.851,-0.963,0.323,112.7,yellow,256,TRUE
46,1661224965.656,2949.0112827539924,-2781.1018601730048,1000,4.952,-0.344,0.261,131.7,green,256,TRUE
47,1661224965.894,2604.574665221605,3210.048106204489,1000,2.896,-1.41,-0.725,118.7,blue,256,TRUE
48,1661224965.996,2418.228302647313,2773.36672291395,1000,5.705,-1.242,3.046,120.7,red,256,TRUE
49,1661224966.101,3864.5134850170084,-2666.0908637403163,1000,4.85,-0.962,0.323,121.6,yellow,256,TRUE
50,1661224966.194,2979.065575433202,-2778.481682839934,1000,4.951,-0.347,0.262,119.5,green,256,TRUE
51,1661224966.38,2481.0276304692184,3208.4403969713985,1000,2.891,-1.41,-0.711,127.6,blue,256,TRUE
52,1661224966.491,2389.0253194513725,2877.45327163545,1000,5.69,-1.242,3.022,120.7,red,256,TRUE
53,1661224966.596,3979.4109001828365,-2626.394744828936,1000,4.848,-0.965,0.326,120.7,yellow,256,TRUE
54,1661224968.827,2452.422733035705,3098.699617891641,1000,2.87,-1.403,-0.675,1122.7,blue,256,TRUE
55,1661224969.938,4013.5381553550123,-2637.0804185174775,1000,4.838,-0.962,0.329,99.7,yellow,256,TRUE
56,1661224970.03,3057.165527238251,-2859.0847570393453,1000,4.948,-0.337,0.274,113.6,green,256,TRUE
57,1661224970.251,2438.7131269230617,3158.049701792517,1000,2.841,-1.396,-0.686,101.8,blue,256,TRUE
58,1661224970.34,2322.861418611514,2874.6617908592357,1000,5.87,-1.328,2.429,101.7,red,256,TRUE
59,1661224970.429,4066.651080553391,-2629.015879332355,1000,4.837,-0.959,0.328,117.4,yellow,256,TRUE
60,1661224970.531,3064.764349468136,-2850.012287687612,1000,4.95,-0.341,0.276,121.4,green,256,TRUE
61,1661224971.759,2170.367715231742,2811.3485431116083,1000,5.858,-1.293,2.537,1136.6,red,256,TRUE
62,1661224975.011,2450.325090943669,3185.381656998105,1000,2.843,-1.405,-0.73,114.7,blue,256,TRUE
63,1661224975.117,2119.922728840252,2794.135078149073,1000,5.842,-1.313,2.477,99.2,red,256,TRUE
64,1661224975.208,4069.380278976441,-2639.5867513382386,1000,4.844,-0.93,0.32,112.7,yellow,256,TRUE
65,1661224977.432,2471.801456753887,3193.0397534402728,1000,2.825,-1.402,-0.726,103.7,blue,256,TRUE
66,1661224977.527,2116.733277301364,2786.68996937826,1000,5.846,-1.343,2.409,98.8,red,256,TRUE
67,1661224977.618,4062.670968623326,-2645.16004582533,1000,4.848,-0.853,0.336,112.7,yellow,256,TRUE
68,1661224977.718,3057.648268784746,-2845.0930288306695,1000,4.896,-0.406,0.197,88.4,green,256,TRUE
69,1661224977.912,2486.5894420982363,3167.906797364707,1000,2.825,-1.402,-0.726,118.6,blue,256,TRUE
70,1661224978.015,2108.879500659506,2729.9051515135784,1000,5.839,-1.336,2.425,121.6,red,256,TRUE
71,1661224978.119,4065.167626088249,-2645.431193471534,1000,4.852,-0.845,0.334,120.7,yellow,256,TRUE
72,1661224980.369,2515.525413160247,3205.3438626367933,1000,2.817,-1.402,-0.72,1120.9,blue,256,TRUE
73,1661224981.48,4052.942899555333,-2659.3416600200985,1000,4.853,-0.84,0.34,114.8,yellow,256,TRUE
74,1661224981.572,3179.069443134143,-2783.1663236289037,1000,4.903,-0.407,0.219,82.8,green,256,TRUE
75,1661224981.79,2551.6086200280993,3236.5607155580797,1000,2.841,-1.404,-0.681,103.7,blue,256,TRUE
76,1661224981.882,2085.2264667351515,2726.5227447392404,1000,5.91,-1.323,2.556,101.8,red,256,TRUE
77,1661224981.97,4027.7459995910526,-2661.8436199455787,1000,4.845,-0.846,0.34,133.5,yellow,256,TRUE
78,1661224984.214,2568.737917117209,3204.84339753253,1000,2.836,-1.407,-0.676,106.1,blue,256,TRUE
79,1661224984.311,2091.52311780272,2749.0205937914275,1000,5.853,-1.344,2.436,113.7,red,256,TRUE
80,1661224984.405,4035.2556067436367,-2672.115318058168,1000,4.85,-0.844,0.349,125.7,yellow,256,TRUE
81,1661224984.502,3147.620145691221,-2767.309775206973,1000,4.904,-0.41,0.214,101.7,green,256,TRUE
82,1661224984.71,2575.1785484002553,3191.0578436286523,1000,2.839,-1.407,-0.678,103.7,blue,256,TRUE
83,1661224984.801,2160.1461799472477,2774.2839687423807,1000,5.854,-1.333,2.477,101.7,red,256,TRUE
84,1661224984.89,4026.7513431048133,-2671.2531599760405,1000,4.851,-0.836,0.346,117.7,yellow,256,TRUE
85,1661224984.992,3124.0981560119485,-2756.3164790299875,1000,4.901,-0.411,0.211,106.7,green,256,TRUE
86,1661224986.208,2227.7477268858643,2835.1932340303615,1000,5.858,-1.344,2.416,1120.2,red,256,TRUE
87,1661224987.314,3045.5694902078735,-2678.7421384883487,1000,4.898,-0.396,0.212,88.8,green,256,TRUE
88,1661224987.539,2586.7225609305347,3191.763090893491,1000,2.86,-1.432,-0.927,117.5,blue,256,TRUE
89,1661224987.641,2237.668405071941,2854.742401567934,1000,5.75,-1.421,2.714,105.7,red,256,TRUE
90,1661224987.733,4027.8529131667206,-2678.1503178604435,1000,4.855,-0.839,0.353,118.7,yellow,256,TRUE
91,1661224987.823,3021.5754774554753,-2642.0871775189503,1000,4.901,-0.407,0.208,103.7,green,256,TRUE
92,1661224988.015,2585.202748020977,3204.452340534605,1000,2.836,-1.427,-0.936,120.7,blue,256,TRUE
93,1661224988.12,2217.674603326896,2892.2089460357347,1000,5.914,-1.397,2.362,105.7,red,256,TRUE
94,1661224988.212,4019.350379548477,-2689.259352543134,1000,4.856,-0.831,0.352,117.6,yellow,256,TRUE
95,1661224988.301,2988.859285864471,-2608.313854734251,1000,4.902,-0.407,0.212,103.7,green,256,TRUE
96,1661224988.494,2601.250593550939,3154.207748876339,1000,2.839,-1.416,-0.681,121.7,blue,256,TRUE
97,1661224988.598,2230.6194863169335,2879.8141889062267,1000,6.014,-1.404,1.967,105.7,red,256,TRUE
98,1661224988.69,4041.041201146621,-2686.275235678769,1000,4.856,-0.826,0.349,103.7,yellow,256,TRUE
99,1661224988.78,2842.883751854561,-2660.643005755068,1000,4.905,-0.406,0.215,118.6,green,256,TRUE
100,1661224989.048,2567.8988949315976,3132.7111981196554,1000,3.036,-1.517,-0.045,120.7,blue,256,TRUE
101,1661224989.152,2259.9958415264155,2875.021543908548,1000,6.255,-1.386,2.389,105.7,red,256,TRUE
102,1661224989.245,4062.1349237390646,-2682.805910995424,1000,4.856,-0.822,0.349,102.8,yellow,256,TRUE
103,1661224991.458,2526.5688230862843,3398.3752524112892,1000,4.507,-1.386,-0.423,103.7,blue,256,TRUE
104,1661224991.554,2430.7970536186217,3073.8451299054213,1000,5.617,-1.403,2.839,127.7,red,256,TRUE
105,1661224991.66,4082.386675143233,-2680.5621355713424,1000,4.857,-0.83,0.35,126.7,yellow,256,TRUE
106,1661224993.913,2462.9958724313415,3938.884666403557,1000,4.866,-1.324,-0.401,103.7,blue,256,TRUE
107,1661224994.008,2521.4981848004113,3582.7441121172546,1000,5.455,-1.439,2.479,112.7,red,256,TRUE
108,1661224994.124,4030.7126338364405,-2666.9081295731976,1000,4.857,-0.822,0.348,1090.0,yellow,256,TRUE
109,1661224995.328,2363.290786428099,4514.13256862905,1000,5.532,-1.393,-0.962,110.7,blue,256,TRUE
110,1661224995.427,2550.409283554059,4197.050889159357,1000,4.759,-1.388,2.445,116.7,red,256,TRUE
111,1661224995.527,4077.4120986069215,-2690.216541984768,1000,4.861,-0.829,0.35,122.0,yellow,256,TRUE
112,1661224995.632,3569.0728181760264,-2040.1903259286476,1000,4.912,-0.401,0.228,90.7,green,256,TRUE
113,1661224995.803,2246.1942246278954,5123.615830010538,1000,5.697,-1.406,-0.709,99.8,blue,256,TRUE
114,1661224995.888,2643.6339570750624,4810.754549150659,1000,4.703,-1.383,2.567,118.7,red,256,TRUE
115,1661224995.991,4076.8539585856324,-2690.414012167609,1000,4.861,-0.821,0.347,136.6,yellow,256,TRUE
116,1661224998.237,1376.3506997347267,5563.672114517845,1000,5.83,-1.42,-0.604,90.0,blue,256,TRUE
117,1661224998.317,2658.1063801448977,5466.524170258534,1000,4.27,-1.192,2.945,114.4,red,256,TRUE
118,1661224998.411,4053.9584040136983,-2687.1427360803145,1000,4.864,-0.849,0.36,124.7,yellow,256,TRUE
119,1661225001.802,3930.518985127697,-2768.4491682738467,1000,4.869,-0.831,0.351,1118.9,yellow,256,TRUE
120,1661225003.078,1363.1311820055982,6233.739314155185,1000,5.832,-1.436,-0.524,97.7,blue,256,TRUE
121,1661225003.162,2664.4701630327654,6101.31770982203,1000,4.351,-1.225,2.669,103.7,red,256,TRUE
122,1661225003.251,3895.162001495919,-2747.696080597763,1000,4.869,-0.832,0.351,103.7,yellow,256,TRUE
123,1661225003.342,3517.365467809763,-2043.520175504639,1000,4.919,-0.447,0.295,119.0,green,256,TRUE
124,1661225003.549,1342.9315775732466,6514.916236187894,1000,5.827,-1.436,-0.511,121.6,blue,256,TRUE
125,1661225003.654,2602.273503883275,6568.743159334917,1000,4.259,-1.187,2.686,105.7,red,256,TRUE
126,1661225003.745,3839.3499130230007,-2739.7177777146767,1000,4.872,-0.842,0.356,118.8,yellow,256,TRUE
127,1661225005.93,1170.682775317785,6623.611864438895,1000,5.814,-1.441,-0.557,1137.6,blue,256,TRUE
128,1661225009.273,2578.8017226521592,6668.670275453162,1000,4.176,-1.204,2.736,128.4,red,256,TRUE
129,1661225011.651,2624.3297023036507,6718.774746213014,1000,4.146,-1.218,2.726,100.4,red,256,TRUE
130,1661225011.744,3818.3257363134885,-2719.507431681702,1000,4.859,-0.867,0.359,112.9,yellow,256,TRUE
131,1661225013.967,449.6550256811495,6586.457450659108,1000,5.703,-1.372,-0.666,90.2,blue,256,TRUE
132,1661225014.048,2625.1033718607473,6727.519584525472,1000,3.735,-1.383,2.658,99.2,red,256,TRUE
133,1661225014.14,3804.263192309756,-2726.6132501906213,1000,4.856,-0.868,0.363,127.7,yellow,256,TRUE
134,1661225016.394,455.5670153215298,6552.259671002353,1000,5.701,-1.362,-0.648,101.7,blue,256,TRUE
135,1661225016.488,2662.125990947684,6716.2120309659085,1000,4.018,-1.221,2.87,112.7,red,256,TRUE
136,1661225016.593,3794.97397944371,-2739.469253660487,1000,4.861,-0.846,0.343,112.7,yellow,256,TRUE
137,1661225016.678,3539.5189399986734,-2042.236196356416,1000,4.891,-0.453,0.249,132.7,green,256,TRUE
138,1661225016.947,1239.2611242278697,6663.7236385485185,1000,5.672,-1.359,-0.685,88.1,blue,256,TRUE
139,1661225017.021,2689.439677287715,6732.469060896808,1000,4.012,-1.225,2.867,119.1,red,256,TRUE
140,1661225017.124,3883.555604558413,-2678.0763237147285,1000,4.861,-0.849,0.346,120.7,yellow,256,TRUE
141,1661225017.217,3496.3623746975645,-2017.4411290698852,1000,4.897,-0.447,0.254,87.8,green,256,TRUE
142,1661225017.385,1164.8225968637169,6629.394016668295,1000,5.665,-1.361,-0.735,129.3,blue,256,TRUE
143,1661225017.498,2680.2859226459836,6715.093619811026,1000,4.006,-1.235,2.863,120.6,red,256,TRUE
144,1661225017.603,3935.9503868330235,-2694.5275360697237,1000,4.861,-0.851,0.347,120.7,yellow,256,TRUE
145,1661225020.99,4017.2417534171113,-2725.706781762778,1000,4.866,-0.852,0.337,1117.5,yellow,256,TRUE
146,1661225022.249,1192.355251408031,6710.237571282606,1000,5.969,-1.45,-0.712,98.7,blue,256,TRUE
147,1661225022.335,2696.3169611488015,6708.4389968513815,1000,2.969,-1.366,3.023,118.2,red,256,TRUE
148,1661225024.671,2746.4364991718753,6665.779139346833,1000,2.222,-1.431,3.003,100.7,red,256,TRUE
149,1661225024.763,4012.255266210713,-2743.1906578999387,1000,4.871,-0.846,0.338,127.4,yellow,256,TRUE
150,1661225024.863,3540.756178072746,-2015.4474582285166,1000,4.891,-0.475,0.251,117.4,green,256,TRUE
151,1661225025.069,1407.0900592192493,6852.244235517744,1000,0.143,-1.473,-0.06,121.3,blue,256,TRUE
152,1661225025.174,2791.85821296828,6694.149674581958,1000,2.029,-1.427,3.034,106.1,red,256,TRUE
153,1661225025.266,4008.3138577814548,-2743.2676419969007,1000,4.871,-0.845,0.337,118.6,yellow,256,TRUE
154,1661225027.497,2168.316542344143,6909.530489837899,1000,5.889,-1.395,-0.752,103.7,blue,256,TRUE
155,1661225027.592,2801.4802261565505,6747.486887902313,1000,3.496,-1.312,2.929,98.7,red,256,TRUE
156,1661225027.683,4019.9924442206507,-2735.1110230521685,1000,4.869,-0.855,0.345,112.7,yellow,256,TRUE
157,1661225029.921,2226.693068092616,6990.251712461183,1000,5.983,-1.441,-0.473,1136.3,blue,256,TRUE
158,1661225033.307,3171.601816189616,6176.410586322742,1000,1.744,-1.406,2.677,114.7,red,256,TRUE
159,1661225033.4,4038.549184633692,-2725.9425491841703,1000,4.883,-0.851,0.355,126.7,yellow,256,TRUE
160,1661225035.636,2839.8247103940635,6434.5901014332085,1000,0.927,-1.433,-1.227,105.7,blue,256,TRUE
161,1661225035.732,3613.864817373205,5536.959195466553,1000,3.509,-1.357,2.77,100.2,red,256,TRUE
162,1661225035.824,4031.195672646407,-2718.5087524911596,1000,4.883,-0.855,0.357,112.7,yellow,256,TRUE
163,1661225039.188,3848.3858251326624,-2793.0169553778173,1000,4.885,-0.85,0.352,1118.5,yellow,256,TRUE
164,1661225040.421,3431.4379732907837,5789.390666601196,1000,1.825,-1.357,-1.376,110.7,blue,256,TRUE
165,1661225040.519,4038.572348795887,4876.529710248338,1000,3.302,-1.333,2.998,116.7,red,256,TRUE
166,1661225040.62,3865.9745993421348,-2799.154845426631,1000,4.885,-0.844,0.349,120.7,yellow,256,TRUE
167,1661225040.712,3841.3017366240983,-1836.3626030485682,1000,4.929,-0.413,0.221,118.7,green,256,TRUE
168,1661225040.911,3890.687934298672,5179.611759102484,1000,1.962,-1.389,-1.309,114.6,blue,256,TRUE
169,1661225041.01,4451.156607441384,4283.1409011889145,1000,3.145,-1.325,2.966,120.5,red,256,TRUE
170,1661225041.114,3882.8338534462305,-2793.708253749724,1000,4.885,-0.85,0.352,105.7,yellow,256,TRUE
171,1661225041.208,3176.648782381724,-2434.821392243415,1000,4.939,-0.448,0.223,86.8,green,256,TRUE
172,1661225044.743,4430.256334417762,3422.102862062855,1000,2.826,-1.337,2.522,97.7,red,256,TRUE
173,1661225044.833,3894.5096029955457,-2784.1753732635643,1000,4.901,-0.82,0.364,112.7,yellow,256,TRUE
174,1661225048.214,3895.863251886596,-2773.935109338056,1000,4.912,-0.807,0.36,1117.8,yellow,256,TRUE
175,1661225049.461,4093.894047547899,4336.617273024137,1000,2.37,-1.422,-1.211,109.7,blue,256,TRUE
176,1661225049.559,4506.2586559237925,2215.664586474069,1000,1.389,-1.455,3.106,117.5,red,256,TRUE
177,1661225049.66,3880.0967884088695,-2758.00957649846,1000,4.917,-0.802,0.36,120.5,yellow,256,TRUE
178,1661225051.891,4749.234939297028,2846.5719011543147,1000,1.792,-1.35,-1.152,1120.8,blue,256,TRUE
179,1661225053.002,4054.396869660426,-2656.8285205027573,1000,4.922,-0.783,0.368,114.7,yellow,256,TRUE
180,1661225055.256,4903.337386475404,2045.2566761291243,1000,2.404,-1.468,-0.081,103.8,blue,256,TRUE
181,1661225055.352,4379.9126143774665,2141.740434084098,1000,0.487,-1.403,3.011,112.7,red,256,TRUE
182,1661225055.443,3990.0458184742524,-2631.256064380112,1000,4.927,-0.821,0.375,125.7,yellow,256,TRUE
183,1661225057.678,4511.343276758242,1917.2279740952763,1000,0.814,-1.434,-1.247,119.7,blue,256,TRUE
184,1661225057.776,4194.1925646368445,2218.7273898057347,1000,2.671,-1.356,2.548,112.7,red,256,TRUE
185,1661225057.88,4001.0599501265665,-2620.143406861525,1000,4.941,-0.795,0.375,127.7,yellow,256,TRUE
186,1661225060.118,4176.086207221199,1899.397519380703,1000,0.036,-1.378,-1.584,104.7,blue,256,TRUE
187,1661225060.215,4268.76074095606,2199.274129605174,1000,2.878,-1.406,2.566,97.8,red,256,TRUE
188,1661225060.304,3997.254796858633,-2622.6854618344855,1000,4.946,-0.804,0.371,114.3,yellow,256,TRUE
189,1661225062.531,3886.419959419607,1793.9622330275724,1000,0.38,-1.355,-1.805,102.7,blue,256,TRUE
190,1661225062.625,4121.530279076825,2181.5830654048086,1000,2.845,-1.388,-2.993,127.7,red,256,TRUE
191,1661225062.731,3991.19822212006,-2634.314880339005,1000,4.943,-0.813,0.367,127.7,yellow,256,TRUE
192,1661225064.968,4058.1583520393965,1972.230586601476,1000,6.136,-1.25,-1.626,104.7,blue,256,TRUE
193,1661225065.064,4601.770040919125,2364.628228835848,1000,1.674,-1.455,3.082,98.8,red,256,TRUE
194,1661225065.154,4023.7063819533228,-2646.6855502810463,1000,4.948,-0.819,0.371,112.7,yellow,256,TRUE
195,1661225067.394,4217.951852742362,2709.9979927788595,1000,1.793,-1.344,-1.715,102.7,blue,256,TRUE
196,1661225067.489,5109.625361030306,2831.7535938006567,1000,1.432,-1.384,2.476,112.7,red,256,TRUE
197,1661225067.58,4013.8228787496228,-2639.490229811488,1000,4.963,-0.808,0.36,101.8,yellow,256,TRUE
198,1661225070.973,4082.4076140039247,-2633.0344176772433,1000,4.94,-0.876,0.375,1118.6,yellow,256,TRUE
199,1661225072.257,5326.031410295961,2480.042826323964,1000,1.235,-1.372,2.83,1091.1,blue,256,TRUE
200,1661225072.257,5310.6589962876205,2773.7601064498144,1000,1.235,-1.372,2.83,1092.1,red,256,TRUE
201,1661225072.257,5987.237213793885,2653.0068818484474,1000,1.235,-1.372,2.83,1093.1,red,256,TRUE
202,1661225073.334,4033.0080400327224,-2613.2055280798277,1000,4.976,-0.82,0.339,104.2,yellow,256,TRUE
203,1661225073.425,3243.91281656153,-2440.918776320787,1000,4.923,-0.445,0.273,102.7,green,256,TRUE
204,1661225073.664,6261.256621120385,2629.76761904413,1000,0.227,-1.307,-1.846,103.6,blue,256,TRUE
205,1661225073.753,6028.968280209606,2624.1513606631243,1000,1.198,-1.364,2.777,103.7,red,256,TRUE
206,1661225073.843,4096.766389119048,-2640.126201302873,1000,4.993,-0.782,0.328,103.7,yellow,256,TRUE
207,1661225077.216,4078.464243485516,-2613.2562453245882,1000,5.019,-0.791,0.344,1119.9,yellow,256,TRUE
208,1661225078.478,6352.598475367658,2570.9655930639133,1000,1.469,-1.386,-1.654,97.7,blue,256,TRUE
209,1661225078.564,6248.253950353424,2484.2264487027196,1000,1.782,-1.323,2.845,115.4,red,256,TRUE
210,1661225080.93,5971.23148946966,2553.9695241742634,1000,4.258,-1.38,2.369,113.7,red,256,TRUE
211,1661225081.022,4089.3284594541583,-2608.5034319931606,1000,5.019,-0.793,0.345,126.7,yellow,256,TRUE
212,1661225083.273,5645.144460805558,2390.9425379448976,1000,1.793,-1.453,-0.075,105.7,blue,256,TRUE
213,1661225083.37,5436.93573970668,2445.9847809897506,1000,0.614,-1.341,2.961,112.7,red,256,TRUE
214,1661225083.461,4084.726397745504,-2598.9780712427596,1000,5.018,-0.794,0.346,126.7,yellow,256,TRUE
215,1661225085.712,5815.251637353312,1975.686157142137,1000,0.399,-1.53,0.02,105.7,blue,256,TRUE
216,1661225085.808,5028.577629869232,2062.554887120209,1000,1.568,-1.356,2.626,113.7,red,256,TRUE
217,1661225085.914,4072.0870561056727,-2597.242308960381,1000,5.02,-0.801,0.355,127.7,yellow,256,TRUE
218,1661225088.151,6007.728799186076,1802.2398139290551,1000,5.907,-1.461,-3.063,105.7,blue,256,TRUE
219,1661225088.249,4103.16128939305,1638.5567916148084,1000,2.184,-1.368,2.546,113.7,red,256,TRUE
220,1661225090.583,3569.2918784675253,1255.9706382830097,1000,2.067,-1.356,2.618,113.7,red,256,TRUE
221,1661225090.674,4123.035929954523,-2601.8475568433632,1000,5.015,-0.821,0.379,126.7,yellow,256,TRUE
222,1661225090.773,3177.2262362270344,-2441.0868150490965,1000,4.883,-0.48,0.296,132.6,green,256,TRUE
223,1661225092.015,3125.2049913054775,919.4249032528013,1000,2.129,-1.354,2.517,1138.0,red,256,TRUE
224,1661225095.269,6207.321474772182,1535.0439253963675,1000,4.656,-1.408,-1.168,99.6,blue,256,TRUE
225,1661225095.361,2952.3435615156454,361.96546634329997,1000,2.119,-1.428,2.499,112.6,red,256,TRUE
226,1661225097.724,2975.0030514084283,10.247513412101204,1000,2.152,-1.42,2.498,114.7,red,256,TRUE
227,1661225100.088,3007.2793769337927,-44.84612139180559,1000,2.147,-1.417,2.514,99.7,red,256,TRUE
228,1661225100.179,4073.6591252014127,-2563.5842101727344,1000,5.018,-0.814,0.375,127.7,yellow,256,TRUE
229,1661225102.432,5982.354410535674,1277.9188293145037,1000,3.804,-1.368,-1.731,1120.6,blue,256,TRUE
230,1661225103.543,4103.789786209679,-2571.0853759271026,1000,5.012,-0.817,0.379,115.0,yellow,256,TRUE
231,1661225105.771,5930.664863544417,938.8943306720121,1000,3.92,-1.283,-1.871,102.7,blue,256,TRUE
232,1661225105.865,2958.026300400797,-33.79317911036872,1000,0.173,-1.431,2.998,112.7,red,256,TRUE
233,1661225105.956,4095.7916311535096,-2560.0849925786706,1000,5.016,-0.822,0.381,126.8,yellow,256,TRUE
234,1661225108.223,6179.796898642765,886.6302038217486,1000,4.813,-1.23,-2.032,1137.7,blue,256,TRUE
235,1661225111.536,2981.8364493004374,-43.89587621381557,1000,1.594,-1.413,2.565,113.7,red,256,TRUE
236,1661225112.748,6066.259635037845,1327.3381124446087,1000,1.199,-1.408,-0.706,113.7,blue,256,TRUE
237,1661225112.849,2973.51721529594,197.66052050495406,1000,0.041,-1.336,2.927,117.7,red,256,TRUE
238,1661225114.121,5946.806539646082,1605.7320828973636,1000,1.445,-1.458,-0.108,101.8,blue,256,TRUE
239,1661225114.21,3087.306310571292,824.7845268717743,1000,0.089,-1.462,3.102,102.8,red,256,TRUE
240,1661225114.299,4040.5403446266087,-2564.5773800363445,1000,5.047,-0.801,0.396,91.2,yellow,256,TRUE
241,1661225114.497,5918.747532418477,1883.826027432536,1000,1.401,-1.452,-0.112,100.7,blue,256,TRUE
242,1661225114.586,3248.434701749449,1424.199455007233,1000,0.684,-1.431,2.81,101.7,red,256,TRUE
243,1661225114.674,4048.74235004686,-2591.5444839089455,1000,5.048,-0.806,0.399,90.8,yellow,256,TRUE
244,1661225114.857,6001.234890142721,2111.4254760173385,1000,1.32,-1.449,-1.248,130.1,blue,256,TRUE
245,1661225114.971,3492.66238021911,2027.6727333877361,1000,1.189,-1.42,-2.969,135.4,red,256,TRUE
246,1661225117.372,4015.0208574463336,2540.3341768534156,1000,0.746,-1.441,2.63,115.7,red,256,TRUE
247,1661225117.465,4023.0954421049246,-2594.971828251422,1000,5.041,-0.839,0.394,126.6,yellow,256,TRUE
248,1661225119.717,5630.00311696998,2586.198625538911,1000,3.756,-1.466,-0.097,103.7,blue,256,TRUE
249,1661225119.812,4384.462195927076,3056.0594848396486,1000,3.17,-1.391,2.79,99.0,red,256,TRUE
250,1661225119.903,3999.41009317855,-2594.1342464608574,1000,5.022,-0.857,0.386,127.7,yellow,256,TRUE
251,1661225122.155,5502.811095801883,2512.8902581960583,1000,0.929,-1.497,-3.094,104.7,blue,256,TRUE
252,1661225122.251,4653.533646118798,3351.1164784021366,1000,3.257,-1.334,2.614,98.8,red,256,TRUE
253,1661225122.342,3986.0727774455104,-2599.582432054734,1000,4.993,-0.856,0.385,113.8,yellow,256,TRUE
254,1661225124.564,5708.633409069393,2196.6115005566003,1000,5.643,-1.499,-3.073,104.8,blue,256,TRUE
255,1661225124.66,4628.0714476405155,3203.9306034599263,1000,2.649,-1.442,2.873,113.8,red,256,TRUE
256,1661225127.039,4960.351356311326,3169.479992020298,1000,1.401,-1.412,2.721,113.0,red,256,TRUE
257,1661225127.144,3987.6527420636976,-2602.588579623975,1000,4.994,-0.818,0.377,127.9,yellow,256,TRUE
258,1661225127.244,3185.4148264201845,-2495.7100291828197,1000,4.851,-0.496,0.254,133.2,green,256,TRUE
259,1661225127.457,5929.562764683549,2013.9064860599508,1000,0.528,-1.418,-1.153,100.2,blue,256,TRUE
260,1661225127.543,5194.488207911895,3130.6397994366366,1000,0.412,-1.292,-2.998,119.2,red,256,TRUE
261,1661225129.895,5172.417734657116,3149.3277866634667,1000,1.602,-1.401,2.28,114.7,red,256,TRUE
262,1661225132.26,5162.526019247805,3032.700321574536,1000,2.619,-1.368,2.471,99.8,red,256,TRUE
263,1661225132.351,4040.5193091784063,-2607.457631125366,1000,4.951,-0.849,0.38,112.7,yellow,256,TRUE
264,1661225134.573,5943.884039201853,1789.2434334878571,1000,5.231,-1.444,-0.38,104.7,blue,256,TRUE
265,1661225134.669,5140.992454077655,2893.296627126819,1000,2.656,-1.19,-2.689,115.7,red,256,TRUE
266,1661225134.761,4017.0503822359365,-2611.796433183509,1000,4.95,-0.84,0.377,126.7,yellow,256,TRUE
267,1661225138.125,4031.16255898612,-2619.2502685516224,1000,4.957,-0.832,0.384,1117.5,yellow,256,TRUE
268,1661225139.384,5943.53011797552,1543.648754896047,1000,5.186,-1.419,-2.33,97.7,blue,256,TRUE
269,1661225139.469,5382.830854022349,2841.028372157018,1000,2.412,-1.402,2.917,116.7,red,256,TRUE
270,1661225141.82,5265.660981662758,2691.185289196718,1000,2.935,-1.355,2.235,114.7,red,256,TRUE
271,1661225144.155,5122.327037404183,2469.1834506195837,1000,2.538,-1.169,-2.667,99.8,red,256,TRUE
272,1661225144.247,3560.7863646302453,-2337.3262308790468,1000,4.628,-1.496,-0.019,113.7,yellow,256,TRUE
273,1661225144.346,2982.8736832440063,-2062.8148009911806,1000,5.274,-1.275,-0.559,102.5,green,256,TRUE
274,1661225144.529,6372.027338797481,1149.221446415146,1000,5.655,-1.504,-0.038,99.7,blue,256,TRUE
275,1661225144.615,5050.768861442462,2276.099333813981,1000,2.551,-1.164,-2.674,103.7,red,256,TRUE
276,1661225144.705,3130.008631653025,-1953.7394114616218,1000,5.274,-1.538,-0.032,103.8,yellow,256,TRUE
277,1661225144.796,2574.776810701068,-1747.4327687609027,1000,5.546,-1.316,-0.786,101.7,green,256,TRUE
278,1661225144.978,6785.100834211778,1247.3211999718494,1000,5.797,-1.467,-0.057,114.7,blue,256,TRUE
279,1661225145.077,5001.519673765522,2237.576452395066,1000,2.639,-1.244,-2.827,120.6,red,256,TRUE
280,1661225145.181,2717.0120492873734,-1576.0596828470198,1000,5.994,-1.511,-3.085,120.7,yellow,256,TRUE
281,1661225145.286,2446.7642750301443,-1146.4124181868726,1000,5.791,-1.542,-0.01,105.7,green,256,TRUE
282,1661225145.485,6753.77488905122,1338.7591917788582,1000,5.786,-1.42,-0.431,101.7,blue,256,TRUE
283,1661225145.573,5034.105457930128,2193.1353854872127,1000,2.765,-1.288,2.908,102.7,red,256,TRUE
284,1661225145.662,2366.7621966757315,-1115.0250626244836,1000,0.033,-1.517,-3.089,103.7,yellow,256,TRUE
285,1661225145.753,2419.8887705196953,-452.22615446231003,1000,5.98,-1.309,-0.314,102.7,green,256,TRUE
286,1661225145.935,6636.602776835771,1195.264213925375,1000,5.847,-1.45,-0.164,99.7,blue,256,TRUE
287,1661225146.022,4995.368898150292,2152.0410406005153,1000,2.555,-1.35,2.857,102.7,red,256,TRUE
288,1661225146.112,2116.3972797422025,-572.7699560677712,1000,0.008,-1.535,-3.111,117.7,yellow,256,TRUE
289,1661225146.214,2492.0100327262376,303.5746960601943,1000,5.753,-1.372,0.037,105.5,green,256,TRUE
290,1661225146.4,6827.846885129533,1169.9201162598445,1000,5.866,-1.465,-0.086,99.9,blue,256,TRUE
291,1661225146.486,4941.591793606771,2158.09587417201,1000,2.582,-1.369,2.693,103.7,red,256,TRUE
292,1661225146.576,1884.9049334149374,-46.3078387825548,1000,6.232,-1.494,-0.001,103.8,yellow,256,TRUE
293,1661225146.665,2594.9838910234457,1099.6100864013472,1000,6.229,-1.261,-0.192,103.7,green,256,TRUE
294,1661225146.86,7021.1770947512005,1186.468592357662,1000,5.918,-1.434,-1.281,88.8,blue,256,TRUE
295,1661225146.936,4939.574682926838,2231.746904830416,1000,2.857,-1.383,2.499,103.1,red,256,TRUE
296,1661225147.026,2244.670034832446,293.0690761049628,1000,0.115,-1.497,-0.038,117.8,yellow,256,TRUE
297,1661225147.128,2921.875038471617,1499.2250232635681,1000,0.278,-1.532,-0.037,121.0,green,256,TRUE
298,1661225147.326,7153.036193789271,1272.1016862905915,1000,6.116,-1.431,-1.321,101.9,blue,256,TRUE
299,1661225147.416,4889.891233803392,2250.616205902837,1000,3.108,-1.346,2.574,101.7,red,256,TRUE
300,1661225147.505,2592.181930324145,561.2676059760493,1000,6.173,-1.457,-0.02,102.7,yellow,256,TRUE
301,1661225147.594,3263.2825079514855,1883.4691226443617,1000,0.444,-1.548,3.126,103.7,green,256,TRUE
302,1661225147.777,7321.915918056021,1173.5749727257833,1000,5.944,-1.417,-1.457,99.7,blue,256,TRUE
303,1661225147.863,4901.127526475694,2238.6447418943794,1000,2.841,-1.367,2.712,104.1,red,256,TRUE
304,1661225147.953,2918.9840751105494,845.0316808875009,1000,5.784,-1.441,-0.244,104.0,yellow,256,TRUE
305,1661225148.045,3468.158824512923,2124.374782708473,1000,0.465,-1.533,0.035,101.8,green,256,TRUE
306,1661225148.298,7390.816363760554,1045.1366936927298,1000,5.954,-1.42,-1.494,103.7,blue,256,TRUE
307,1661225148.387,4910.096936736741,2283.623462710712,1000,3.043,-1.31,2.646,103.7,red,256,TRUE
308,1661225148.479,3218.9347480421948,1061.3659236591493,1000,5.99,-1.439,0.079,102.0,yellow,256,TRUE
309,1661225148.568,3614.775116277741,2259.076003568755,1000,0.554,-1.527,0.02,102.7,green,256,TRUE
310,1661225148.751,7473.40365572863,1157.0505610634755,1000,5.777,-1.398,-1.508,99.8,blue,256,TRUE
311,1661225148.837,4907.901793806581,2281.9492492863274,1000,2.834,-1.305,2.988,103.7,red,256,TRUE
312,1661225148.927,3433.0321291616387,1222.241083314256,1000,6.028,-1.518,0.043,103.8,yellow,256,TRUE
313,1661225149.018,3739.664027014154,2294.846580719934,1000,0.417,-1.366,-0.143,101.8,green,256,TRUE
314,1661225149.224,7413.497123569631,1209.552400383755,1000,5.938,-1.413,-1.712,90.7,blue,256,TRUE
315,1661225149.301,4851.611525033212,2261.7826669759884,1000,2.535,-1.313,3.134,103.7,red,256,TRUE
316,1661225149.391,3623.737211488173,1402.86014651554,1000,6.003,-1.56,3.131,103.8,yellow,256,TRUE
317,1661225149.483,3766.0171483320305,2301.7504132056474,1000,0.521,-1.401,-0.328,101.7,green,256,TRUE
318,1661225149.721,7363.987799104284,1204.435198140326,1000,5.926,-1.414,-1.702,102.7,blue,256,TRUE
319,1661225149.811,4806.641495832489,2247.566855671999,1000,2.555,-1.383,3.098,102.7,red,256,TRUE
320,1661225149.899,3786.208896702497,1450.0134026102078,1000,5.958,-1.533,-0.015,103.7,yellow,256,TRUE
321,1661225149.99,3773.125514074614,2245.8383324856677,1000,0.764,-1.457,-0.028,102.8,green,256,TRUE
322,1661225150.182,7319.366013156975,1136.4988012581591,1000,5.914,-1.413,-1.709,120.7,blue,256,TRUE
323,1661225150.286,4794.181833177818,2241.8638216729737,1000,2.652,-1.36,2.91,105.7,red,256,TRUE
324,1661225150.378,3834.2682726300486,1409.6552869910165,1000,5.858,-1.559,3.136,103.7,yellow,256,TRUE
325,1661225150.468,3745.498245023071,2082.495889839434,1000,0.637,-1.241,-0.203,104.6,green,256,TRUE
326,1661225150.649,7366.337917032498,1121.454706010214,1000,5.983,-1.425,-1.755,86.7,blue,256,TRUE
327,1661225150.724,4785.966290350297,2253.1149492821896,1000,2.549,-1.365,3.006,101.7,red,256,TRUE
328,1661225150.813,3862.895815771611,1409.1893701110048,1000,5.851,-1.515,3.096,103.3,yellow,256,TRUE
329,1661225150.902,3785.7323924746993,1899.6571854095446,1000,0.454,-1.32,-0.588,103.7,green,256,TRUE
330,1661225151.155,7377.876339138151,1182.0930804662044,1000,6.066,-1.439,-1.942,120.7,blue,256,TRUE
331,1661225151.259,4822.033285758022,2235.186883094167,1000,2.274,-1.332,-3.07,105.7,red,256,TRUE
332,1661225151.351,3870.79676217742,1410.4479177850928,1000,5.958,-1.473,3.052,103.7,yellow,256,TRUE
333,1661225151.441,3873.900411059336,1831.4461829840748,1000,6.157,-1.405,-0.276,104.7,green,256,TRUE
334,1661225151.623,7370.468505733676,1168.219162569984,1000,6.039,-1.431,-1.98,100.5,blue,256,TRUE
335,1661225151.712,4801.2098628654385,2236.876656245342,1000,2.956,-1.323,2.332,101.8,red,256,TRUE
336,1661225151.8,3901.729875874796,1444.896239609837,1000,5.92,-1.52,3.091,103.1,yellow,256,TRUE
337,1661225151.89,3931.8615409472513,1763.1697418663855,1000,5.462,-1.343,-0.841,103.6,green,256,TRUE
338,1661225152.082,7345.238952694129,1137.8891875599147,1000,6.042,-1.431,-1.982,105.7,blue,256,TRUE
339,1661225152.174,4871.051548157687,2250.1591253551674,1000,2.58,-1.354,2.467,118.7,red,256,TRUE
340,1661225152.276,3924.590836292218,1439.4437129855266,1000,5.853,-1.53,0.004,105.7,yellow,256,TRUE
341,1661225152.368,4058.6353197486715,1686.4272651589354,1000,5.397,-1.38,-0.735,104.1,green,256,TRUE
342,1661225152.608,7332.472937345193,1139.093327370215,1000,6.041,-1.432,-1.963,103.7,blue,256,TRUE
343,1661225152.698,4933.676135897843,2279.9103093709687,1000,2.281,-1.36,2.788,104.7,red,256,TRUE
344,1661225152.79,3873.596409347138,1489.3089684149181,1000,5.962,-1.496,-0.013,101.8,yellow,256,TRUE
345,1661225152.878,4163.107542471752,1611.1468124566206,1000,5.621,-1.412,-0.382,102.8,green,256,TRUE
346,1661225156.444,4949.2582044652145,2291.7490186701452,1000,2.337,-1.305,-2.988,128.6,red,256,TRUE
347,1661225156.551,3892.1763707522637,1594.4576642387983,1000,5.925,-1.451,-3.06,111.7,yellow,256,TRUE
348,1661225156.65,4203.884507880758,1624.9818353061044,1000,5.391,-1.384,-0.2,102.7,green,256,TRUE
349,1661225156.832,7050.653508753544,1124.8124371589468,1000,4.212,-1.209,-1.734,99.7,blue,256,TRUE
350,1661225156.92,4967.543277121759,2257.781538741721,1000,2.44,-1.314,3.067,101.9,red,256,TRUE
351,1661225157.009,3914.662041410049,1677.3865669493136,1000,6.122,-1.513,-3.11,117.6,yellow,256,TRUE
352,1661225157.111,4257.38835058655,1683.315704423365,1000,5.479,-1.4,-0.158,120.5,green,256,TRUE
353,1661225159.46,4336.146614113174,1659.0216966663731,1000,5.276,-1.499,-0.05,1182.2,green,256,TRUE
354,1661225160.649,6556.458869155343,1220.6960357865448,1000,4.821,-1.179,-2.707,98.1,blue,256,TRUE
355,1661225160.739,4919.084584524641,2267.6812155309167,1000,2.561,-1.318,2.97,98.1,red,256,TRUE
356,1661225160.826,4027.3651479669984,1781.8391022918875,1000,0.395,-1.52,-3.114,100.8,yellow,256,TRUE
357,1661225160.913,4346.661339988729,1660.9558109647178,1000,5.363,-1.489,-0.009,103.4,green,256,TRUE
358,1661225161.105,6184.2998719042735,1303.8116794786504,1000,4.98,-1.364,-2.561,120.7,blue,256,TRUE
359,1661225161.21,4951.497384699434,2290.766904990251,1000,2.542,-1.31,2.967,105.6,red,256,TRUE
360,1661225161.304,4020.3847142662707,1856.3585639270325,1000,0.453,-1.523,-3.129,100.8,yellow,256,TRUE
361,1661225161.391,4324.378190099057,1637.3402365381278,1000,5.381,-1.486,-0.007,104.8,green,256,TRUE
362,1661225161.584,5836.45971683058,1377.034538077005,1000,5.108,-1.386,-2.452,90.7,blue,256,TRUE
363,1661225161.66,4901.951915704462,2288.8711720784595,1000,2.531,-1.31,2.967,103.6,red,256,TRUE
364,1661225161.75,4057.3920836477446,1935.096033743751,1000,0.442,-1.534,-3.123,103.7,yellow,256,TRUE
365,1661225161.842,4311.234947939516,1594.4997777705985,1000,5.357,-1.49,-0.013,101.7,green,256,TRUE
366,1661225162.079,5433.575726185681,1488.4568384389056,1000,5.196,-1.369,-2.29,118.7,blue,256,TRUE
367,1661225162.182,4901.109057161684,2233.163760687327,1000,2.434,-1.328,3.014,120.7,red,256,TRUE
368,1661225162.287,4059.6052406854456,1988.203637820069,1000,0.472,-1.561,3.137,105.7,yellow,256,TRUE
369,1661225162.378,4298.528059513156,1595.1840894582592,1000,5.37,-1.48,-0.003,104.0,green,256,TRUE
370,1661225162.562,5021.363320166678,1640.9189195282854,1000,5.221,-1.373,-2.207,99.7,blue,256,TRUE
371,1661225162.648,4943.345642084321,2223.2836111208453,1000,2.393,-1.324,2.926,103.8,red,256,TRUE
372,1661225162.738,4114.618592025791,2053.27181605548,1000,0.514,-1.568,0.001,103.7,yellow,256,TRUE
373,1661225162.829,4285.376695076417,1564.3314746998842,1000,5.413,-1.467,0.002,101.8,green,256,TRUE
374,1661225163.011,4930.999484502575,1812.754788584067,1000,5.24,-1.45,-2.058,114.7,blue,256,TRUE
375,1661225163.11,4937.664314656694,2258.593019254605,1000,2.398,-1.317,2.825,120.5,red,256,TRUE
376,1661225163.214,4114.519755027242,2091.075852731127,1000,0.516,-1.553,0.001,105.7,yellow,256,TRUE
377,1661225163.307,4185.354817300041,1557.2344650365155,1000,5.383,-1.464,-0.001,103.2,green,256,TRUE
378,1661225163.546,4911.0274829584605,1851.838955002616,1000,5.161,-1.431,-1.853,104.4,blue,256,TRUE
379,1661225163.636,4935.003951098615,2173.517452658694,1000,2.441,-1.314,2.669,103.7,red,256,TRUE
380,1661225163.726,4019.206244651048,2085.1841688675263,1000,0.514,-1.551,0.008,103.8,yellow,256,TRUE
381,1661225163.818,4126.916840215824,1522.492702325623,1000,5.352,-1.464,-0.008,101.7,green,256,TRUE
382,1661225163.999,4793.951101867981,1865.0233518169525,1000,5.155,-1.379,-2.114,114.7,blue,256,TRUE
383,1661225164.098,4956.517585194945,2177.8431488336005,1000,2.5,-1.358,2.51,121.1,red,256,TRUE
384,1661225164.203,4013.404986201565,2071.783828743461,1000,0.5,-1.553,0.003,120.7,yellow,256,TRUE
385,1661225164.308,4083.410655435205,1535.5583663890627,1000,5.331,-1.466,-0.007,105.9,green,256,TRUE
386,1661225164.494,4732.606885443188,1859.5304746501004,1000,5.145,-1.381,-2.093,99.8,blue,256,TRUE
387,1661225164.581,4950.032243392391,2193.697142739104,1000,2.654,-1.335,2.786,102.7,red,256,TRUE
388,1661225164.67,3997.9867484676356,2074.1958132998275,1000,0.477,-1.551,-0.002,102.7,yellow,256,TRUE
389,1661225164.759,4023.7239120996387,1561.5669820798523,1000,5.32,-1.463,-0.007,103.7,green,256,TRUE
390,1661225165.0,4755.556486963754,1836.180485307944,1000,5.159,-1.392,-2.077,101.7,blue,256,TRUE
391,1661225165.089,4872.595308516517,2241.865480142716,1000,2.632,-1.334,2.989,118.1,red,256,TRUE
392,1661225165.191,3978.396449669195,2095.4439775553406,1000,0.472,-1.542,-0.007,120.6,yellow,256,TRUE
393,1661225165.296,4017.200098365014,1557.3067140898704,1000,5.307,-1.475,-0.01,105.6,green,256,TRUE
394,1661225168.894,3838.1686453502457,2324.7615618166465,1000,0.011,-1.676,0.005,1132.9,red,256,TRUE
395,1661225168.894,3905.9111770443546,2133.7241988596847,1000,0.011,-1.676,0.005,1134.9,yellow,256,TRUE
396,1661225168.894,3894.6997628379704,2172.791531284892,1000,0.011,-1.676,0.005,1135.9,yellow,256,TRUE
397,1661225170.015,4023.7442945516445,1581.567604658272,1000,5.442,-1.452,0.026,101.7,green,256,TRUE
398,1661225170.254,4820.996562286184,1778.1005442331245,1000,5.334,-1.424,-1.857,102.7,blue,256,TRUE
399,1661225170.342,4590.18334692513,2212.277390171488,1000,2.362,-1.335,2.853,103.7,red,256,TRUE
400,1661225170.432,3946.0508882159043,2130.0979511709575,1000,0.614,-1.549,3.127,104.3,yellow,256,TRUE
401,1661225170.524,4040.146443634239,1593.8212445750553,1000,5.5,-1.418,0.324,102.7,green,256,TRUE
402,1661225170.704,4826.363590987426,1757.9760564435692,1000,5.247,-1.41,-1.841,101.7,blue,256,TRUE
403,1661225170.794,4730.68897110331,2205.433255153344,1000,2.69,-1.296,2.88,101.8,red,256,TRUE
404,1661225170.882,3974.838924390904,2121.705588699619,1000,0.603,-1.547,3.127,102.7,yellow,256,TRUE
405,1661225170.971,4106.041885422928,1628.7360353130791,1000,5.415,-1.439,0.116,103.8,green,256,TRUE
406,1661225171.164,4821.974928007864,1721.6714231927251,1000,4.933,-1.379,-1.697,120.6,blue,256,TRUE
407,1661225171.269,4758.442976835347,2245.538578928452,1000,2.574,-1.305,2.955,105.7,red,256,TRUE
408,1661225171.361,3988.4374545729565,2107.937242760438,1000,0.597,-1.551,3.126,103.7,yellow,256,TRUE
409,1661225171.45,4156.080935197188,1609.235838245478,1000,5.115,-1.33,-0.484,104.4,green,256,TRUE
410,1661225171.69,4952.400414062079,1685.1465098189592,1000,5.013,-1.386,-2.31,103.7,blue,256,TRUE
411,1661225171.782,4773.432026234174,2279.047290151841,1000,2.605,-1.311,2.918,102.0,red,256,TRUE
412,1661225171.871,4042.302861765327,2097.8073896557266,1000,0.523,-1.564,0.0,102.6,yellow,256,TRUE
413,1661225171.96,4122.763455620668,1595.6201208290504,1000,5.222,-1.424,-0.615,103.6,green,256,TRUE
414,1661225172.152,4914.038269987289,1679.3599088906296,1000,4.849,-1.25,-2.738,120.6,blue,256,TRUE
415,1661225172.257,4842.611982282462,2219.534016046771,1000,2.61,-1.316,2.908,105.7,red,256,TRUE
416,1661225172.349,4086.4683734914793,2078.6555396775916,1000,0.515,-1.558,0.01,103.8,yellow,256,TRUE
417,1661225172.439,4094.752358763117,1592.0027738441859,1000,5.274,-1.449,-0.692,104.5,green,256,TRUE
418,1661225172.632,4854.518794830917,1662.6030380249085,1000,4.879,-1.306,-2.677,105.8,blue,256,TRUE
419,1661225172.724,5023.356793476415,2182.077798363296,1000,2.699,-1.344,2.911,104.8,red,256,TRUE
420,1661225172.813,4087.04252958281,2057.1995295696747,1000,0.513,-1.557,-3.135,103.7,yellow,256,TRUE
421,1661225172.905,4025.597096087174,1583.97293021466,1000,5.234,-1.451,-0.884,101.7,green,256,TRUE
422,1661225173.142,4750.94254723772,1640.4995370111262,1000,4.836,-1.3,-2.621,118.7,blue,256,TRUE
423,1661225173.245,4948.870706753658,2218.080255423758,1000,2.802,-1.286,2.63,105.7,red,256,TRUE
424,1661225173.337,4021.4197093048188,2126.0211422851316,1000,0.437,-1.496,-3.105,104.4,yellow,256,TRUE
425,1661225173.427,3972.9675402371104,1573.7811229133233,1000,5.22,-1.443,-0.914,104.1,green,256,TRUE
426,1661225173.62,4724.700560141725,1609.3617790445853,1000,4.788,-1.345,-2.362,105.7,blue,256,TRUE
427,1661225173.712,4932.246789465073,2199.33259107732,1000,2.736,-1.311,2.679,104.7,red,256,TRUE
428,1661225173.802,3975.370516143254,2166.6500818318727,1000,0.432,-1.499,-3.103,103.7,yellow,256,TRUE
429,1661225173.894,3888.9925549725904,1524.791999254451,1000,5.201,-1.443,-0.908,101.7,green,256,TRUE
430,1661225174.075,4709.316673770726,1578.405289535055,1000,4.686,-1.3,-2.399,114.6,blue,256,TRUE
431,1661225174.174,4932.810977145545,2176.767041225663,1000,2.671,-1.304,2.721,121.2,red,256,TRUE
432,1661225174.279,3978.8642859130287,2210.6862317566156,1000,0.439,-1.523,-3.108,105.7,yellow,256,TRUE
433,1661225174.371,3910.649316131518,1588.863429334691,1000,5.215,-1.449,-0.884,104.2,green,256,TRUE
434,1661225174.581,4617.312721477375,1571.1200781739751,1000,4.607,-1.247,-2.359,103.7,blue,256,TRUE
435,1661225174.67,4940.076593814761,2141.5011939049054,1000,2.631,-1.3,2.764,103.5,red,256,TRUE
436,1661225174.76,3966.6450957617258,2233.4308742225644,1000,0.455,-1.538,-3.111,103.8,yellow,256,TRUE
437,1661225174.852,3950.9329882083525,1647.4763039044565,1000,5.224,-1.448,-0.852,101.8,green,256,TRUE
438,1661225175.033,4631.468966904933,1571.6114042035451,1000,4.662,-1.283,-2.342,114.7,blue,256,TRUE
439,1661225175.132,4898.988125321154,2199.801566818455,1000,2.616,-1.29,2.788,120.6,red,256,TRUE
440,1661225175.236,3933.6362086660647,2226.104717224683,1000,0.478,-1.542,-0.025,105.7,yellow,256,TRUE
441,1661225175.329,3936.58600742467,1656.4926804243203,1000,5.25,-1.451,-0.783,102.7,green,256,TRUE
442,1661225175.512,4685.247291307397,1565.60452690744,1000,4.656,-1.297,-2.307,114.7,blue,256,TRUE
443,1661225175.611,4902.766699002954,2211.990196941503,1000,2.619,-1.277,2.807,105.7,red,256,TRUE
444,1661225175.703,3963.2073769654125,2223.773106752457,1000,0.499,-1.536,-0.015,104.7,yellow,256,TRUE
445,1661225175.792,3919.6511387044375,1664.4451757025909,1000,5.283,-1.453,-0.076,103.7,green,256,TRUE
446,1661225176.033,4747.512453229065,1488.2058030494782,1000,4.536,-1.304,-2.164,102.7,blue,256,TRUE
447,1661225176.122,4906.797962316832,2186.8386593406835,1000,2.606,-1.282,2.803,117.7,red,256,TRUE
448,1661225176.224,4026.2962912201347,2220.6786800622303,1000,0.508,-1.532,-0.014,105.7,yellow,256,TRUE
449,1661225176.321,3961.2767709318746,1688.1326656607923,1000,5.283,-1.452,-0.075,99.8,green,256,TRUE
450,1661225176.499,4797.195592190082,1417.732506421474,1000,4.602,-1.33,-2.079,115.7,blue,256,TRUE
451,1661225176.598,4911.153839289466,2228.5028802886845,1000,2.518,-1.297,2.811,105.7,red,256,TRUE
452,1661225176.69,4080.9005866410166,2206.524481035973,1000,0.527,-1.518,-0.004,103.7,yellow,256,TRUE
453,1661225176.78,3951.322931438288,1711.7766564391743,1000,5.293,-1.452,-0.072,103.7,green,256,TRUE
454,1661225176.963,4802.421942523743,1436.66651468755,1000,4.661,-1.342,-1.966,99.7,blue,256,TRUE
455,1661225177.05,4947.780454418099,2236.8345351588227,1000,2.433,-1.305,2.752,117.7,red,256,TRUE
456,1661225177.152,4051.5226694888765,2198.7108219892084,1000,0.527,-1.514,-0.001,121.7,yellow,256,TRUE
457,1661225177.256,3909.312149964493,1722.783878433536,1000,5.34,-1.453,-0.053,105.7,green,256,TRUE
458,1661225177.454,4992.384675701396,1420.0293473020522,1000,4.447,-1.305,-1.908,103.7,blue,256,TRUE
459,1661225177.543,4942.632071479436,2234.946317576008,1000,2.425,-1.324,2.702,117.7,red,256,TRUE
460,1661225177.645,4049.8929728724797,2182.180030902616,1000,0.539,-1.504,0.014,105.7,yellow,256,TRUE
461,1661225177.737,3935.005246682788,1745.9229844720858,1000,5.463,-1.456,-0.026,103.8,green,256,TRUE
462,1661225177.922,4937.681755146127,1378.957362030763,1000,4.359,-1.334,-2.011,97.7,blue,256,TRUE
463,1661225178.007,4910.62254413039,2221.3076324659964,1000,2.461,-1.33,2.667,117.7,red,256,TRUE
464,1661225178.109,4079.6779689806667,2187.8064447706706,1000,0.511,-1.512,0.043,105.7,yellow,256,TRUE
465,1661225178.202,3941.4541133317794,1711.8762440419257,1000,5.435,-1.463,-0.031,117.7,green,256,TRUE
466,1661225178.397,4899.867700953077,1356.9360063730237,1000,4.547,-1.365,-2.254,101.7,blue,256,TRUE
467,1661225178.487,4904.495614758622,2242.819317659196,1000,2.495,-1.316,2.725,101.7,red,256,TRUE
468,1661225178.575,4134.6643026701995,2178.2978792383333,1000,0.445,-1.53,0.025,103.7,yellow,256,TRUE
469,1661225178.665,4003.582546944747,1699.4962390911448,1000,5.514,-1.464,-0.01,102.7,green,256,TRUE
470,1661225178.904,4889.154086146118,1394.1667050119795,1000,4.55,-1.368,-2.174,103.7,blue,256,TRUE
471,1661225178.996,4899.793247750543,2267.566123860192,1000,2.427,-1.317,2.809,101.7,red,256,TRUE
472,1661225179.083,4074.815260621343,2169.1301170973516,1000,0.422,-1.52,-0.025,118.7,yellow,256,TRUE
473,1661225179.186,3994.160816464673,1687.1530925113868,1000,5.609,-1.45,0.181,120.7,green,256,TRUE
474,1661225180.416,4991.191587797502,2226.7763528993733,1000,2.394,-1.281,2.885,1121.2,red,256,TRUE
475,1661225181.522,4013.984064566071,1738.452742927578,1000,5.74,-1.37,0.305,104.7,green,256,TRUE
476,1661225181.763,4789.762967890852,1363.5911382398347,1000,3.57,-1.285,-1.698,102.7,blue,256,TRUE
477,1661225181.854,5005.18147045121,2194.871205862437,1000,2.501,-1.333,2.934,101.7,red,256,TRUE
478,1661225181.943,4088.1968706049024,2137.5726041451126,1000,0.573,-1.534,-3.111,102.7,yellow,256,TRUE
479,1661225182.034,4027.948517859704,1713.2527018170667,1000,5.739,-1.36,0.331,101.8,green,256,TRUE
480,1661225182.24,4678.088180168947,1313.8530376793544,1000,3.39,-1.345,-1.984,105.7,blue,256,TRUE
481,1661225182.332,5050.542320066151,2186.628028992598,1000,2.523,-1.337,2.595,102.8,red,256,TRUE
482,1661225182.422,4106.564039400266,2108.222000261059,1000,0.587,-1.539,-3.111,102.8,yellow,256,TRUE
483,1661225182.513,4021.661947277163,1708.5442021444042,1000,5.733,-1.366,0.34,116.7,green,256,TRUE
484,1661225183.723,5148.391276682337,2207.1455417252114,1000,2.374,-1.217,2.922,104.7,red,256,TRUE
485,1661225183.819,4095.1756877374523,2104.586950479064,1000,0.647,-1.443,2.474,98.7,yellow,256,TRUE
486,1661225183.906,4118.957049874359,1721.949212715587,1000,5.151,-1.398,-0.492,101.1,green,256,TRUE
487,1661225184.088,4255.284834025371,1589.8254979820183,1000,5.635,-1.331,-0.84,114.7,blue,256,TRUE
488,1661225184.186,5183.111142829691,2222.8003581288353,1000,2.462,-1.206,2.998,120.6,red,256,TRUE
489,1661225184.291,4105.001265293481,2040.5525259388232,1000,0.451,-1.432,3.018,105.7,yellow,256,TRUE
490,1661225184.383,4145.954176263069,1675.3716121599982,1000,5.151,-1.412,-0.218,103.8,green,256,TRUE
491,1661225184.566,4126.135164147895,1881.4147511409021,1000,0.203,-1.386,-1.128,114.7,blue,256,TRUE
492,1661225184.665,5224.395460595287,2204.726768478955,1000,2.366,-1.253,3.083,105.7,red,256,TRUE
493,1661225184.757,4044.629351823716,1958.4769700314164,1000,0.386,-1.503,-3.108,103.7,yellow,256,TRUE
494,1661225184.847,4191.607997763111,1664.6453131048538,1000,5.188,-1.434,-0.116,104.3,green,256,TRUE
495,1661225185.087,3978.9257434192455,2143.546988208465,1000,0.357,-1.442,-1.44,118.7,blue,256,TRUE
496,1661225185.189,5137.22834143729,2244.0464426551716,1000,2.361,-1.288,2.885,120.6,red,256,TRUE
497,1661225185.294,4043.354877804062,1881.803741334715,1000,0.348,-1.544,0.025,105.7,yellow,256,TRUE
498,1661225185.386,4258.02423359587,1632.7613473233232,1000,5.3,-1.456,0.031,103.7,green,256,TRUE
499,1661225185.569,3863.6106875735763,2428.5894828926575,1000,0.81,-1.467,-3.04,114.7,blue,256,TRUE
500,1661225185.668,5123.002846201599,2273.3980625533727,1000,2.496,-1.304,2.697,105.7,red,256,TRUE
501,1661225185.76,3991.582209809058,1833.5895250077426,1000,0.19,-1.472,3.055,103.7,yellow,256,TRUE
502,1661225185.851,4318.143933622047,1592.7069127934694,1000,5.049,-1.428,-0.373,102.8,green,256,TRUE
503,1661225186.033,3785.591175349063,2820.5077799919586,1000,1.283,-1.42,-1.473,129.8,blue,256,TRUE
504,1661225186.147,5136.533031632719,2220.6994660582786,1000,2.618,-1.31,2.656,121.2,red,256,TRUE
505,1661225186.252,3954.480476207966,1766.077983006345,1000,0.075,-1.443,2.325,105.7,yellow,256,TRUE
506,1661225186.344,4411.807650595192,1539.9360319562456,1000,4.926,-1.374,-0.339,103.8,green,256,TRUE
507,1661225186.583,3722.0252445775927,3127.8000501126166,1000,1.355,-1.334,-1.501,103.5,blue,256,TRUE
508,1661225186.674,5047.026608217664,2201.80058631163,1000,2.954,-1.298,2.633,102.2,red,256,TRUE
509,1661225186.763,3957.075312376069,1703.991886585898,1000,6.241,-1.509,3.115,103.9,yellow,256,TRUE
510,1661225186.854,4427.741803184506,1523.6354056919306,1000,4.984,-1.406,-0.337,102.2,green,256,TRUE
511,1661225187.036,3831.753825232285,3124.354581077274,1000,1.515,-1.316,-1.637,114.7,blue,256,TRUE
512,1661225187.135,5022.762145181915,2139.437650143973,1000,2.884,-1.276,2.74,120.7,red,256,TRUE
513,1661225187.239,3962.524597850175,1706.7794820821266,1000,5.926,-1.441,-1.74,105.7,yellow,256,TRUE
514,1661225187.332,4459.487738011337,1576.4140422945284,1000,4.932,-1.391,-0.243,102.8,green,256,TRUE
515,1661225189.679,4567.920610756156,1571.5602017630856,1000,4.927,-1.449,-0.263,1168.9,green,256,TRUE
516,1661225190.855,3919.6394702096836,3067.232452881086,1000,0.913,-1.38,-1.846,127.6,blue,256,TRUE
517,1661225190.986,5038.9079011505855,2109.0125736101454,1000,2.487,-1.316,2.882,1087.9,red,256,TRUE
518,1661225192.058,4638.6026238637105,1575.144227590502,1000,4.965,-1.426,-0.237,121.2,green,256,TRUE
519,1661225193.273,5065.394560889325,2080.2125658116483,1000,2.521,-1.328,2.721,103.7,red,256,TRUE
520,1661225193.368,3977.5374344263523,1741.9283211272066,1000,6.057,-1.518,3.127,98.7,yellow,256,TRUE
521,1661225193.454,4656.001349076531,1572.205421564374,1000,4.998,-1.381,-0.019,102.8,green,256,TRUE
522,1661225193.645,3925.7990650380393,3018.4686064789635,1000,0.782,-1.395,-1.55,90.7,blue,256,TRUE
523,1661225193.721,5041.245053418149,2139.318701268532,1000,2.539,-1.35,2.669,105.2,red,256,TRUE
524,1661225193.812,4026.4842783507715,1761.9911729897574,1000,6.06,-1.509,3.132,103.7,yellow,256,TRUE
525,1661225193.904,4631.492802994902,1580.1771451991538,1000,4.821,-1.434,-0.113,101.7,green,256,TRUE
526,1661225194.085,3855.8257750376397,2906.4831211992328,1000,0.807,-1.413,-1.415,114.7,blue,256,TRUE
527,1661225194.184,5051.8592284841125,2111.6897561142746,1000,2.571,-1.357,2.595,121.7,red,256,TRUE
528,1661225194.289,4072.2606877550006,1785.1326105747005,1000,6.046,-1.51,3.138,106.3,yellow,256,TRUE
529,1661225194.381,4667.000896798055,1545.5566124372335,1000,4.516,-1.336,-0.208,103.8,green,256,TRUE
530,1661225194.62,3748.1621055058345,2746.4992868618756,1000,0.891,-1.403,-1.493,103.8,blue,256,TRUE
531,1661225194.71,5036.502343269737,2166.885100117467,1000,2.154,-1.328,3.037,104.2,red,256,TRUE
532,1661225194.8,4108.400132357082,1839.158733017274,1000,5.917,-1.501,-3.118,103.8,yellow,256,TRUE
533,1661225194.892,4681.043402475993,1476.0685060788467,1000,4.104,-1.397,-0.696,101.8,green,256,TRUE
534,1661225195.074,3689.993181914475,2644.518743685155,1000,0.834,-1.386,-1.57,114.9,blue,256,TRUE
535,1661225195.173,5006.8405762721395,2189.897843986464,1000,2.645,-1.307,2.482,120.6,red,256,TRUE
536,1661225195.277,4092.3552900944874,1890.8126892153125,1000,5.718,-1.514,3.105,105.7,yellow,256,TRUE
537,1661225195.369,4584.536499699691,1373.6147426053249,1000,4.697,-1.497,0.04,103.8,green,256,TRUE
538,1661225195.535,3690.0977898808524,2625.686012335374,1000,0.469,-1.278,-1.822,117.7,blue,256,TRUE
539,1661225195.636,4983.741777879449,2194.005376950339,1000,2.872,-1.348,2.47,105.7,red,256,TRUE
540,1661225195.729,4064.8101722782776,1930.2434005564046,1000,5.781,-1.568,-0.001,102.7,yellow,256,TRUE
541,1661225195.818,4530.784102074279,1329.9649548219054,1000,4.638,-1.488,-0.003,103.7,green,256,TRUE
542,1661225196.058,3635.609744116604,2646.9758374567605,1000,6.133,-1.391,-1.553,102.7,blue,256,TRUE
543,1661225196.147,4955.925404709443,2200.6427052569156,1000,2.385,-1.329,2.81,118.7,red,256,TRUE
544,1661225196.25,3979.464094470691,1898.9390877011795,1000,5.609,-1.403,-2.433,105.7,yellow,256,TRUE
545,1661225196.343,4555.459465555462,1285.5938523557875,1000,4.833,-1.349,-0.064,102.8,green,256,TRUE
546,1661225196.525,3578.562902212329,2609.9386977130393,1000,5.536,-1.418,-1.997,114.7,blue,256,TRUE
547,1661225196.624,4964.124757728446,2193.940560086798,1000,2.268,-1.329,2.815,105.7,red,256,TRUE
548,1661225196.716,3857.097951673875,1895.6126903765396,1000,5.502,-1.426,-2.598,103.7,yellow,256,TRUE
549,1661225196.806,4551.476584640266,1229.5992924382988,1000,4.931,-1.41,-0.027,103.7,green,256,TRUE
550,1661225196.989,3513.177773255193,2655.605173930339,1000,4.836,-1.379,-1.834,99.7,blue,256,TRUE
551,1661225197.075,4988.741121353199,2199.9146149952544,1000,2.262,-1.326,2.797,118.7,red,256,TRUE
552,1661225197.178,3759.4636538742507,1912.99375207261,1000,5.741,-1.508,3.121,105.4,yellow,256,TRUE
553,1661225197.27,4522.297848454412,1289.9340793554763,1000,4.94,-1.422,-0.068,102.7,green,256,TRUE
554,1661225197.466,3518.3686091563245,2960.9011569081326,1000,4.706,-1.325,-1.39,101.7,blue,256,TRUE
555,1661225197.554,4975.582723735463,2206.312287863366,1000,2.221,-1.332,2.813,117.7,red,256,TRUE
556,1661225197.656,3656.787135228206,1892.403227862438,1000,5.636,-1.493,-3.083,105.8,yellow,256,TRUE
557,1661225197.748,4533.8724942690715,1345.0878721740494,1000,4.946,-1.432,-0.05,103.7,green,256,TRUE
558,1661225198.96,5113.016816336279,2165.4826629457293,1000,2.393,-1.38,2.75,1121.3,red,256,TRUE
559,1661225200.066,4502.976303560113,1436.9761658537584,1000,4.974,-1.433,0.144,104.7,green,256,TRUE
560,1661225200.308,3423.8761373448565,3242.3289591708453,1000,2.843,-1.358,2.919,102.8,blue,256,TRUE
561,1661225200.397,5110.642016608558,2168.277093930384,1000,2.698,-1.368,2.559,105.2,red,256,TRUE
562,1661225200.487,3582.585096104018,1962.9409286335583,1000,5.877,-1.466,-0.071,103.7,yellow,256,TRUE
563,1661225200.579,4573.837553306993,1435.938358491301,1000,5.081,-1.432,0.087,103.3,green,256,TRUE
564,1661225200.759,3170.96381465039,3499.0300941732235,1000,3.589,-1.497,-3.113,101.7,blue,256,TRUE
565,1661225200.848,5110.711609064301,2189.2242574581987,1000,2.315,-1.337,2.815,116.7,red,256,TRUE
566,1661225201.968,4813.844056122868,1103.9775070673425,1000,5.644,-1.35,0.137,1166.6,green,256,TRUE
567,1661225203.141,2900.4533343519925,3859.6891495660707,1000,3.095,-1.415,-1.628,98.9,blue,256,TRUE
568,1661225203.232,5104.274999665043,2201.0965583219404,1000,2.308,-1.346,2.663,98.0,red,256,TRUE
569,1661225203.317,3785.61672813087,2221.956433175524,1000,0.442,-1.539,-0.014,102.8,yellow,256,TRUE
570,1661225203.406,4863.095361443653,1145.1960045709968,1000,5.877,-1.386,-0.01,103.7,green,256,TRUE
571,1661225206.988,5091.062906912307,2237.8248786780164,1000,2.268,-1.349,2.65,112.7,red,256,TRUE
572,1661225207.079,4228.163178947651,2442.282201224531,1000,1.046,-1.506,-3.079,111.7,yellow,256,TRUE
573,1661225207.177,4935.271086959872,1071.2018313110786,1000,6.069,-1.311,0.136,117.7,green,256,TRUE
574,1661225207.373,2915.8610147001273,3953.516795145592,1000,1.404,-1.488,-0.079,102.3,blue,256,TRUE
575,1661225207.462,5163.966037827712,2222.4214784243654,1000,2.237,-1.362,2.715,103.0,red,256,TRUE
576,1661225207.552,4661.650620252059,2626.86414378042,1000,1.006,-1.501,-3.074,117.7,yellow,256,TRUE
577,1661225207.654,4994.378486716055,1068.349765515857,1000,5.99,-1.306,-0.157,105.6,green,256,TRUE
578,1661225207.839,3025.5209028582753,3913.3881190113802,1000,1.584,-1.338,-0.641,99.8,blue,256,TRUE
579,1661225207.926,5094.9832463096045,2225.4049002382176,1000,2.262,-1.362,2.671,102.8,red,256,TRUE
580,1661225208.015,5085.8347108162425,2783.4747477251713,1000,0.976,-1.503,-0.067,103.6,yellow,256,TRUE
581,1661225208.106,5132.784427237719,1074.446145293511,1000,5.953,-1.356,-0.327,101.7,green,256,TRUE
582,1661225208.359,3049.527059710282,3622.839290866276,1000,0.297,-1.318,-1.794,104.0,blue,256,TRUE
583,1661225208.449,5251.9930820804475,2200.782785744415,1000,2.206,-1.377,2.67,104.2,red,256,TRUE
584,1661225208.541,5508.774463460514,2992.1688806154816,1000,0.903,-1.493,-0.073,101.8,yellow,256,TRUE
585,1661225208.629,5143.129541892092,1095.0815389789075,1000,5.85,-1.43,0.049,118.7,green,256,TRUE
586,1661225208.825,3197.5635355786994,3398.5013960008696,1000,5.496,-1.247,-1.96,101.8,blue,256,TRUE
587,1661225208.916,5304.986625191178,2140.5703378914504,1000,2.149,-1.378,2.668,100.7,red,256,TRUE
588,1661225209.004,5866.697305866236,3093.5111152699997,1000,0.938,-1.505,-0.061,102.8,yellow,256,TRUE
589,1661225209.094,4938.953808671399,1486.8419013961318,1000,5.96,-1.51,0.026,102.5,green,256,TRUE
590,1661225209.301,3325.398399490537,3150.9737032224343,1000,4.874,-1.417,-2.366,105.7,blue,256,TRUE
591,1661225209.393,5351.2523198822555,2137.594725595818,1000,2.115,-1.393,2.819,103.7,red,256,TRUE
592,1661225209.482,5969.703546032801,2978.175839696465,1000,0.999,-1.511,-0.059,103.7,yellow,256,TRUE
593,1661225209.574,4962.20907470405,1502.1943932375914,1000,6.014,-1.487,0.047,101.7,green,256,TRUE
594,1661225209.812,3456.793756383881,2832.5855338792476,1000,4.578,-1.376,-1.707,103.7,blue,256,TRUE
595,1661225209.903,5383.462921967406,2116.1871632588277,1000,2.485,-1.281,2.597,101.8,red,256,TRUE
596,1661225209.992,5915.002234836674,2953.1264332824444,1000,1.006,-1.51,-0.06,102.8,yellow,256,TRUE
