,timestamp,x,y,z,yaw,roll,pitch,latency,student,session,success
0,1661231486.365,68.437489986229,-1178.7678000946469,1000,3.366,-1.214,0.459,114.7,yellow,257,TRUE
1,1661231486.483,5977.902066167097,4905.7798598095915,1000,2.561,-1.091,-0.088,1164.7,green,257,TRUE
2,1661231487.662,1448.1063481902056,-2015.7488220610549,1000,0.593,-1.234,0.307,104.7,blue,257,TRUE
3,1661231487.757,1596.507222461915,-2158.6431731286125,1000,4.434,-1.516,-0.051,101.3,red,257,TRUE
4,1661231487.844,184.7892036061579,-1242.2263102827264,1000,3.843,-1.131,0.662,102.8,yellow,257,TRUE
5,1661231487.937,5877.650178439855,3072.8056782685876,1000,4.516,-1.463,-3.078,99.8,green,257,TRUE
6,1661231491.457,1582.2102100625223,-1763.6919792793315,1000,5.648,-1.458,-3.029,112.7,red,257,TRUE
7,1661231491.561,395.10680402873396,-1106.6229420844822,1000,5.798,-1.181,0.662,113.2,yellow,257,TRUE
8,1661231491.661,4301.6792935518015,1635.207230392678,1000,4.764,-1.464,-3.047,104.2,green,257,TRUE
9,1661231493.981,3644.132232095147,824.8012608387305,1000,4.513,-1.347,-1.698,1182.7,green,257,TRUE
10,1661231495.171,1497.594339671041,-778.5866444126783,1000,5.193,-1.301,0.665,112.7,blue,257,TRUE
11,1661231495.276,1738.4916689302418,-1293.8482167836862,1000,3.903,-1.484,-3.064,113.2,red,257,TRUE
12,1661231497.638,1799.7787765374705,-641.5972459446319,1000,5.012,-1.528,-3.101,114.5,red,257,TRUE
13,1661231500.005,2129.2527264791056,111.83817921306786,1000,5.424,-1.504,-0.059,113.7,red,257,TRUE
14,1661231502.37,2305.6981777180868,844.2156192460819,1000,4.91,-1.544,-3.123,113.7,red,257,TRUE
15,1661231503.652,1773.546834208475,-134.90342839933817,1000,0.899,-1.202,0.328,104.8,blue,257,TRUE
16,1661231503.745,2488.0362252232353,1480.4515798062605,1000,4.569,-1.47,-3.059,116.6,red,257,TRUE
17,1661231505.047,1936.1394743892786,300.28614282097976,1000,0.88,-1.182,0.317,100.7,blue,257,TRUE
18,1661231505.135,2722.7431856231624,1778.4878615723728,1000,5.019,-1.528,-3.133,117.7,red,257,TRUE
19,1661231506.411,2001.0066888184544,539.1785521505994,1000,0.925,-1.209,0.391,99.7,blue,257,TRUE
20,1661231506.497,2791.627213078973,2066.2568461709366,1000,5.365,-1.532,-0.033,132.6,red,257,TRUE
21,1661231507.787,2277.837964621704,1398.5700899558622,1000,0.641,-1.176,0.22,101.4,blue,257,TRUE
22,1661231507.877,2904.4996926180115,2307.928624950992,1000,5.237,-1.455,-0.087,100.7,red,257,TRUE
23,1661231507.966,586.0915403689118,-1109.9818317324907,1000,4.249,-1.101,0.962,73.8,yellow,257,TRUE
24,1661231508.171,2476.987984064243,2140.4511338132193,1000,0.393,-1.236,0.326,105.7,blue,257,TRUE
25,1661231508.263,2964.5474508758384,2479.122277053371,1000,5.162,-1.474,-0.093,103.7,red,257,TRUE
26,1661231508.353,1098.692660549467,-1047.7318242409135,1000,4.258,-1.104,0.972,76.8,yellow,257,TRUE
27,1661231508.545,2673.8182708792306,2353.170659805134,1000,0.206,-1.245,0.538,120.7,blue,257,TRUE
28,1661231508.65,3023.268772791686,2555.1448039249394,1000,4.812,-1.477,-3.057,105.7,red,257,TRUE
29,1661231508.743,2257.713469470474,-1145.727218214193,1000,4.273,-1.106,0.988,74.8,yellow,257,TRUE
30,1661231508.919,2687.172099448994,2510.8195563926915,1000,0.099,-1.247,0.701,120.7,blue,257,TRUE
31,1661231509.024,3028.7537039378676,2688.099240959614,1000,4.649,-1.526,-3.098,135.6,red,257,TRUE
32,1661231510.315,2706.406247102915,2681.8107601166644,1000,0.024,-1.229,0.734,100.7,blue,257,TRUE
33,1661231510.405,3023.784052811588,2880.3367034263633,1000,3.509,-1.468,-3.043,100.7,red,257,TRUE
34,1661231510.493,2718.9590997446944,-1133.254800984183,1000,4.252,-1.102,0.982,87.8,yellow,257,TRUE
35,1661231510.714,2782.5056993172257,2907.7070807312734,1000,6.236,-1.233,0.757,105.7,blue,257,TRUE
36,1661231510.806,2987.2641067916247,2992.989008803475,1000,3.377,-1.476,-3.058,118.6,red,257,TRUE
37,1661231512.081,2729.5362005261477,2971.4411151371332,1000,0.089,-1.215,0.738,100.7,blue,257,TRUE
38,1661231512.169,2909.625389476125,3051.28107148508,1000,3.199,-1.494,-3.067,101.7,red,257,TRUE
39,1661231512.257,3227.8065098613474,-1049.5596921932754,1000,4.226,-1.112,0.971,74.9,yellow,257,TRUE
40,1661231512.435,2750.8108523246806,2958.2404939677085,1000,0.111,-1.205,0.768,120.7,blue,257,TRUE
41,1661231512.539,2848.2079810733285,3094.111625894167,1000,3.203,-1.498,-3.073,135.6,red,257,TRUE
42,1661231513.831,2760.700822229952,2938.1115092068408,1000,0.143,-1.206,0.672,100.8,blue,257,TRUE
43,1661231513.922,2796.3104458245884,3205.2215303476187,1000,3.209,-1.512,-3.088,114.7,red,257,TRUE
44,1661231515.193,2804.691077659627,2943.1144161787834,1000,0.171,-1.218,0.568,101.2,blue,257,TRUE
45,1661231515.281,2768.368662714278,3208.719771867732,1000,2.963,-1.49,-3.071,117.4,red,257,TRUE
46,1661231516.554,2824.859211556566,2909.3281757392233,1000,0.189,-1.218,0.569,101.7,blue,257,TRUE
47,1661231516.643,2738.552841099143,3135.7860353884626,1000,2.925,-1.497,-3.07,117.3,red,257,TRUE
48,1661231517.918,2820.2825247903907,2890.146519689318,1000,0.18,-1.22,0.567,100.9,blue,257,TRUE
49,1661231518.007,2758.3133626114964,3161.482427349482,1000,2.905,-1.493,-3.067,101.0,red,257,TRUE
50,1661231518.095,3605.495199591487,-1145.625107263934,1000,4.268,-1.124,1.047,87.8,yellow,257,TRUE
51,1661231518.306,2837.1939058001044,2894.7140809174066,1000,0.185,-1.217,0.579,101.7,blue,257,TRUE
52,1661231518.396,2784.6539960301493,3203.9707332057183,1000,2.89,-1.494,-3.067,116.7,red,257,TRUE
53,1661231519.669,2853.113722601647,2905.141283230409,1000,0.108,-1.208,0.803,101.1,blue,257,TRUE
54,1661231519.758,2804.3942345034097,3175.6404863376897,1000,2.779,-1.477,-3.051,117.2,red,257,TRUE
55,1661231521.032,2848.1728240661355,2859.3562630296656,1000,0.144,-1.193,0.884,99.7,blue,257,TRUE
56,1661231521.119,2790.6996293119046,3151.4766672398496,1000,2.921,-1.489,-3.06,118.7,red,257,TRUE
57,1661231522.394,2863.122289168967,2849.7739764113503,1000,0.161,-1.204,0.857,99.8,blue,257,TRUE
58,1661231522.482,2795.2998462813757,3156.2519435344843,1000,2.921,-1.489,-0.081,131.5,red,257,TRUE
59,1661231524.818,2818.3414002856557,3187.7219279953047,1000,2.949,-1.489,-0.081,114.7,red,257,TRUE
60,1661231527.182,2828.489633419263,3161.162713538464,1000,2.97,-1.489,-0.079,100.8,red,257,TRUE
61,1661231529.498,2862.1468513320674,2820.2795592368893,1000,0.161,-1.256,0.286,104.5,blue,257,TRUE
62,1661231529.593,2834.247168824113,3149.454843045829,1000,3.015,-1.496,-0.074,98.7,red,257,TRUE
63,1661231529.753,3057.5668208696457,836.4651555401726,1000,5.043,-1.487,-3.059,89.4,green,257,TRUE
64,1661231529.98,2858.6913156629344,2750.06073047126,1000,0.17,-1.246,0.384,103.6,blue,257,TRUE
65,1661231530.07,2847.42422086731,3193.0696441370674,1000,3.025,-1.499,-0.07,133.4,red,257,TRUE
66,1661231532.361,2868.9017364531487,3200.9314138902105,1000,2.976,-1.498,-0.071,115.7,red,257,TRUE
67,1661231532.456,1487.9858115409315,-2242.7986333743943,1000,3.697,-1.244,0.451,80.8,yellow,257,TRUE
68,1661231532.522,2946.1662323269716,198.73116133849666,1000,5.043,-1.492,-3.064,103.7,green,257,TRUE
69,1661231532.731,2835.866029289424,2684.2629909210623,1000,0.22,-1.233,0.476,105.7,blue,257,TRUE
70,1661231532.823,2919.246605323313,3241.662908893137,1000,2.928,-1.497,-0.072,103.7,red,257,TRUE
71,1661231535.164,2886.901791504773,3229.2569618620582,1000,2.853,-1.48,-0.089,114.5,red,257,TRUE
72,1661231537.513,2874.1524224622676,3231.429547081673,1000,2.873,-1.479,-3.05,115.1,red,257,TRUE
73,1661231539.818,2838.8064077437025,3172.0016243437744,1000,2.861,-1.475,-3.047,114.7,red,257,TRUE
74,1661231542.153,2832.517873804664,3164.2538100251745,1000,2.879,-1.481,-3.052,113.6,red,257,TRUE
75,1661231544.473,2770.9842346009154,3125.6575857244147,1000,3.027,-1.503,-3.074,112.6,red,257,TRUE
76,1661231546.776,2686.285913303182,3054.46353817306,1000,3.01,-1.501,-0.069,114.7,red,257,TRUE
77,1661231549.095,2654.3428774625895,3041.7021130913467,1000,3.021,-1.498,-0.072,128.7,red,257,TRUE
78,1661231551.443,2643.3974975100787,3030.98485017108,1000,3.052,-1.497,-3.067,115.7,red,257,TRUE
79,1661231553.809,2635.6706594583347,3050.656719140185,1000,3.002,-1.491,-0.077,114.7,red,257,TRUE
80,1661231556.159,2620.107846255211,3081.0938995273536,1000,2.939,-1.491,-0.077,99.8,red,257,TRUE
81,1661231556.25,1390.121354709715,-2396.374986981177,1000,3.468,-1.234,0.302,83.8,yellow,257,TRUE
82,1661231556.32,2298.4213312031743,-1055.959442684066,1000,5.081,-1.454,-3.097,88.8,green,257,TRUE
83,1661231556.498,2778.6282875104025,2619.871807313418,1000,0.386,-1.221,0.66,119.7,blue,257,TRUE
84,1661231556.602,2667.6281871863266,3145.022981978181,1000,2.937,-1.491,-0.077,135.6,red,257,TRUE
85,1661231558.926,2734.514758673183,3228.999820307352,1000,2.927,-1.494,-0.075,115.7,red,257,TRUE
86,1661231561.247,2793.0565912417155,3286.9434704613473,1000,2.939,-1.494,-0.074,114.7,red,257,TRUE
87,1661231563.553,2790.0225981278927,3299.21079440116,1000,2.934,-1.496,-0.073,113.7,red,257,TRUE
88,1661231565.902,2786.949020824788,3487.9593910047774,1000,4.42,-1.334,-0.795,115.7,red,257,TRUE
89,1661231565.995,1450.5126516105956,-2414.672999951866,1000,3.516,-1.225,0.312,81.8,yellow,257,TRUE
90,1661231566.064,1666.8558558075617,-1654.4695819943654,1000,5.214,-1.487,-3.111,86.8,green,257,TRUE
91,1661231566.271,2848.8383551241423,2860.0201195688182,1000,0.436,-1.14,0.317,104.7,blue,257,TRUE
92,1661231566.362,2729.0930320765497,3687.4979290034644,1000,4.585,-1.487,-0.083,104.3,red,257,TRUE
93,1661231566.452,1405.6182392671071,-2464.5406899653935,1000,3.493,-1.234,0.317,89.2,yellow,257,TRUE
94,1661231566.528,1799.9301611849403,-1833.6019264600443,1000,5.208,-1.488,-3.111,87.8,green,257,TRUE
95,1661231566.705,2974.33978081937,3115.859715829838,1000,0.569,-1.23,0.411,105.7,blue,257,TRUE
96,1661231566.797,2638.7444710974646,3955.2368722620863,1000,4.627,-1.509,-0.056,119.7,red,257,TRUE
97,1661231569.152,2494.8059168306186,4375.681874406478,1000,4.949,-1.505,-0.058,113.7,red,257,TRUE
98,1661231571.454,2367.328179322671,4914.893119485611,1000,5.199,-1.496,-0.071,114.7,red,257,TRUE
99,1661231573.759,2185.2701818936825,5467.582626302376,1000,5.406,-1.511,-0.058,99.7,red,257,TRUE
100,1661231573.851,1326.3170556479834,-2484.9124828754057,1000,3.56,-1.217,0.317,112.8,yellow,257,TRUE
101,1661231573.934,1847.406800868964,-1959.0325326041163,1000,4.992,-1.479,-3.093,89.8,green,257,TRUE
102,1661231574.113,2971.4491520063443,3947.9061214317535,1000,5.39,-1.226,0.515,119.7,blue,257,TRUE
103,1661231574.217,2025.9166182870183,5865.728688941555,1000,5.426,-1.51,-0.058,105.7,red,257,TRUE
104,1661231574.309,2008.8611220086502,-1494.3693246564305,1000,3.554,-1.218,0.3,88.8,yellow,257,TRUE
105,1661231574.383,2086.326860833692,-2537.3316244999237,1000,4.986,-1.473,-3.096,89.8,green,257,TRUE
106,1661231574.561,2993.9774636913785,4844.020322950458,1000,5.403,-1.227,0.435,121.0,blue,257,TRUE
107,1661231574.666,1934.460258405342,6210.318164595723,1000,5.44,-1.508,-0.058,120.7,red,257,TRUE
108,1661231574.771,2659.3475814212243,-615.7704282063763,1000,3.535,-1.227,0.324,90.7,yellow,257,TRUE
109,1661231574.847,2022.9936783725173,-2436.7384293182695,1000,4.999,-1.469,-3.097,90.0,green,257,TRUE
110,1661231575.074,3012.8199167450916,5652.785152965738,1000,5.412,-1.221,0.463,101.7,blue,257,TRUE
111,1661231575.162,1870.7297190354955,6457.107081273204,1000,5.456,-1.504,-0.058,118.7,red,257,TRUE
112,1661231575.265,3368.7220178373063,309.7687943427397,1000,3.521,-1.241,0.343,90.7,yellow,257,TRUE
113,1661231575.342,2653.969481590549,-1566.9036608615827,1000,5.0,-1.468,-3.099,88.8,green,257,TRUE
114,1661231575.51,3061.3719584569058,6537.161829665857,1000,5.383,-1.22,0.494,114.7,blue,257,TRUE
115,1661231575.609,1824.4731406623812,6567.3668847645795,1000,5.444,-1.502,-0.061,135.6,red,257,TRUE
116,1661231577.965,1724.2261015428282,6527.951015283706,1000,5.36,-1.509,-0.053,114.7,red,257,TRUE
117,1661231578.059,3320.1440509808,307.3737645509357,1000,3.475,-1.25,0.346,127.2,yellow,257,TRUE
118,1661231583.7,3031.9357690626853,7327.788047499797,1000,5.345,-1.273,0.032,1117.0,blue,257,TRUE
119,1661231584.807,4021.799385526833,1304.6310420510947,1000,3.476,-1.245,0.229,84.8,yellow,257,TRUE
120,1661231584.883,3391.151713099631,-1041.7055596463586,1000,4.83,-1.49,-3.083,113.7,green,257,TRUE
121,1661231585.057,2859.000566821167,7875.319300273045,1000,5.018,-1.229,0.201,103.8,blue,257,TRUE
122,1661231585.148,1803.499864158157,6523.318885820066,1000,5.414,-1.493,-0.071,117.7,red,257,TRUE
123,1661231585.25,4757.721947279619,2290.8070857847274,1000,3.481,-1.24,0.23,90.7,yellow,257,TRUE
124,1661231585.326,4137.512155448706,-515.0025187485252,1000,4.828,-1.488,-3.083,89.8,green,257,TRUE
125,1661231585.495,2817.734420706813,7820.338880836876,1000,4.848,-1.244,0.422,114.4,blue,257,TRUE
126,1661231585.594,1858.7637857102754,6524.681851555434,1000,5.337,-1.479,-0.081,120.9,red,257,TRUE
127,1661231585.699,4764.649231737027,2265.55894963119,1000,3.471,-1.24,0.239,105.6,yellow,257,TRUE
128,1661231585.789,4778.50697039293,321.091720355198,1000,4.823,-1.488,-3.083,90.5,green,257,TRUE
129,1661231585.959,2759.4765013568267,7770.012207226886,1000,4.874,-1.229,0.338,99.8,blue,257,TRUE
130,1661231586.047,1876.7440271480446,6481.636006570513,1000,5.261,-1.474,-0.071,101.7,red,257,TRUE
131,1661231586.134,4766.709170774958,2316.401691430831,1000,3.468,-1.244,0.244,103.8,yellow,257,TRUE
132,1661231586.222,4770.042440070058,311.08802343739507,1000,4.819,-1.489,-3.083,90.7,green,257,TRUE
133,1661231586.451,2687.722472899726,7773.833385331923,1000,4.876,-1.27,0.477,101.7,blue,257,TRUE
134,1661231586.538,1881.488367806527,6460.878028268697,1000,5.27,-1.494,-0.053,118.7,red,257,TRUE
135,1661231586.641,4497.012924111261,1623.8849246248217,1000,3.468,-1.247,0.25,120.7,yellow,257,TRUE
136,1661231595.554,2680.456404261781,7773.175331409948,1000,4.89,-1.281,0.137,1129.7,blue,257,TRUE
137,1661231598.936,1867.6161858695787,6458.258062830054,1000,5.129,-1.49,-0.038,113.7,red,257,TRUE
138,1661231601.254,1966.3035701518122,6477.074242796876,1000,5.205,-1.526,-0.029,99.8,red,257,TRUE
139,1661231601.346,4468.5972338303445,1600.638326947781,1000,3.397,-1.235,0.277,97.8,yellow,257,TRUE
140,1661231603.584,2639.99478173035,7635.298990109215,1000,4.914,-1.269,0.392,104.8,blue,257,TRUE
141,1661231603.68,1910.4574538500535,6439.782160020095,1000,5.233,-1.511,-0.029,113.7,red,257,TRUE
142,1661231606.045,1904.4716171872126,6411.792365206555,1000,5.3,-1.497,-0.049,114.7,red,257,TRUE
143,1661231606.138,3787.1877303431556,676.1246939931368,1000,3.437,-1.244,0.3,126.7,yellow,257,TRUE
144,1661231611.689,2629.054531046832,7726.771504776924,1000,4.916,-1.26,0.332,98.7,blue,257,TRUE
145,1661231611.78,1896.7935552430108,6407.236334131437,1000,5.192,-1.524,-3.096,97.7,red,257,TRUE
146,1661231611.87,3162.2652345993247,-296.2648690830859,1000,3.434,-1.257,0.299,97.7,yellow,257,TRUE
147,1661231614.078,2638.8096349099587,7707.8670748335535,1000,5.0,-1.244,0.203,104.7,blue,257,TRUE
148,1661231614.174,1914.9374379340352,6410.144460720824,1000,5.043,-1.512,-3.086,114.1,red,257,TRUE
149,1661231616.48,1976.547185654862,6403.848481914273,1000,5.02,-1.5,-3.078,113.7,red,257,TRUE
150,1661231618.845,2007.7073454718127,6411.567820848587,1000,5.024,-1.5,-3.078,98.8,red,257,TRUE
151,1661231618.935,2757.287554516977,-1102.2242613567107,1000,3.727,-1.289,0.744,98.7,yellow,257,TRUE
152,1661231621.173,2596.074992844273,7802.438464114857,1000,4.95,-1.256,0.148,1151.9,blue,257,TRUE
153,1661231624.576,1988.2789082159088,6386.848536752893,1000,5.039,-1.518,-3.089,128.0,red,257,TRUE
154,1661231625.859,2610.6933245555606,7780.365086388228,1000,4.812,-1.268,0.304,101.8,blue,257,TRUE
155,1661231625.948,2015.6726707964365,6384.046765823022,1000,5.017,-1.513,-3.086,102.8,red,257,TRUE
156,1661231626.038,2730.3940120597717,-1078.9679084034342,1000,3.779,-1.268,0.776,73.8,yellow,257,TRUE
157,1661231626.205,2591.85985257432,7752.259230727735,1000,4.815,-1.27,0.298,115.7,blue,257,TRUE
158,1661231626.304,2039.694800672435,6387.820575959177,1000,5.017,-1.513,-3.086,105.7,red,257,TRUE
159,1661231626.395,2962.86377737367,-354.93806960017713,1000,3.805,-1.261,0.773,74.7,yellow,257,TRUE
160,1661231626.573,2560.939104304382,7710.028183163541,1000,4.819,-1.275,0.307,120.6,blue,257,TRUE
161,1661231626.677,2055.8083818146442,6396.988468773986,1000,5.024,-1.515,-3.087,120.6,red,257,TRUE
162,1661231626.782,3005.6874864769215,-303.4604979493634,1000,3.819,-1.249,0.765,76.8,yellow,257,TRUE
163,1661231626.952,2546.858577610022,7614.37814639747,1000,4.818,-1.274,0.321,116.7,blue,257,TRUE
164,1661231627.052,2076.5659231809304,6385.202617909158,1000,5.034,-1.518,-0.051,105.7,red,257,TRUE
165,1661231627.428,2545.924512204288,7722.888756004767,1000,4.824,-1.272,0.316,103.7,blue,257,TRUE
166,1661231627.52,2049.7836783682296,6368.254683229968,1000,5.035,-1.522,-0.048,101.7,red,257,TRUE
167,1661231627.608,1277.8839391320375,-2124.9179652802336,1000,3.832,-1.247,0.736,87.8,yellow,257,TRUE
168,1661231627.846,2450.3844477398707,7949.446466455366,1000,4.808,-1.27,0.319,1107.6,blue,257,TRUE
169,1661231630.11,2521.886927009725,7935.656039935431,1000,4.825,-1.274,0.338,99.7,blue,257,TRUE
170,1661231630.198,2049.1291539927806,6390.187826113117,1000,4.963,-1.515,-0.037,101.8,red,257,TRUE
171,1661231630.288,1416.8673215281744,-2113.456876175984,1000,4.022,-1.235,0.745,74.8,yellow,257,TRUE
172,1661231630.454,2519.300789126431,7916.351657629951,1000,4.821,-1.277,0.321,114.7,blue,257,TRUE
173,1661231630.553,2032.5945228913627,6398.800757006708,1000,4.976,-1.514,-0.037,120.4,red,257,TRUE
174,1661231630.658,2118.9899264122832,-1840.7876480104699,1000,4.009,-1.244,0.753,90.8,yellow,257,TRUE
175,1661231630.857,2535.3449451254605,7823.949009046371,1000,4.843,-1.269,0.215,101.7,blue,257,TRUE
176,1661231630.945,2046.201564298983,6423.43694711884,1000,5.024,-1.513,-0.044,102.7,red,257,TRUE
177,1661231631.035,3158.3907565283835,-1038.0505152143432,1000,3.978,-1.251,0.749,74.8,yellow,257,TRUE
178,1661231631.203,2566.662563403449,7785.917422876232,1000,4.912,-1.253,0.144,115.1,blue,257,TRUE
179,1661231631.302,2011.3612709608171,6420.502613601853,1000,5.06,-1.509,-0.049,105.7,red,257,TRUE
180,1661231631.393,2824.063317230617,-1254.8541119656686,1000,3.971,-1.251,0.747,103.7,yellow,257,TRUE
181,1661231631.706,2563.3931636715497,7699.679442437123,1000,4.849,-1.263,0.085,120.6,blue,257,TRUE
182,1661231631.811,1963.9632194937924,6430.734187275626,1000,4.987,-1.482,-0.045,106.2,red,257,TRUE
183,1661231631.903,1757.8211584366943,-1247.788417838143,1000,3.949,-1.252,0.74,88.8,yellow,257,TRUE
184,1661231632.129,2585.385440140341,7608.004958464574,1000,4.728,-1.27,0.057,101.4,blue,257,TRUE
185,1661231632.219,1913.5904371998458,6426.423927159583,1000,4.995,-1.466,-0.044,101.7,red,257,TRUE
186,1661231632.308,960.2438717387425,-1104.7413109460385,1000,3.959,-1.248,0.746,102.7,yellow,257,TRUE
187,1661231633.547,2040.1635928166932,6410.270809640087,1000,0.514,-1.53,3.117,120.2,red,257,TRUE
188,1661231635.917,2211.2908096713822,6267.405147084096,1000,0.465,-1.404,-1.212,114.7,red,257,TRUE
189,1661231638.222,2501.5986693339228,6141.623624578166,1000,6.252,-1.468,-3.059,114.7,red,257,TRUE
190,1661231640.527,2807.3710211676175,6023.0602169523745,1000,5.929,-1.481,-0.004,112.7,red,257,TRUE
191,1661231641.822,2744.150594756393,7264.860263835674,1000,2.675,-1.222,0.528,104.6,blue,257,TRUE
192,1661231641.914,3107.6778443666735,5902.945543710549,1000,5.871,-1.486,-0.047,102.7,red,257,TRUE
193,1661231642.002,953.6154722492091,-1095.7709566033998,1000,4.4,-1.097,0.952,76.8,yellow,257,TRUE
194,1661231643.2,3457.476085577047,5896.11735306185,1000,0.068,-1.503,-0.04,1136.4,red,257,TRUE
195,1661231644.322,2159.5983591588843,-2603.4993733063448,1000,4.064,-1.467,-3.052,89.8,green,257,TRUE
196,1661231644.551,2936.752519657777,6948.351093536487,1000,2.669,-1.221,0.441,99.7,blue,257,TRUE
197,1661231644.638,3675.2134793848204,5872.336324107164,1000,0.396,-1.536,-3.107,117.7,red,257,TRUE
198,1661231644.814,1920.5741511233311,-2655.208799578777,1000,4.059,-1.468,-3.05,105.7,green,257,TRUE
199,1661231646.013,3806.956802574235,5982.609065984075,1000,0.38,-1.538,-0.024,102.7,red,257,TRUE
200,1661231646.108,3609.07455543277,-1193.5142455082762,1000,4.168,-1.13,0.949,97.7,yellow,257,TRUE
201,1661231646.178,1921.66607788763,-2594.383732101977,1000,4.092,-1.478,-3.054,117.7,green,257,TRUE
202,1661231647.403,3756.1026002291433,5953.2322721934825,1000,0.372,-1.54,-0.022,103.6,red,257,TRUE
203,1661231647.569,1841.8000295421366,-2573.830856979767,1000,4.091,-1.478,-3.057,117.7,green,257,TRUE
204,1661231647.79,3137.429522494174,6695.353295587532,1000,2.647,-1.224,0.41,106.7,blue,257,TRUE
205,1661231647.883,3739.0080759481193,6005.724060822876,1000,0.37,-1.54,-0.023,117.7,red,257,TRUE
206,1661231650.218,3749.6267370612536,6008.716237821419,1000,0.379,-1.539,-0.023,115.7,red,257,TRUE
207,1661231652.583,3712.2584445481357,5922.77821005835,1000,0.388,-1.54,-0.024,114.5,red,257,TRUE
208,1661231654.935,3735.3767338245793,5920.488930303589,1000,0.392,-1.537,-0.024,98.7,red,257,TRUE
209,1661231655.025,3275.4499685053593,-1467.6841444162073,1000,4.01,-1.124,0.828,82.6,yellow,257,TRUE
210,1661231655.109,3312.0231483571797,-1452.9555948538966,1000,4.01,-1.124,0.828,1090.8,yellow,257,TRUE
211,1661231656.215,3323.2982540078824,6483.805044833612,1000,2.777,-1.247,0.422,104.4,blue,257,TRUE
212,1661231656.311,3729.499344265251,5885.089798306111,1000,0.404,-1.538,-0.029,127.7,red,257,TRUE
213,1661231657.595,3529.7920210842058,6317.90815896687,1000,2.777,-1.253,0.441,100.7,blue,257,TRUE
214,1661231657.683,3770.239799378505,5951.654086065001,1000,0.388,-1.53,-0.038,132.8,red,257,TRUE
215,1661231658.971,3714.4875693664962,6134.968161026928,1000,2.716,-1.261,0.182,101.7,blue,257,TRUE
216,1661231659.061,3808.716993880123,5946.6411240659045,1000,0.389,-1.529,-0.037,100.8,red,257,TRUE
217,1661231659.149,2561.667082071312,-1775.0389499322016,1000,3.987,-1.12,0.815,74.8,yellow,257,TRUE
218,1661231660.344,3837.2770289280247,6016.424805609012,1000,0.391,-1.53,-0.037,104.7,red,257,TRUE
219,1661231660.44,2219.253923852434,-1944.1944296201284,1000,3.949,-1.115,0.904,128.7,yellow,257,TRUE
220,1661231661.69,3859.8278095408436,6071.277722445291,1000,0.397,-1.529,-0.035,104.7,red,257,TRUE
221,1661231661.786,2048.4538292118586,-1966.9873977228876,1000,3.882,-1.145,0.785,143.6,yellow,257,TRUE
222,1661231662.009,3724.849438563924,6186.177650506742,1000,2.764,-1.277,0.338,115.7,blue,257,TRUE
223,1661231662.108,3843.4183151096713,6059.969455400592,1000,0.396,-1.527,-0.034,120.7,red,257,TRUE
224,1661231663.386,3728.0888734068867,6225.607724882952,1000,2.815,-1.27,0.362,99.7,blue,257,TRUE
225,1661231663.474,3820.2288244688098,6066.079905416235,1000,0.399,-1.528,-0.034,101.8,red,257,TRUE
226,1661231663.563,1896.1390840895074,-2039.24964473649,1000,3.947,-1.083,0.791,73.8,yellow,257,TRUE
227,1661231663.754,3742.8450429269274,6308.572485825756,1000,2.818,-1.27,0.311,120.6,blue,257,TRUE
228,1661231663.859,3796.690991436321,6098.004515181732,1000,0.391,-1.53,-0.035,105.7,red,257,TRUE
229,1661231663.95,2236.665258018289,-1265.6888169175681,1000,4.022,-1.084,0.8,74.8,yellow,257,TRUE
230,1661231664.128,3702.4119351729755,6298.79702275255,1000,2.846,-1.269,0.31,106.0,blue,257,TRUE
231,1661231664.22,3770.5934218499583,6137.195577987198,1000,0.392,-1.532,-0.036,118.6,red,257,TRUE
232,1661231665.496,3653.8941057229495,6301.791548041657,1000,2.803,-1.274,0.292,100.7,blue,257,TRUE
233,1661231665.585,3728.8907991785222,6096.042439646543,1000,0.386,-1.532,-0.032,100.7,red,257,TRUE
234,1661231665.673,2559.9587078081768,-463.1977783845607,1000,4.019,-1.116,0.843,87.8,yellow,257,TRUE
235,1661231665.869,3620.810727035303,6310.931002971469,1000,2.81,-1.276,0.304,100.7,blue,257,TRUE
236,1661231665.958,3703.311475970659,6077.012756839641,1000,0.372,-1.532,-0.029,117.2,red,257,TRUE
237,1661231667.232,3599.4886629481184,6355.475947988541,1000,2.826,-1.271,0.322,100.5,blue,257,TRUE
238,1661231667.319,3678.259247932872,6063.812640163891,1000,0.353,-1.534,-0.032,118.1,red,257,TRUE
239,1661231668.593,3564.489999429529,6354.451630894476,1000,2.815,-1.275,0.308,100.7,blue,257,TRUE
240,1661231668.681,3703.6735188579546,6068.109099936282,1000,0.301,-1.536,-0.034,117.7,red,257,TRUE
241,1661231669.954,3518.806903594052,6313.739126457491,1000,2.803,-1.271,0.322,100.7,blue,257,TRUE
242,1661231670.044,3709.3049386024827,6028.321043267205,1000,0.316,-1.537,-0.033,100.8,red,257,TRUE
243,1661231670.131,2556.5633973287813,-422.0080984567688,1000,4.105,-1.153,0.888,75.8,yellow,257,TRUE
244,1661231670.314,3520.4864312785357,6309.173047981381,1000,2.805,-1.271,0.337,99.7,blue,257,TRUE
245,1661231670.4,3693.742790032145,6009.113776758368,1000,0.315,-1.536,-0.033,103.8,red,257,TRUE
246,1661231670.49,1815.7935340325057,-235.36701375967598,1000,4.067,-1.158,0.867,77.1,yellow,257,TRUE
247,1661231670.683,3534.0980336428106,6305.235993392881,1000,2.818,-1.268,0.35,120.6,blue,257,TRUE
248,1661231670.787,3703.98272032687,6004.971275311725,1000,0.303,-1.536,-0.033,105.7,red,257,TRUE
249,1661231670.88,1047.1331897622256,-110.57504408879322,1000,4.044,-1.168,0.888,74.8,yellow,257,TRUE
250,1661231671.056,3544.254107355658,6308.81189212931,1000,2.817,-1.266,0.349,121.3,blue,257,TRUE
251,1661231671.161,3714.2770808271566,6011.517723356068,1000,0.293,-1.537,-0.033,120.7,red,257,TRUE
252,1661231672.438,3553.491521090138,6291.622731006792,1000,2.824,-1.266,0.317,99.7,blue,257,TRUE
253,1661231672.527,3724.5876425424744,5985.837535819239,1000,0.281,-1.537,-0.033,115.7,red,257,TRUE
254,1661231673.799,3569.151130663747,6317.344772476499,1000,2.812,-1.273,0.31,100.7,blue,257,TRUE
255,1661231673.887,3721.9019021801837,6006.0986472539125,1000,0.271,-1.535,-0.033,102.7,red,257,TRUE
256,1661231673.976,993.0791145836132,-79.83473039096425,1000,4.073,-1.141,0.861,77.8,yellow,257,TRUE
257,1661231674.168,3566.11952515705,6341.2935092674425,1000,2.811,-1.273,0.319,105.3,blue,257,TRUE
258,1661231674.26,3709.2773598649073,6067.75120329297,1000,0.266,-1.535,-0.035,103.7,red,257,TRUE
259,1661231674.351,377.64085487756955,-951.0276265898334,1000,4.049,-1.139,0.852,76.8,yellow,257,TRUE
260,1661231674.518,3562.7822311994873,6371.060671096263,1000,2.817,-1.271,0.327,114.7,blue,257,TRUE
261,1661231674.617,3728.98557583362,6126.802432374756,1000,0.254,-1.533,-3.103,121.7,red,257,TRUE
262,1661231674.722,386.35456148719624,-973.030783788668,1000,4.048,-1.148,0.844,90.8,yellow,257,TRUE
263,1661231674.919,3554.000810364141,6401.847028226867,1000,2.815,-1.268,0.328,101.8,blue,257,TRUE
264,1661231675.009,3740.0647099943617,6199.905086680796,1000,0.25,-1.532,-3.102,117.0,red,257,TRUE
265,1661231676.282,3557.672338402704,6379.120094443021,1000,2.834,-1.266,0.301,100.7,blue,257,TRUE
266,1661231676.372,3748.775478908159,6173.613112591344,1000,0.336,-1.527,-0.027,100.7,red,257,TRUE
267,1661231676.46,771.7501069674854,-833.4111372073586,1000,3.973,-1.227,0.752,74.8,yellow,257,TRUE
268,1661231676.636,3559.382053709455,6363.064094553174,1000,2.836,-1.266,0.304,120.7,blue,257,TRUE
269,1661231676.741,3771.6592810416932,6247.726505853741,1000,0.322,-1.527,-0.022,120.7,red,257,TRUE
270,1661231676.846,1589.252861684746,-946.5079787209075,1000,3.939,-1.227,0.77,122.6,yellow,257,TRUE
271,1661231677.061,3563.007148334948,6335.692211914611,1000,2.827,-1.265,0.312,114.7,blue,257,TRUE
272,1661231677.16,3773.148472194791,6229.2746245938315,1000,0.344,-1.528,-0.019,105.7,red,257,TRUE
273,1661231677.252,3013.4946333391076,-272.351610138423,1000,3.975,-1.264,0.736,74.6,yellow,257,TRUE
274,1661231677.419,3576.668146553881,6300.914395706191,1000,2.822,-1.268,0.298,101.2,blue,257,TRUE
275,1661231677.508,3787.8579163331306,6213.968172374237,1000,0.351,-1.526,-0.012,102.1,red,257,TRUE
276,1661231678.767,3547.8317265805927,6236.074378193385,1000,2.665,-1.283,0.279,100.4,blue,257,TRUE
277,1661231678.854,3779.327870680019,6217.855236231669,1000,0.339,-1.536,-0.012,117.7,red,257,TRUE
278,1661231680.128,3579.553291672191,6173.009211468139,1000,2.735,-1.271,0.057,100.8,blue,257,TRUE
279,1661231680.216,3770.6755549322957,6192.549516714905,1000,0.345,-1.534,-0.014,117.7,red,257,TRUE
280,1661231682.568,3766.9285549529773,6240.082096540194,1000,0.343,-1.533,-0.014,115.2,red,257,TRUE
281,1661231684.874,3739.7780000433827,6258.9849497227515,1000,0.379,-1.526,-0.017,99.7,red,257,TRUE
282,1661231684.966,3067.3681687493413,-273.4536525983406,1000,3.959,-1.257,0.746,99.2,yellow,257,TRUE
283,1661231685.05,1884.7555533403647,-2599.102270162747,1000,3.618,-1.364,-1.376,104.1,green,257,TRUE
284,1661231685.233,3601.9869759010057,6208.138028511345,1000,2.818,-1.274,0.111,101.7,blue,257,TRUE
285,1661231685.321,3695.321077900437,6253.996293644021,1000,0.388,-1.517,-0.016,101.7,red,257,TRUE
286,1661231685.41,3863.6361226281974,329.69891931058277,1000,3.963,-1.254,0.722,87.8,yellow,257,TRUE
287,1661231685.484,1888.860091607726,-2589.616094911358,1000,3.59,-1.361,-1.371,119.7,green,257,TRUE
288,1661231685.691,3624.9881092772976,6156.29043734488,1000,2.801,-1.274,0.123,120.4,blue,257,TRUE
289,1661231685.796,3691.9798126461833,6216.6089434505875,1000,0.399,-1.512,-0.015,105.7,red,257,TRUE
290,1661231685.888,3241.8923331891638,-553.6914523866534,1000,3.975,-1.247,0.71,88.8,yellow,257,TRUE
291,1661231685.962,1872.3361389529919,-2568.1344347147437,1000,3.59,-1.362,-1.406,103.8,green,257,TRUE
292,1661231686.215,3639.2100637383523,6104.829043504818,1000,2.813,-1.272,0.13,120.6,blue,257,TRUE
293,1661231686.306,3702.164591788041,6141.549549141645,1000,0.398,-1.512,-0.015,103.7,red,257,TRUE
294,1661231686.397,3722.8490990235878,-118.02882679153504,1000,3.99,-1.251,0.705,87.8,yellow,257,TRUE
295,1661231686.472,1933.5056668310137,-2516.18545233302,1000,3.599,-1.365,-1.402,87.8,green,257,TRUE
296,1661231686.648,3616.5034826973256,6110.188638148619,1000,2.82,-1.274,0.117,121.0,blue,257,TRUE
297,1661231686.753,3692.4757128452043,6103.457927884429,1000,0.4,-1.515,-0.015,121.0,red,257,TRUE
298,1661231686.858,4478.129685964524,431.37565510079685,1000,3.996,-1.26,0.71,90.5,yellow,257,TRUE
299,1661231686.935,1928.830881356466,-2499.928305557228,1000,3.587,-1.366,-1.418,103.5,green,257,TRUE
300,1661231687.118,3649.7798637075916,6102.3708979871,1000,2.803,-1.272,0.129,114.7,blue,257,TRUE
301,1661231687.217,3681.3565251734776,6128.5619900700085,1000,0.405,-1.518,-0.016,105.7,red,257,TRUE
302,1661231687.31,4629.652116254397,207.2070980051117,1000,3.989,-1.269,0.732,87.8,yellow,257,TRUE
303,1661231687.384,1997.9136105241184,-2486.9164420606467,1000,3.593,-1.369,-1.438,103.7,green,257,TRUE
304,1661231687.625,3642.528352688109,6080.94101915196,1000,2.803,-1.27,0.153,101.8,blue,257,TRUE
305,1661231687.714,3694.1410579589806,6123.169103143373,1000,0.41,-1.518,-0.017,117.7,red,257,TRUE
306,1661231687.815,5471.733195348948,790.9390644313875,1000,3.988,-1.272,0.743,90.7,yellow,257,TRUE
307,1661231687.892,1991.328513308108,-2444.614737443253,1000,3.591,-1.369,-1.418,118.7,green,257,TRUE
308,1661231688.091,3640.2840810121434,6022.063724624754,1000,2.805,-1.269,0.11,114.7,blue,257,TRUE
309,1661231688.189,3716.675426005915,6086.0709550654,1000,0.413,-1.517,-0.016,105.7,red,257,TRUE
310,1661231688.281,5426.548660349546,738.252594060331,1000,3.994,-1.276,0.742,88.7,yellow,257,TRUE
311,1661231688.356,2000.0206778864851,-2415.127721985063,1000,3.605,-1.369,-1.4,103.7,green,257,TRUE
312,1661231688.539,3638.841841340172,6037.61644793036,1000,2.787,-1.274,0.139,99.7,blue,257,TRUE
313,1661231688.626,3724.871223960832,6084.46252240149,1000,0.415,-1.513,-0.015,117.7,red,257,TRUE
314,1661231688.818,1994.4669815707211,-2400.756760289767,1000,3.574,-1.372,-1.458,135.6,green,257,TRUE
315,1661231689.091,3631.5870553373247,6076.576210582482,1000,2.775,-1.275,0.159,101.7,blue,257,TRUE
316,1661231689.18,3729.13628771068,6091.496270156128,1000,0.419,-1.513,-0.016,102.8,red,257,TRUE
317,1661231689.268,6145.680683217082,1178.826267371029,1000,3.977,-1.272,0.728,88.8,yellow,257,TRUE
318,1661231691.467,3649.485831421536,6025.87978189615,1000,2.776,-1.283,0.123,104.6,blue,257,TRUE
319,1661231691.563,3728.9976152966883,6164.738330578824,1000,0.411,-1.528,-0.022,113.7,red,257,TRUE
320,1661231691.655,6114.310707427163,1141.2469050094824,1000,3.964,-1.264,0.622,96.7,yellow,257,TRUE
321,1661231691.738,1943.2446434149995,-2406.521791510198,1000,3.64,-1.382,-1.289,117.7,green,257,TRUE
322,1661231691.992,3668.5271685112625,6030.26269448322,1000,2.797,-1.281,0.192,103.9,blue,257,TRUE
323,1661231692.083,3717.858893489234,6121.907840460553,1000,0.421,-1.524,-0.022,103.7,red,257,TRUE
324,1661231692.172,4314.9076385122235,23.110014697387516,1000,3.952,-1.274,0.642,87.8,yellow,257,TRUE
325,1661231692.246,1928.6204469534066,-2405.708006378225,1000,3.663,-1.386,-1.297,118.7,green,257,TRUE
326,1661231692.445,3661.8218773515728,6061.138179951937,1000,2.908,-1.271,0.37,114.7,blue,257,TRUE
327,1661231692.547,3712.4407857238602,6107.430924683474,1000,0.401,-1.523,-0.022,101.7,red,257,TRUE
328,1661231692.636,3651.33419061413,-495.0921906856356,1000,3.95,-1.274,0.657,117.7,yellow,257,TRUE
329,1661231692.723,1853.2978781845425,-2335.222361198073,1000,3.643,-1.383,-1.309,105.7,green,257,TRUE
330,1661231692.907,3619.1812855276603,6078.600193613132,1000,2.947,-1.26,0.437,101.7,blue,257,TRUE
331,1661231692.997,3708.670289769847,6132.691288707683,1000,0.381,-1.525,-0.022,101.7,red,257,TRUE
332,1661231693.085,3210.7643327557357,-822.2600764672545,1000,3.942,-1.274,0.663,118.1,yellow,257,TRUE
333,1661231693.173,1839.0205470358833,-2325.5724066393104,1000,3.64,-1.382,-1.292,121.6,green,257,TRUE
334,1661231693.431,3605.429728864416,6130.589454413636,1000,2.916,-1.262,0.314,101.7,blue,257,TRUE
335,1661231693.52,3722.78423246909,6132.864212232452,1000,0.381,-1.529,-0.023,117.7,red,257,TRUE
336,1661231693.61,2966.4506740391394,-1023.1129719412207,1000,3.948,-1.261,0.651,86.8,yellow,257,TRUE
337,1661231693.893,3587.2877914778765,6116.038435199521,1000,2.885,-1.264,0.35,104.3,blue,257,TRUE
338,1661231693.983,3723.787919902836,6132.586150933312,1000,0.382,-1.53,-0.024,118.7,red,257,TRUE
339,1661231696.292,3720.7019115772205,6074.900160831756,1000,0.388,-1.533,-0.032,99.7,red,257,TRUE
340,1661231696.384,3000.5420726723837,-958.3050729430215,1000,3.973,-1.263,0.697,97.7,yellow,257,TRUE
341,1661231696.47,6511.230186305181,1162.8512455579462,1000,3.723,-1.402,-1.311,86.7,green,257,TRUE
342,1661231696.636,3569.1831127774126,6144.264718257672,1000,2.927,-1.264,0.276,114.7,blue,257,TRUE
343,1661231696.735,3700.319034303098,6115.031720620565,1000,0.397,-1.533,-0.032,120.7,red,257,TRUE
344,1661231696.84,3032.4261611301167,-901.9391208361873,1000,3.977,-1.263,0.688,90.8,yellow,257,TRUE
345,1661231697.1,3547.3177749398615,6161.543664699971,1000,2.921,-1.266,0.248,114.7,blue,257,TRUE
346,1661231697.199,3728.7314680291092,6150.534340253934,1000,0.395,-1.533,-0.032,105.7,red,257,TRUE
347,1661231697.29,3957.481599029415,-298.8965297950585,1000,3.984,-1.266,0.684,88.7,yellow,257,TRUE
348,1661231699.49,3495.8207942640274,6114.159031909621,1000,3.093,-1.167,0.467,104.8,blue,257,TRUE
349,1661231699.587,3722.5755944744324,6077.452476026574,1000,0.481,-1.479,-0.084,127.5,red,257,TRUE
350,1661231701.934,3821.810651089467,5694.979374222253,1000,2.114,-1.396,-0.962,114.7,red,257,TRUE
351,1661231704.285,3845.846435692352,5192.209303072414,1000,2.02,-1.444,-0.808,100.8,red,257,TRUE
352,1661231704.377,4235.610053697018,-179.6466033047776,1000,3.963,-1.235,0.767,82.8,yellow,257,TRUE
353,1661231706.601,3565.4683241868593,5417.587776254104,1000,1.713,-1.28,0.407,1136.2,blue,257,TRUE
354,1661231709.943,3900.345882353727,4615.752070801371,1000,1.13,-1.506,-0.031,114.1,red,257,TRUE
355,1661231712.245,3960.4402490651923,4012.8186472438992,1000,1.103,-1.53,-0.025,115.7,red,257,TRUE
356,1661231714.612,3961.1803938188295,3384.709307469883,1000,1.117,-1.541,-0.023,113.7,red,257,TRUE
357,1661231716.933,4000.185589357383,2901.980076635106,1000,1.127,-1.545,-0.02,98.7,red,257,TRUE
358,1661231717.024,4271.95608884061,-174.89173026311076,1000,3.961,-1.265,0.67,127.5,yellow,257,TRUE
359,1661231717.136,2105.171776219134,-2413.7273479010987,1000,3.529,-1.389,-1.619,104.5,green,257,TRUE
360,1661231717.33,3587.4251440822263,4638.423212580281,1000,1.582,-1.297,0.341,104.8,blue,257,TRUE
361,1661231717.424,3898.3540490534674,2736.620170133438,1000,1.142,-1.542,-0.022,115.7,red,257,TRUE
362,1661231719.789,3896.1106182530734,2647.091045536144,1000,1.157,-1.537,-0.021,99.7,red,257,TRUE
363,1661231719.881,4167.809972003554,-206.5587533794575,1000,3.952,-1.263,0.683,98.1,yellow,257,TRUE
364,1661231719.965,2104.7602104620682,-2480.9925852831757,1000,3.277,-1.334,-1.908,89.1,green,257,TRUE
365,1661231720.133,3621.4555054362722,3810.6172452290452,1000,1.517,-1.284,0.103,115.7,blue,257,TRUE
366,1661231720.232,3888.3662951525607,2660.0042162436707,1000,1.154,-1.537,-0.021,121.7,red,257,TRUE
367,1661231722.588,3914.2370080675587,2631.1735142157518,1000,1.133,-1.544,-0.024,113.7,red,257,TRUE
368,1661231722.68,4112.1161185741175,-287.71261662021004,1000,3.919,-1.27,0.68,96.7,yellow,257,TRUE
369,1661231724.901,3678.2990681145384,3017.3779120168892,1000,1.5,-1.288,0.172,105.7,blue,257,TRUE
370,1661231724.999,3920.685072631395,2643.9684735891005,1000,1.112,-1.537,-0.033,127.6,red,257,TRUE
371,1661231727.315,3921.9185528675857,2643.870309740271,1000,1.107,-1.538,-3.109,115.7,red,257,TRUE
372,1661231729.623,3924.5134247714086,2632.122874325447,1000,1.104,-1.537,-3.108,112.7,red,257,TRUE
373,1661231731.97,3925.2487999214077,2651.787635021487,1000,1.1,-1.539,-3.11,115.3,red,257,TRUE
374,1661231733.09,3430.681543194149,-728.0648533371121,1000,3.265,-1.347,-1.733,1179.9,green,257,TRUE
375,1661231734.285,3723.7024991369394,2243.3914225921803,1000,1.481,-1.292,0.309,105.0,blue,257,TRUE
376,1661231734.382,3930.6571058391855,2665.2221206109775,1000,1.104,-1.539,-0.031,127.7,red,257,TRUE
377,1661231736.699,3922.7389926437195,2700.5104355918716,1000,1.103,-1.539,-0.031,114.5,red,257,TRUE
378,1661231739.018,3938.091999167083,2682.1293103628486,1000,1.115,-1.548,-3.121,99.7,red,257,TRUE
379,1661231739.11,3072.644653816249,-913.6842765526775,1000,3.965,-1.248,0.321,82.8,yellow,257,TRUE
380,1661231739.18,4235.056080875923,-437.2347676871839,1000,3.129,-1.364,-1.668,86.8,green,257,TRUE
381,1661231739.358,3848.6043638809447,1475.2788744536674,1000,1.545,-1.3,0.313,103.8,blue,257,TRUE
382,1661231739.449,3964.8270719233697,2669.835113402251,1000,1.107,-1.546,-3.119,102.7,red,257,TRUE
383,1661231739.54,1444.4128227244234,-1369.839301661941,1000,3.982,-1.246,0.319,101.7,yellow,257,TRUE
384,1661231739.628,4729.588197998763,-268.26628964185517,1000,3.153,-1.359,-1.689,87.8,green,257,TRUE
385,1661231739.82,3864.468652904757,1311.8303273702325,1000,1.553,-1.292,0.249,120.7,blue,257,TRUE
386,1661231739.925,3986.4142651540883,2660.6706092512723,1000,1.103,-1.547,-3.119,120.7,red,257,TRUE
387,1661231742.281,3983.302433580004,2651.4477815177183,1000,1.086,-1.542,-0.027,113.7,red,257,TRUE
388,1661231742.387,1210.7979836202398,-1489.4934760268025,1000,3.985,-1.272,0.368,112.7,yellow,257,TRUE
389,1661231742.472,4956.531522662542,208.05984883065477,1000,3.142,-1.355,-1.731,87.8,green,257,TRUE
390,1661231742.639,3908.7315185418593,1270.170387046983,1000,1.571,-1.301,0.284,115.1,blue,257,TRUE
391,1661231742.738,3973.9909291007098,2645.463183047257,1000,1.1,-1.542,-0.027,120.7,red,257,TRUE
392,1661231742.843,1258.1791376512888,-1477.13916430492,1000,3.968,-1.274,0.35,105.7,yellow,257,TRUE
393,1661231742.933,5727.057727275572,694.3387171630748,1000,3.145,-1.354,-1.73,90.7,green,257,TRUE
394,1661231743.103,3933.60826841244,1325.2478507203743,1000,1.575,-1.3,0.273,100.4,blue,257,TRUE
395,1661231743.191,3955.8510740404668,2642.1582540699687,1000,1.104,-1.541,-3.112,117.7,red,257,TRUE
396,1661231743.293,1375.9144156486184,-1446.5936467564513,1000,3.965,-1.269,0.304,91.2,yellow,257,TRUE
397,1661231743.37,5673.834881187863,683.9031316990139,1000,3.156,-1.352,-1.737,88.7,green,257,TRUE
398,1661231743.596,3954.390746844934,1322.59118977292,1000,1.568,-1.3,0.295,101.8,blue,257,TRUE
399,1661231743.685,3946.700591838105,2646.6463708993397,1000,1.101,-1.535,-3.106,117.6,red,257,TRUE
400,1661231743.787,945.8716038123863,-1848.977384636369,1000,3.992,-1.263,0.284,105.7,yellow,257,TRUE
401,1661231743.877,5774.8028613898605,422.74328673372526,1000,3.174,-1.353,-1.754,90.7,green,257,TRUE
402,1661231744.046,4028.854232668485,1139.2935121307044,1000,1.569,-1.297,0.288,100.7,blue,257,TRUE
403,1661231744.134,3921.471791310091,2662.801885468715,1000,1.097,-1.535,-3.106,102.7,red,257,TRUE
404,1661231744.224,1546.5122287770046,-1679.3235688857096,1000,4.018,-1.263,0.281,102.7,yellow,257,TRUE
405,1661231744.31,5788.063273900305,536.7046289880712,1000,3.181,-1.355,-1.767,90.7,green,257,TRUE
406,1661231744.481,4039.845466728526,1111.2499474800904,1000,1.569,-1.298,0.309,99.7,blue,257,TRUE
407,1661231744.569,3900.019551028667,2677.92154936109,1000,1.096,-1.536,-3.107,101.6,red,257,TRUE
408,1661231744.657,2699.4726464485034,-1689.487017049362,1000,4.003,-1.264,0.307,103.3,yellow,257,TRUE
409,1661231744.744,5781.26418704365,550.6312831940061,1000,3.188,-1.356,-1.749,106.3,green,257,TRUE
410,1661231745.001,4039.846071070981,1123.4410366960635,1000,1.565,-1.296,0.301,103.7,blue,257,TRUE
411,1661231745.091,3918.3318389140954,2675.11728339727,1000,1.089,-1.537,-3.109,103.7,red,257,TRUE
412,1661231745.183,2604.647094810162,-1701.925423928532,1000,3.991,-1.265,0.288,86.8,yellow,257,TRUE
413,1661231745.255,5878.556659586822,335.0743702413111,1000,3.183,-1.355,-1.715,119.7,green,257,TRUE
414,1661231745.452,4068.13791522375,1081.4320723209905,1000,1.563,-1.297,0.298,101.7,blue,257,TRUE
415,1661231745.544,3947.4494495144722,2646.3095758991644,1000,1.1,-1.537,-3.108,100.7,red,257,TRUE
416,1661231745.63,2451.5573779489896,-1738.6832220523654,1000,4.024,-1.261,0.254,103.0,yellow,257,TRUE
417,1661231745.717,5034.016184821566,-171.4832036122277,1000,3.182,-1.355,-1.719,106.0,green,257,TRUE
418,1661231745.927,4072.6792545915346,1043.5566487262586,1000,1.562,-1.299,0.301,105.7,blue,257,TRUE
419,1661231746.019,3985.174556285452,2610.365116415014,1000,1.093,-1.536,-3.108,103.8,red,257,TRUE
420,1661231746.108,2402.5290506758156,-1755.0087968415276,1000,4.035,-1.252,0.29,88.8,yellow,257,TRUE
421,1661231746.184,5845.301836275183,463.5622563204902,1000,3.181,-1.356,-1.706,87.8,green,257,TRUE
422,1661231746.422,4085.436879773463,994.2234775048423,1000,1.562,-1.299,0.3,103.4,blue,257,TRUE
423,1661231746.512,4005.108074868143,2589.3224787397303,1000,1.089,-1.535,-3.106,103.8,red,257,TRUE
424,1661231746.604,1932.6049940378564,-1912.4410905453485,1000,3.93,-1.257,0.344,87.8,yellow,257,TRUE
425,1661231746.678,5832.153064797098,450.79669549423915,1000,3.172,-1.356,-1.708,101.7,green,257,TRUE
426,1661231746.884,4044.9621149660434,1106.798267585971,1000,1.564,-1.299,0.292,105.7,blue,257,TRUE
427,1661231746.976,4032.7650607759056,2554.5838432097285,1000,1.091,-1.534,-3.106,103.7,red,257,TRUE
428,1661231747.065,1439.8574819077076,-2081.1245025377602,1000,3.952,-1.258,0.333,88.8,yellow,257,TRUE
429,1661231747.141,5826.267318842812,405.036390677868,1000,3.169,-1.355,-1.71,87.8,green,257,TRUE
430,1661231747.333,4008.097549798716,1119.7123254383655,1000,1.565,-1.298,0.279,107.3,blue,257,TRUE
431,1661231747.424,4067.543833472942,2517.1376048240368,1000,1.091,-1.534,-3.106,104.4,red,257,TRUE
432,1661231747.515,1097.0067944263535,-2208.291633192572,1000,4.008,-1.248,0.325,88.8,yellow,257,TRUE
433,1661231747.592,5832.522154539024,539.7221544348143,1000,3.161,-1.355,-1.708,87.0,green,257,TRUE
434,1661231747.827,4030.772378099841,1106.3278671941978,1000,1.57,-1.297,0.28,120.6,blue,257,TRUE
435,1661231747.932,4072.004888787314,2506.9770469477103,1000,1.092,-1.535,-3.106,105.7,red,257,TRUE
436,1661231748.024,1141.1506879036924,-2254.095529201419,1000,4.028,-1.237,0.316,88.8,yellow,257,TRUE
437,1661231748.097,5848.772865962331,456.1265133756677,1000,3.178,-1.357,-1.681,89.8,green,257,TRUE
438,1661231748.276,4002.7593298654906,1097.786728472022,1000,1.565,-1.297,0.285,120.4,blue,257,TRUE
439,1661231748.38,4062.3230981947295,2515.302830492247,1000,1.092,-1.535,-3.106,105.7,red,257,TRUE
440,1661231748.473,1134.492280505208,-2252.6102392953503,1000,4.037,-1.239,0.287,87.4,yellow,257,TRUE
441,1661231748.547,6570.414950507696,1357.1041196608617,1000,3.159,-1.356,-1.7,103.4,green,257,TRUE
442,1661231748.739,3987.615322590356,1141.6165709288966,1000,1.559,-1.299,0.314,120.6,blue,257,TRUE
443,1661231748.844,4063.5192741996384,2526.8173806907457,1000,1.09,-1.535,-3.106,120.5,red,257,TRUE
444,1661231748.943,1060.7567216140724,-2269.3147877691913,1000,4.06,-1.244,0.348,96.6,yellow,257,TRUE
445,1661231749.025,5821.837274931084,702.8516502314474,1000,3.115,-1.352,-1.778,88.8,green,257,TRUE
446,1661231749.263,3954.735404522026,1208.5115014114117,1000,1.544,-1.283,0.251,121.6,blue,257,TRUE
447,1661231749.367,4055.2744414336776,2522.247190589161,1000,1.089,-1.535,-3.106,105.7,red,257,TRUE
448,1661231749.459,1097.4462756352275,-2258.8195973078723,1000,4.054,-1.245,0.331,89.2,yellow,257,TRUE
449,1661231749.534,5048.542624253415,100.47515140818905,1000,3.124,-1.354,-1.68,89.2,green,257,TRUE
450,1661231749.712,3933.0311897570714,1216.5563122225838,1000,1.466,-1.288,0.226,120.7,blue,257,TRUE
451,1661231749.816,4051.238419094539,2505.8978164425866,1000,1.088,-1.532,-3.106,120.6,red,257,TRUE
452,1661231749.921,1157.7061299143,-2248.56801989118,1000,4.045,-1.233,0.304,90.7,yellow,257,TRUE
453,1661231749.998,4287.927229243024,-529.0422769599704,1000,3.098,-1.347,-1.742,88.8,green,257,TRUE
454,1661231750.166,3928.061571459221,1251.2280853994255,1000,1.456,-1.294,0.185,99.7,blue,257,TRUE
455,1661231750.252,4025.176255216263,2511.674458993015,1000,1.09,-1.533,-3.106,119.0,red,257,TRUE
456,1661231750.355,1191.909457296603,-2239.3036105224096,1000,4.063,-1.225,0.302,90.8,yellow,257,TRUE
457,1661231750.432,3540.090915648174,-1228.0354818251928,1000,3.117,-1.349,-1.695,89.1,green,257,TRUE
458,1661231750.659,3898.567555979893,1270.4731742737638,1000,1.578,-1.278,0.131,101.8,blue,257,TRUE
459,1661231750.748,4008.9047104804645,2522.012488840187,1000,1.09,-1.534,-3.106,117.6,red,257,TRUE
460,1661231750.85,1122.3503555314546,-2204.593042958102,1000,4.023,-1.242,0.329,106.2,yellow,257,TRUE
461,1661231750.94,2764.9680270380463,-1786.1829373796227,1000,3.123,-1.349,-1.676,105.7,green,257,TRUE
462,1661231751.126,3925.3806620134806,1226.5888724263602,1000,1.528,-1.262,0.061,99.8,blue,257,TRUE
463,1661231751.212,4009.874789125311,2523.0471019700644,1000,1.107,-1.537,-3.109,118.7,red,257,TRUE
464,1661231751.314,1198.199645660933,-2182.4265091753073,1000,4.031,-1.246,0.314,90.8,yellow,257,TRUE
465,1661231751.391,2057.5202148967983,-2704.4337333434983,1000,3.121,-1.344,-1.635,103.7,green,257,TRUE
466,1661231751.577,3918.258479764583,1239.4025311668888,1000,1.493,-1.263,0.063,112.7,blue,257,TRUE
467,1661231751.676,3991.936752435904,2525.267191210966,1000,1.103,-1.535,-3.107,117.7,red,257,TRUE
468,1661231751.778,1303.2538899397382,-2149.6994543882834,1000,4.048,-1.235,0.28,121.2,yellow,257,TRUE
469,1661231754.025,3871.0508219826643,1238.4847846771734,1000,1.541,-1.275,0.121,104.7,blue,257,TRUE
470,1661231754.121,3974.337465637295,2553.585900298946,1000,1.103,-1.533,-0.036,113.7,red,257,TRUE
471,1661231756.425,3972.2642369397777,2587.304198724108,1000,1.126,-1.537,-0.028,99.6,red,257,TRUE
472,1661231756.516,1354.035292269287,-2142.317200439174,1000,3.966,-1.251,0.328,97.7,yellow,257,TRUE
473,1661231756.603,2078.1097031405375,-2730.6237868480594,1000,3.094,-1.349,-1.716,85.8,green,257,TRUE
474,1661231756.778,3851.0391498100785,1315.6586935435168,1000,1.392,-1.3,0.326,120.6,blue,257,TRUE
475,1661231756.882,3983.632315880422,2602.382600602084,1000,1.106,-1.536,-0.028,105.7,red,257,TRUE
476,1661231756.974,1433.253275161329,-2115.882278304837,1000,3.974,-1.249,0.308,103.7,yellow,257,TRUE
477,1661231757.064,2107.0534405758867,-2802.6388524747376,1000,3.119,-1.352,-1.696,88.8,green,257,TRUE
478,1661231757.241,3919.256136945955,1232.4189773101862,1000,1.378,-1.296,0.453,120.7,blue,257,TRUE
479,1661231757.346,3985.791105711493,2569.299699490268,1000,1.095,-1.532,-0.035,105.7,red,257,TRUE
480,1661231757.438,1367.8644071719198,-2133.1979515405274,1000,3.98,-1.24,0.281,88.7,yellow,257,TRUE
481,1661231757.513,2762.71240735504,-1846.3753412278013,1000,3.086,-1.345,-1.665,88.8,green,257,TRUE
482,1661231757.737,3956.7267076289136,1242.7372860976009,1000,1.383,-1.292,0.452,118.7,blue,257,TRUE
483,1661231757.84,3971.6638345824445,2587.800246858527,1000,1.097,-1.526,-3.1,120.7,red,257,TRUE
484,1661231757.945,1465.7050567111874,-2114.554601743954,1000,4.018,-1.236,0.269,90.7,yellow,257,TRUE
485,1661231758.022,3509.3010034690233,-1168.4733470669453,1000,3.123,-1.345,-1.681,103.8,green,257,TRUE
486,1661231758.205,3927.663186464877,1313.779743271177,1000,1.377,-1.292,0.442,114.7,blue,257,TRUE
487,1661231758.304,3943.873449391831,2600.8062669722144,1000,1.085,-1.511,-3.088,120.7,red,257,TRUE
488,1661231758.409,1428.8523438672812,-2122.3069490489793,1000,3.984,-1.236,0.305,90.8,yellow,257,TRUE
489,1661231758.486,4256.050922084788,-545.1067779619103,1000,3.101,-1.345,-1.722,88.8,green,257,TRUE
490,1661231758.656,3948.161057439444,1329.783101326939,1000,1.365,-1.292,0.448,127.7,blue,257,TRUE
491,1661231758.768,3937.149675460822,2604.1991517268602,1000,1.084,-1.509,-3.088,120.7,red,257,TRUE
492,1661231758.873,2198.210107648776,-1545.787128788453,1000,3.941,-1.249,0.32,90.8,yellow,257,TRUE
493,1661231758.952,5079.128339111606,44.311431873805475,1000,3.096,-1.344,-1.733,100.8,green,257,TRUE
494,1661231759.189,3988.403546350059,1338.0320175902468,1000,1.299,-1.293,0.312,103.7,blue,257,TRUE
495,1661231759.278,3910.2740587047497,2610.768301817019,1000,1.083,-1.501,-3.088,118.6,red,257,TRUE
496,1661231759.381,3070.7027010738275,-933.5800073664404,1000,3.93,-1.249,0.334,90.7,yellow,257,TRUE
497,1661231759.458,5804.435372383625,691.6509381232808,1000,3.097,-1.344,-1.648,103.8,green,257,TRUE
498,1661231759.643,4048.685300185289,1285.4082186031476,1000,1.263,-1.292,0.279,127.4,blue,257,TRUE
499,1661231759.755,3885.4460106012975,2626.160168221673,1000,1.085,-1.496,-3.088,120.7,red,257,TRUE
500,1661231759.86,3365.771050112989,-819.1915454259542,1000,3.95,-1.249,0.308,105.7,yellow,257,TRUE
501,1661231759.949,6562.859359066751,1385.8756096014931,1000,3.099,-1.346,-1.674,105.7,green,257,TRUE
502,1661231760.119,4020.4224919372004,1370.601046189352,1000,1.257,-1.295,0.327,100.7,blue,257,TRUE
503,1661231760.207,3866.616114504733,2674.9279067950088,1000,1.09,-1.501,-3.087,117.7,red,257,TRUE
504,1661231760.308,3285.6643948875358,-823.1495383549735,1000,3.967,-1.247,0.313,105.7,yellow,257,TRUE
505,1661231760.398,6693.599740576399,1129.8212866265974,1000,3.095,-1.347,-1.664,91.2,green,257,TRUE
506,1661231760.628,4020.1263045313462,1388.742511531482,1000,1.268,-1.295,0.329,100.7,blue,257,TRUE
507,1661231760.716,3856.5470716926666,2672.28725096867,1000,1.083,-1.505,-3.085,118.1,red,257,TRUE
508,1661231760.818,3126.397454010228,-853.4605833103042,1000,4.0,-1.241,0.286,105.7,yellow,257,TRUE
509,1661231760.908,6681.913601227089,1133.8827436033002,1000,3.091,-1.347,-1.667,105.7,green,257,TRUE
510,1661231761.093,4032.1056353787776,1395.751719718792,1000,1.269,-1.294,0.336,99.7,blue,257,TRUE
511,1661231761.18,3872.6485917436507,2680.829441103149,1000,1.081,-1.508,-3.084,102.8,red,257,TRUE
512,1661231761.269,3472.494717264135,-732.1665592407966,1000,3.966,-1.242,0.307,103.7,yellow,257,TRUE
513,1661231761.356,5947.666834203571,457.6474199205247,1000,3.088,-1.347,-1.674,90.7,green,257,TRUE
514,1661231761.527,4066.96319862225,1349.9592139346742,1000,1.273,-1.294,0.331,100.2,blue,257,TRUE
515,1661231761.615,3874.7481412692537,2685.1578517694866,1000,1.078,-1.508,-3.084,116.7,red,257,TRUE
516,1661231763.922,3872.550005241814,2689.3227321216164,1000,1.076,-1.509,-3.083,99.5,red,257,TRUE
517,1661231764.013,2962.460178561936,-1204.9908256135525,1000,3.999,-1.264,0.289,83.0,yellow,257,TRUE
518,1661231764.082,5187.717777775349,-139.253895812677,1000,3.076,-1.346,-1.676,88.8,green,257,TRUE
519,1661231764.26,4101.411020088038,1334.6386224849055,1000,1.389,-1.282,0.184,121.2,blue,257,TRUE
520,1661231764.365,3881.598297961568,2686.7862094908687,1000,1.078,-1.506,-3.083,105.7,red,257,TRUE
521,1661231764.458,2063.242848504742,-1830.9718955529534,1000,3.959,-1.26,0.328,87.7,yellow,257,TRUE
522,1661231764.532,4413.19330007378,-732.5984414695304,1000,3.066,-1.346,-1.654,103.7,green,257,TRUE
523,1661231764.725,4061.4108807702146,1333.22943176918,1000,1.517,-1.261,0.022,121.1,blue,257,TRUE
524,1661231764.83,3874.1651019414003,2684.980949409494,1000,1.107,-1.506,-3.09,120.7,red,257,TRUE
525,1661231764.935,1609.4176826019802,-1976.3950250165797,1000,3.966,-1.256,0.345,90.7,yellow,257,TRUE
526,1661231765.011,3607.507901239909,-1367.3167265975073,1000,3.077,-1.345,-1.671,88.8,green,257,TRUE
527,1661231765.207,4038.8017435215975,1299.3350184358515,1000,1.528,-1.258,0.045,117.7,blue,257,TRUE
528,1661231765.309,3873.2304881334217,2677.9780550276637,1000,1.102,-1.51,-3.09,121.6,red,257,TRUE
529,1661231765.413,1498.117753924377,-1981.288652911747,1000,4.003,-1.265,0.307,90.7,yellow,257,TRUE
530,1661231765.49,2855.1597929053373,-2050.8291604144074,1000,3.072,-1.344,-1.648,88.8,green,257,TRUE
531,1661231765.661,3995.102711980087,1329.665037145425,1000,1.515,-1.27,0.091,112.7,blue,257,TRUE
532,1661231765.757,3877.793579430518,2665.0980057715637,1000,1.098,-1.508,-3.088,105.7,red,257,TRUE
533,1661231765.85,1572.058532591391,-1973.1449287308903,1000,4.021,-1.259,0.301,103.2,yellow,257,TRUE
534,1661231765.937,1985.8917985302949,-2692.100257093761,1000,3.074,-1.345,-1.645,91.1,green,257,TRUE
535,1661231766.108,3968.6463520918314,1350.981562622094,1000,1.517,-1.274,0.101,99.8,blue,257,TRUE
536,1661231766.195,3873.1208430409606,2664.7730423136263,1000,1.092,-1.508,-3.088,117.7,red,257,TRUE
537,1661231766.297,1231.5366961547431,-2102.8459738354863,1000,4.057,-1.254,0.289,105.7,yellow,257,TRUE
538,1661231766.386,1946.6339254756776,-2634.0742481796947,1000,3.071,-1.344,-1.632,90.7,green,257,TRUE
539,1661231766.616,3939.4106141413395,1371.999742997039,1000,1.524,-1.277,0.109,100.7,blue,257,TRUE
540,1661231766.704,3943.3985345163496,2657.0639482705087,1000,1.07,-1.51,-3.086,117.7,red,257,TRUE
541,1661231766.806,1244.7232075535328,-2094.502161589809,1000,4.02,-1.265,0.308,105.7,yellow,257,TRUE
542,1661231766.895,1965.141407906525,-2663.5274151497447,1000,3.078,-1.345,-1.661,90.7,green,257,TRUE
543,1661231767.066,3922.387986325514,1387.564440796222,1000,1.538,-1.282,0.109,99.7,blue,257,TRUE
544,1661231767.153,3966.060563571267,2613.647718906328,1000,1.062,-1.515,-3.089,118.0,red,257,TRUE
545,1661231767.255,2123.480624229573,-1502.6921020515895,1000,4.015,-1.263,0.343,105.7,yellow,257,TRUE
546,1661231767.344,1982.0607060582854,-2673.162497255576,1000,3.073,-1.345,-1.658,105.7,green,257,TRUE
547,1661231767.53,3934.395873794387,1393.34290767778,1000,1.537,-1.28,0.127,99.8,blue,257,TRUE
548,1661231767.617,4000.8118417756486,2558.602363426866,1000,1.086,-1.517,-3.091,101.8,red,257,TRUE
549,1661231767.706,1502.8387755851224,-1365.5644365383896,1000,4.025,-1.268,0.359,102.7,yellow,257,TRUE
550,1661231767.793,2063.4502263798086,-2727.0159548295765,1000,3.075,-1.345,-1.642,90.6,green,257,TRUE
551,1661231768.019,3919.4023240420047,1416.1675941522171,1000,1.497,-1.286,0.152,103.7,blue,257,TRUE
552,1661231768.111,4025.650461407367,2510.6181958888096,1000,1.079,-1.515,-3.088,101.7,red,257,TRUE
553,1661231768.2,1760.5373032884972,-1341.7815492160573,1000,4.009,-1.264,0.346,117.5,yellow,257,TRUE
554,1661231768.286,2782.0511344578367,-2086.7386424938463,1000,3.072,-1.345,-1.63,105.7,green,257,TRUE
555,1661231768.47,3915.927806169353,1357.9682618470404,1000,1.472,-1.294,0.167,101.7,blue,257,TRUE
556,1661231768.562,4047.5654800671514,2471.4824963573974,1000,1.076,-1.513,-3.087,99.7,red,257,TRUE
557,1661231768.648,2612.3231851091773,-711.379004055304,1000,4.05,-1.262,0.277,117.7,yellow,257,TRUE
558,1661231768.735,2843.121887418431,-2061.560326887941,1000,3.072,-1.344,-1.619,135.5,green,257,TRUE
559,1661231769.963,4049.4871666288996,2466.477570249341,1000,1.092,-1.517,-3.09,104.8,red,257,TRUE
560,1661231770.131,2848.2117739601777,-2079.4915953842933,1000,3.064,-1.343,-1.621,86.8,green,257,TRUE
561,1661231770.322,3906.9009628527415,1316.0709913019907,1000,1.473,-1.299,0.228,121.7,blue,257,TRUE
562,1661231770.426,3988.2831890052553,2463.620338410575,1000,1.095,-1.517,-3.09,105.7,red,257,TRUE
563,1661231770.518,6258.899984300185,1300.2037335077669,1000,4.032,-1.266,0.371,88.8,yellow,257,TRUE
564,1661231770.592,2864.7112267561242,-2084.107046857854,1000,3.06,-1.343,-1.629,89.8,green,257,TRUE
565,1661231770.77,3909.4269614982895,1262.3453136207233,1000,1.494,-1.297,0.18,120.7,blue,257,TRUE
566,1661231770.875,3988.2432423896807,2456.4620557553926,1000,1.09,-1.515,-3.088,105.7,red,257,TRUE
567,1661231770.967,3655.8490101363113,-449.87541352351,1000,4.121,-1.223,0.509,88.8,yellow,257,TRUE
568,1661231771.041,2850.276860462338,-2078.529939001393,1000,3.054,-1.343,-1.642,88.7,green,257,TRUE
569,1661231771.279,3920.3444509013875,1233.7590556197872,1000,1.547,-1.302,0.238,120.6,blue,257,TRUE
570,1661231771.383,3968.0980005559227,2496.4096448447795,1000,1.09,-1.516,-3.088,105.7,red,257,TRUE
571,1661231771.475,3032.7032669136734,-1001.4462260728951,1000,4.388,-1.241,0.615,88.8,yellow,257,TRUE
572,1661231771.55,2767.3465334460375,-2028.043003838622,1000,3.052,-1.343,-1.642,104.7,green,257,TRUE
573,1661231771.743,3893.0691791681493,1201.5819961473615,1000,1.559,-1.309,0.221,120.6,blue,257,TRUE
574,1661231771.847,3954.4632218409315,2547.960120770013,1000,1.092,-1.515,-3.087,120.7,red,257,TRUE
575,1661231771.952,2724.3847278318262,-1280.1693912413498,1000,4.607,-1.249,0.818,91.4,yellow,257,TRUE
576,1661231772.029,1988.832122835244,-2628.054048495892,1000,3.052,-1.343,-1.641,103.5,green,257,TRUE
577,1661231772.212,3869.353306777541,1205.6109346196731,1000,1.598,-1.276,0.128,115.5,blue,257,TRUE
578,1661231772.311,3921.008812938153,2584.6295784568115,1000,1.086,-1.514,-3.086,120.6,red,257,TRUE
579,1661231772.416,1471.6379121295365,-1289.2217130309004,1000,4.309,-1.314,0.699,90.8,yellow,257,TRUE
580,1661231772.492,2081.8630373261353,-2696.709426667008,1000,3.055,-1.343,-1.649,89.8,green,257,TRUE
581,1661231772.717,3876.0885874677824,1130.352976018872,1000,1.563,-1.276,0.061,118.7,blue,257,TRUE
582,1661231772.82,3920.7787350240574,2584.434799886994,1000,1.091,-1.515,-3.086,135.6,red,257,TRUE
583,1661231775.146,3918.6780338369445,2592.1303655645474,1000,1.086,-1.514,-3.086,114.7,red,257,TRUE
584,1661231775.239,1493.5412744059804,-1430.4181321276637,1000,4.362,-1.248,0.741,96.8,yellow,257,TRUE
585,1661231775.323,2085.172244384147,-2695.5693468628565,1000,3.073,-1.345,-1.647,102.7,green,257,TRUE
586,1661231775.503,3849.3198673107727,1215.348720399127,1000,1.6,-1.305,0.412,101.7,blue,257,TRUE
587,1661231775.595,3896.1768816145013,2642.595177706114,1000,1.088,-1.514,-3.086,99.8,red,257,TRUE
588,1661231775.682,730.7943842676167,-1994.3069309183184,1000,4.36,-1.254,0.754,102.8,yellow,257,TRUE
589,1661231775.769,2051.1290379851107,-2666.423409169524,1000,3.043,-1.347,-1.569,120.7,green,257,TRUE
590,1661231775.968,3826.9294764634774,1235.6964263554735,1000,1.541,-1.28,0.151,100.8,blue,257,TRUE
591,1661231776.055,3896.665321112569,2648.9086643010637,1000,1.086,-1.514,-3.086,103.8,red,257,TRUE
592,1661231776.147,840.7756037499312,-1968.6455895113293,1000,4.273,-1.273,0.74,86.8,yellow,257,TRUE
593,1661231776.22,2073.733626718495,-2645.282546380032,1000,3.247,-1.36,-1.349,118.6,green,257,TRUE
594,1661231776.489,3773.0840750510247,1216.2182472628149,1000,1.53,-1.28,0.116,103.7,blue,257,TRUE
595,1661231776.58,3896.1310878211593,2631.359731672894,1000,1.08,-1.513,-3.086,102.9,red,257,TRUE
596,1661231776.672,833.9979111579673,-2004.818413088322,1000,4.289,-1.268,0.737,114.7,yellow,257,TRUE
597,1661231776.758,2048.9864747459437,-2624.174001338312,1000,3.216,-1.37,-1.366,119.0,green,257,TRUE
598,1661231776.969,3769.652309804486,1237.806925794552,1000,1.57,-1.275,0.2,102.8,blue,257,TRUE
