,timestamp,x,y,z,yaw,roll,pitch,latency,student,session,success
0,1661235809.954,1343.4439329186964,-1360.645817561781,1000,4.407,-1.51,-0.004,104.7,red,258,TRUE
1,1661235810.05,3657.3854262363407,-593.8980032696591,1000,5.841,-0.208,-0.022,127.4,yellow,258,TRUE
2,1661235815.752,1513.8052709201004,-823.7419340701211,1000,5.892,-1.365,1.877,113.4,blue,258,TRUE
3,1661235815.857,1622.1028504108065,-641.7462969995795,1000,5.118,-1.461,-0.022,114.7,red,258,TRUE
4,1661235818.174,1860.620288448167,149.94698986968737,1000,4.299,-1.433,-0.086,114.5,red,258,TRUE
5,1661235820.508,2069.6470927969094,927.0312184098799,1000,4.508,-1.428,0.1,114.7,red,258,TRUE
6,1661235820.601,3621.382299937786,-577.055021262232,1000,5.841,-0.208,-0.022,156.5,yellow,258,TRUE
7,1661235820.888,1679.8632881448466,145.42988987770067,1000,3.784,-1.388,2.075,109.1,blue,258,TRUE
8,1661235820.983,2274.118366906796,1639.9142208113835,1000,4.384,-1.405,0.023,118.7,red,258,TRUE
9,1661235822.259,1937.8161409534569,987.3020798198671,1000,3.764,-1.389,2.059,100.4,blue,258,TRUE
10,1661235822.346,2424.41512868459,2397.177483114857,1000,4.408,-1.477,-0.021,117.7,red,258,TRUE
11,1661235823.622,2204.866554996254,1861.2536398388986,1000,3.79,-1.39,2.02,99.7,blue,258,TRUE
12,1661235823.708,2640.1513003566233,3034.0308307554365,1000,4.369,-1.494,-0.074,133.6,red,258,TRUE
13,1661235826.105,2682.247675062035,3030.5706483413855,1000,4.398,-1.51,-0.057,115.7,red,258,TRUE
14,1661235828.469,2708.5908705469515,2959.548242654457,1000,4.397,-1.513,-0.046,114.7,red,258,TRUE
15,1661235828.562,3242.8364687095873,-785.8615092925614,1000,5.84,-0.209,-0.022,111.7,yellow,258,TRUE
16,1661235828.648,3392.575737316596,-723.227377931159,1000,4.865,-1.143,0.565,85.8,green,258,TRUE
17,1661235828.837,2395.5806560555957,2769.082202846177,1000,3.783,-1.381,2.083,105.7,blue,258,TRUE
18,1661235828.929,2759.2825704252828,2926.480887366601,1000,4.393,-1.513,-0.045,119.7,red,258,TRUE
19,1661235831.299,2759.269426153114,2956.1685464526163,1000,4.425,-1.455,-0.009,113.7,red,258,TRUE
20,1661235833.664,2729.291056676806,2942.985823748044,1000,4.421,-1.492,-0.014,112.7,red,258,TRUE
21,1661235836.026,2694.218921973535,2962.2819551568846,1000,4.459,-1.49,-0.026,113.7,red,258,TRUE
22,1661235836.118,3243.643276398947,-793.6180484447781,1000,5.84,-0.209,-0.022,156.6,yellow,258,TRUE
23,1661235836.379,2664.920752418209,3668.386619309195,1000,3.808,-1.39,2.001,104.7,blue,258,TRUE
24,1661235836.471,2655.677494153335,2976.594590353185,1000,4.524,-1.457,-0.005,102.8,red,258,TRUE
25,1661235836.56,3254.607010349391,-809.6183488941151,1000,5.84,-0.209,-0.022,93.7,yellow,258,TRUE
26,1661235836.782,2608.289283788526,3689.592142654012,1000,3.797,-1.39,2.016,121.7,blue,258,TRUE
27,1661235836.887,2628.6512644529535,2996.6018014609867,1000,4.567,-1.455,-0.001,105.7,red,258,TRUE
28,1661235836.979,3262.853231030629,-819.5586055524446,1000,5.84,-0.209,-0.022,91.8,yellow,258,TRUE
29,1661235837.201,2587.4814846472273,3056.830257900352,1000,4.584,-1.449,-0.004,1122.4,blue,258,TRUE
30,1661235837.201,2601.195052714814,3021.312274907749,1000,4.584,-1.449,-0.004,1123.4,red,258,TRUE
31,1661235839.496,2561.2515607085215,3414.3141643791196,1000,3.805,-1.389,2.015,99.7,blue,258,TRUE
32,1661235839.585,2711.0972920903114,2744.18281680946,1000,4.623,-1.405,0.096,100.7,red,258,TRUE
33,1661235839.672,3252.34548006841,-818.3411693765216,1000,5.84,-0.209,-0.022,102.8,yellow,258,TRUE
34,1661235839.905,2612.038965907656,3537.864815316958,1000,3.808,-1.39,1.991,111.1,blue,258,TRUE
35,1661235840.001,2718.1327475665103,2737.3617131535284,1000,4.623,-1.407,0.083,104.1,red,258,TRUE
36,1661235840.094,3239.320499172458,-816.4572961642203,1000,5.84,-0.209,-0.022,88.7,yellow,258,TRUE
37,1661235840.287,2636.7812857518147,3577.6861292750255,1000,3.805,-1.392,1.979,102.8,blue,258,TRUE
38,1661235840.378,2704.8580276113385,2801.0933186785455,1000,4.62,-1.407,0.07,101.7,red,258,TRUE
39,1661235840.466,3246.734074996699,-813.5824462347842,1000,5.84,-0.209,-0.022,89.8,yellow,258,TRUE
40,1661235840.658,2649.2361802458063,3591.7243224514764,1000,3.819,-1.392,1.959,120.6,blue,258,TRUE
41,1661235840.762,2695.26153332789,2836.5659807663505,1000,4.616,-1.409,0.059,135.7,red,258,TRUE
42,1661235842.055,2650.9408757760903,3609.9185001445044,1000,3.823,-1.39,1.961,99.6,blue,258,TRUE
43,1661235842.144,2694.8101193895614,2818.3837011584046,1000,4.625,-1.404,0.061,115.7,red,258,TRUE
44,1661235843.418,2679.5374992588945,3721.982930476781,1000,3.826,-1.39,1.961,99.8,blue,258,TRUE
45,1661235843.506,2686.0752552563013,2832.8156235104375,1000,4.617,-1.406,0.055,116.7,red,258,TRUE
46,1661235844.778,2675.2573435863137,3728.7019419094663,1000,3.814,-1.39,1.95,100.7,blue,258,TRUE
47,1661235844.866,2685.7586807497537,2842.4941536671245,1000,4.613,-1.414,0.041,117.7,red,258,TRUE
48,1661235846.14,2675.9300699647606,3717.4796981008135,1000,3.835,-1.383,1.945,100.7,blue,258,TRUE
49,1661235846.228,2697.124193118536,2893.1807039995606,1000,4.599,-1.422,0.044,102.7,red,258,TRUE
50,1661235846.316,3250.490231213362,-811.5114009905378,1000,5.84,-0.209,-0.022,91.8,yellow,258,TRUE
51,1661235846.435,2654.0885364642795,3741.9831863429204,1000,3.851,-1.381,1.933,104.8,blue,258,TRUE
52,1661235846.528,2699.676466889279,2899.440864098938,1000,4.628,-1.424,0.059,117.7,red,258,TRUE
53,1661235847.801,2659.532164729129,3784.7356314000995,1000,3.828,-1.386,1.926,100.7,blue,258,TRUE
54,1661235847.888,2710.9073722399494,2892.678590325966,1000,4.656,-1.421,0.04,117.7,red,258,TRUE
55,1661235849.163,2663.316492477429,3780.8326484941913,1000,3.819,-1.382,1.971,99.8,blue,258,TRUE
56,1661235849.25,2660.1272786915756,2920.618763136373,1000,4.851,-1.401,0.156,102.7,red,258,TRUE
57,1661235849.339,3239.8054057567933,-829.9232408161141,1000,5.84,-0.209,-0.022,90.8,yellow,258,TRUE
58,1661235851.857,2650.3026438705483,3808.0991587641315,1000,3.82,-1.382,1.96,99.7,blue,258,TRUE
59,1661235851.944,2670.6941346864846,2982.030253432333,1000,5.105,-1.429,0.151,102.7,red,258,TRUE
60,1661235852.033,3241.2068792326427,-830.7019933752877,1000,5.84,-0.209,-0.022,93.7,yellow,258,TRUE
61,1661235852.24,2671.6723094986705,3821.7045885036805,1000,3.81,-1.383,1.968,105.7,blue,258,TRUE
62,1661235852.332,2663.4652149791486,3050.600057530602,1000,5.138,-1.43,0.152,103.7,red,258,TRUE
63,1661235852.422,3244.2989003958323,-836.4322545371125,1000,5.84,-0.209,-0.022,92.8,yellow,258,TRUE
64,1661235853.633,2646.017701176608,3062.4027838732127,1000,5.251,-1.437,0.168,104.7,red,258,TRUE
65,1661235853.729,3260.517069619796,-870.5796708832355,1000,5.84,-0.209,-0.022,144.0,yellow,258,TRUE
66,1661235853.964,2644.188980587644,3835.4105908113766,1000,3.812,-1.382,1.993,103.2,blue,258,TRUE
67,1661235854.056,2637.907088428649,3094.103254083622,1000,5.258,-1.434,0.157,101.9,red,258,TRUE
68,1661235854.145,3261.1831570195723,-876.9676070391124,1000,5.84,-0.209,-0.022,102.8,yellow,258,TRUE
69,1661235854.323,2686.1687925748715,3803.231695876397,1000,3.811,-1.381,1.999,103.7,blue,258,TRUE
70,1661235854.415,2620.440306064785,3132.788987745052,1000,5.276,-1.44,0.152,101.9,red,258,TRUE
71,1661235854.504,3250.7692533029153,-896.0593679114028,1000,5.84,-0.209,-0.022,89.9,yellow,258,TRUE
72,1661235854.695,2682.593204839414,3805.3426552531787,1000,3.811,-1.381,1.999,120.7,blue,258,TRUE
73,1661235854.8,2670.4012125020777,3186.1572982709345,1000,5.255,-1.421,0.109,120.7,red,258,TRUE
74,1661235854.905,3257.874216315296,-876.6957100900299,1000,5.84,-0.209,-0.022,93.7,yellow,258,TRUE
75,1661235856.119,2670.037138621452,3179.1312801083945,1000,5.215,-1.431,0.094,104.7,red,258,TRUE
76,1661235856.215,3257.7748758190623,-875.4954047840048,1000,5.84,-0.209,-0.022,143.8,yellow,258,TRUE
77,1661235857.484,2668.771407130062,3176.4651381144868,1000,5.213,-1.427,0.098,102.7,red,258,TRUE
78,1661235857.579,3253.8892855837075,-877.6688145758304,1000,5.84,-0.209,-0.022,157.6,yellow,258,TRUE
79,1661235857.855,2685.2901050468586,3808.5263080257287,1000,3.816,-1.381,1.998,105.7,blue,258,TRUE
80,1661235857.948,2667.832584856506,3200.8173872868756,1000,5.21,-1.428,0.093,102.7,red,258,TRUE
81,1661235858.038,3245.0685580920212,-845.6233452223736,1000,5.84,-0.209,-0.022,91.8,yellow,258,TRUE
82,1661235858.244,2680.967262023472,3790.967102142444,1000,3.827,-1.385,1.992,105.7,blue,258,TRUE
83,1661235858.336,2674.5751204596395,3228.3856733106895,1000,5.21,-1.431,0.106,103.7,red,258,TRUE
84,1661235858.427,3238.427519353925,-843.7735630890088,1000,5.84,-0.209,-0.022,91.8,yellow,258,TRUE
85,1661235860.93,2677.4898231780508,3943.7692595268695,1000,5.416,-1.33,1.935,113.7,blue,258,TRUE
86,1661235864.22,2696.180770978194,4310.881102618797,1000,5.38,-1.417,1.676,100.7,blue,258,TRUE
87,1661235864.312,2666.961668803941,3705.285800764775,1000,5.105,-1.32,0.214,98.8,red,258,TRUE
88,1661235864.403,3239.5680778254955,-823.6177858414894,1000,5.84,-0.209,-0.022,142.6,yellow,258,TRUE
89,1661235864.651,2633.236191303968,4713.2428219164985,1000,5.323,-1.434,1.694,118.7,blue,258,TRUE
90,1661235864.754,2670.6427138172735,4190.3074419955165,1000,5.093,-1.376,0.344,120.7,red,258,TRUE
91,1661235864.858,3250.9189203523115,-825.8416976102576,1000,5.84,-0.209,-0.022,93.7,yellow,258,TRUE
92,1661235866.073,2618.7035688159053,4648.296029785927,1000,3.947,-1.393,0.364,119.7,red,258,TRUE
93,1661235867.349,2558.437107029804,5230.655801979203,1000,4.896,-1.397,1.95,99.7,blue,258,TRUE
94,1661235867.437,2434.791100717804,5166.750327714403,1000,5.345,-1.322,0.224,116.4,red,258,TRUE
95,1661235868.709,2548.8181376030266,5660.486512309694,1000,4.818,-1.385,1.866,100.5,blue,258,TRUE
96,1661235868.796,2301.1061519471823,5697.481837896081,1000,5.238,-1.349,0.283,118.7,red,258,TRUE
97,1661235868.898,3243.126248064025,-828.1873745530987,1000,5.84,-0.209,-0.022,94.0,yellow,258,TRUE
98,1661235869.084,2496.398290021349,6169.640334720968,1000,4.777,-1.386,1.87,114.4,blue,258,TRUE
99,1661235869.183,2085.759455119417,6186.301164849461,1000,5.267,-1.354,0.271,135.6,red,258,TRUE
100,1661235870.475,2444.098294943807,6579.210723324152,1000,4.659,-1.391,1.856,100.8,blue,258,TRUE
101,1661235870.566,1948.170869655356,6254.7666187530185,1000,5.312,-1.347,0.297,99.8,red,258,TRUE
102,1661235870.654,3228.9688232492194,-815.8323988698131,1000,5.84,-0.209,-0.022,90.7,yellow,258,TRUE
103,1661235870.874,2412.1135754160814,6718.9438315430125,1000,4.636,-1.392,1.848,90.7,blue,258,TRUE
104,1661235870.951,1783.6339607348882,6296.349352445383,1000,5.304,-1.349,0.299,119.7,red,258,TRUE
105,1661235872.225,2449.510246952858,6747.0085823654035,1000,4.572,-1.392,1.837,85.7,blue,258,TRUE
106,1661235872.297,1696.569525711442,6380.023497544866,1000,5.341,-1.343,0.326,103.7,red,258,TRUE
107,1661235872.387,3236.1735233388013,-812.1368880071103,1000,5.84,-0.209,-0.022,92.2,yellow,258,TRUE
108,1661235873.6,1745.447355555508,6414.821410174045,1000,5.669,-1.328,0.286,103.7,red,258,TRUE
109,1661235873.695,3239.359273258476,-813.916919184761,1000,5.84,-0.209,-0.022,114.7,yellow,258,TRUE
110,1661235873.931,2493.862395373092,6745.514052228072,1000,4.543,-1.394,1.786,102.8,blue,258,TRUE
111,1661235874.019,1731.796423052694,6445.604318398113,1000,5.708,-1.365,0.308,118.7,red,258,TRUE
112,1661235875.295,2509.152927405658,6692.617130650087,1000,4.494,-1.406,1.84,85.8,blue,258,TRUE
113,1661235875.367,1806.135809570121,6527.20692916244,1000,5.702,-1.37,0.314,117.7,red,258,TRUE
114,1661235876.643,2528.40389158257,6687.488064700308,1000,4.479,-1.404,1.874,99.4,blue,258,TRUE
115,1661235876.729,1813.7860923159903,6580.660239282843,1000,5.708,-1.371,0.311,132.8,red,258,TRUE
116,1661235879.142,1850.0186607220132,6617.248365196502,1000,5.667,-1.36,0.274,114.7,red,258,TRUE
117,1661235881.507,1805.7659652163632,6628.394311737001,1000,5.69,-1.366,0.281,114.6,red,258,TRUE
118,1661235883.874,1780.771057298002,6642.23930517692,1000,5.689,-1.382,0.283,129.6,red,258,TRUE
119,1661235885.17,2560.385021350723,6578.539271392256,1000,4.444,-1.402,1.77,89.7,blue,258,TRUE
120,1661235885.245,1706.0345663430007,6569.671083519123,1000,5.68,-1.378,0.265,135.2,red,258,TRUE
121,1661235886.536,2580.852061845297,6514.722009349903,1000,4.396,-1.402,1.84,100.7,blue,258,TRUE
122,1661235886.626,1679.6711355272703,6544.583787783068,1000,5.7,-1.372,0.275,115.7,red,258,TRUE
123,1661235887.897,2543.177978962633,6548.14737708309,1000,4.367,-1.4,1.823,86.8,blue,258,TRUE
124,1661235887.971,1673.448966675227,6527.273933424548,1000,5.698,-1.379,0.269,102.7,red,258,TRUE
125,1661235888.06,3225.3361434161866,-810.9747012475319,1000,5.84,-0.209,-0.022,93.1,yellow,258,TRUE
126,1661235888.298,2563.1098751360005,6458.375733822847,1000,4.367,-1.4,1.824,90.7,blue,258,TRUE
127,1661235888.374,1650.8070574452686,6531.722978709432,1000,5.709,-1.379,0.266,103.7,red,258,TRUE
128,1661235888.464,3195.029814172782,-824.685906645091,1000,5.84,-0.209,-0.022,90.7,yellow,258,TRUE
129,1661235888.657,2480.846168984146,6554.347800111301,1000,4.36,-1.398,1.823,105.7,blue,258,TRUE
130,1661235888.746,1674.8254398964275,6551.68971164218,1000,5.715,-1.38,0.268,120.7,red,258,TRUE
131,1661235888.851,3204.9328243903888,-820.8208713879068,1000,5.84,-0.209,-0.022,94.4,yellow,258,TRUE
132,1661235889.037,2483.054038608288,6488.596657312253,1000,4.358,-1.398,1.803,114.7,blue,258,TRUE
133,1661235889.136,1681.655851654524,6567.268678756849,1000,5.722,-1.381,0.276,121.2,red,258,TRUE
134,1661235889.241,3230.8806980603226,-828.3538862554079,1000,5.84,-0.209,-0.022,120.7,yellow,258,TRUE
135,1661235889.498,2422.985616954919,6659.795140106032,1000,4.349,-1.4,1.797,103.7,blue,258,TRUE
136,1661235889.591,1756.5349159869913,6665.083300901807,1000,5.704,-1.385,0.259,99.7,red,258,TRUE
137,1661235889.678,3205.783532531053,-847.3473536787155,1000,5.84,-0.209,-0.022,102.5,yellow,258,TRUE
138,1661235889.914,2369.859053940401,6833.45125162468,1000,4.345,-1.401,1.778,90.7,blue,258,TRUE
139,1661235889.991,1789.717115293456,6674.788323433779,1000,5.702,-1.386,0.254,119.8,red,258,TRUE
140,1661235891.267,2341.075685304742,6964.268582127591,1000,4.345,-1.398,1.78,100.7,blue,258,TRUE
141,1661235891.355,1773.189113623721,6696.487668751343,1000,5.72,-1.391,0.277,118.3,red,258,TRUE
142,1661235892.631,2246.9117203255378,7106.947718847717,1000,4.336,-1.4,1.785,99.9,blue,258,TRUE
143,1661235892.718,1753.53015922086,6701.634808485628,1000,5.714,-1.385,0.285,117.7,red,258,TRUE
144,1661235892.82,3189.0042882461453,-849.8568473238369,1000,5.84,-0.209,-0.022,105.5,yellow,258,TRUE
145,1661235893.033,2263.241288138104,7173.195472567974,1000,4.336,-1.4,1.781,101.7,blue,258,TRUE
146,1661235893.123,1745.1102528832398,6680.809515495115,1000,5.844,-1.386,0.376,117.4,red,258,TRUE
147,1661235894.396,2251.0314540727145,7173.234195838486,1000,4.366,-1.401,1.684,86.7,blue,258,TRUE
148,1661235894.47,1795.844912425702,6657.449444119239,1000,6.281,-1.388,0.451,102.7,red,258,TRUE
149,1661235894.559,3199.6972149734106,-849.8318183519596,1000,5.84,-0.209,-0.022,94.7,yellow,258,TRUE
150,1661235894.781,2345.3733069464797,6831.976397125608,1000,4.41,-1.4,1.578,105.7,blue,258,TRUE
151,1661235894.871,1791.6547401325586,6596.407977598938,1000,6.224,-1.412,0.377,106.2,red,258,TRUE
152,1661235894.964,3285.790676497249,-869.3816465454057,1000,5.84,-0.209,-0.022,90.8,yellow,258,TRUE
153,1661235895.156,2349.9987196723996,6706.596574900444,1000,4.42,-1.398,1.479,120.7,blue,258,TRUE
154,1661235895.26,1820.589493084939,6563.4075655600545,1000,6.202,-1.422,0.332,195.4,red,258,TRUE
155,1661235895.443,3281.8700870966727,-867.1419578068309,1000,5.84,-0.209,-0.022,90.8,yellow,258,TRUE
156,1661235896.653,1868.7451579485896,6562.659672094339,1000,6.144,-1.426,0.313,104.7,red,258,TRUE
157,1661235896.749,3267.5078681566883,-870.8866812323763,1000,5.84,-0.209,-0.022,143.9,yellow,258,TRUE
158,1661235898.031,1919.239254884116,6528.94818701963,1000,6.159,-1.424,0.332,1167.2,red,258,TRUE
159,1661235899.349,2420.539457641255,6640.31441731448,1000,4.362,-1.406,1.642,103.8,blue,258,TRUE
160,1661235899.436,1974.0323900986048,6547.739630179235,1000,5.884,-1.418,0.141,105.7,red,258,TRUE
161,1661235899.528,3289.8830857657053,-851.8902519104512,1000,5.84,-0.209,-0.022,91.8,yellow,258,TRUE
162,1661235902.03,2530.6560292897866,6529.993484206864,1000,5.805,-1.369,1.749,99.7,blue,258,TRUE
163,1661235902.119,2032.4011373755422,6573.021806413891,1000,0.334,-1.406,0.555,100.6,red,258,TRUE
164,1661235902.205,3279.358974531698,-848.1229706370628,1000,5.84,-0.209,-0.022,103.8,yellow,258,TRUE
165,1661235902.443,2626.8633174062275,6424.692740341218,1000,0.261,-1.307,1.61,105.7,blue,258,TRUE
166,1661235902.535,2117.52551383016,6633.775872866626,1000,0.91,-1.353,0.552,118.7,red,258,TRUE
167,1661235903.809,2784.0347890173907,6336.316724102105,1000,0.941,-1.366,1.431,101.3,blue,258,TRUE
168,1661235903.897,2281.792385811656,6588.324634447309,1000,1.337,-1.37,-0.017,102.8,red,258,TRUE
169,1661235903.986,3276.1518332889354,-869.1719529326878,1000,5.84,-0.209,-0.022,91.1,yellow,258,TRUE
170,1661235904.179,2934.781127103992,6354.817419357976,1000,0.82,-1.402,1.869,120.7,blue,258,TRUE
171,1661235904.284,2456.707135666519,6456.233547516414,1000,1.48,-1.377,0.261,120.7,red,258,TRUE
172,1661235904.388,3205.962163352667,-839.8738919279377,1000,5.84,-0.209,-0.022,92.7,yellow,258,TRUE
173,1661235904.575,3125.775583253291,6208.526664683119,1000,1.096,-1.396,1.6,129.0,blue,258,TRUE
174,1661235904.688,2646.920726138414,6289.81725009486,1000,0.993,-1.401,0.272,120.6,red,258,TRUE
175,1661235904.792,3209.103676469687,-841.9805015692078,1000,5.84,-0.209,-0.022,105.6,yellow,258,TRUE
176,1661235905.006,3321.6651105107935,6024.5114120599,1000,1.194,-1.372,1.64,101.7,blue,258,TRUE
177,1661235905.096,2845.6217463082144,6097.122001524377,1000,1.367,-1.326,0.22,101.7,red,258,TRUE
178,1661235905.184,3210.3915411314233,-831.3104322703148,1000,5.84,-0.209,-0.022,133.6,yellow,258,TRUE
179,1661235905.498,3527.7012374237074,5897.635258162657,1000,1.341,-1.372,1.592,103.5,blue,258,TRUE
180,1661235905.587,3027.448475991628,5875.167772550326,1000,1.753,-1.392,0.056,119.5,red,258,TRUE
181,1661235906.876,3680.484153690931,5777.956890255082,1000,1.924,-1.389,1.993,100.7,blue,258,TRUE
182,1661235906.964,3216.553732588853,5493.96598346987,1000,1.642,-1.404,0.109,117.7,red,258,TRUE
183,1661235908.239,3684.9088480359896,5736.607801968599,1000,1.971,-1.382,2.058,100.7,blue,258,TRUE
184,1661235908.327,3335.8968351926437,5210.462500438176,1000,1.386,-1.285,0.117,117.7,red,258,TRUE
185,1661235908.428,3208.2191331069894,-831.5927046068983,1000,5.84,-0.209,-0.022,93.8,yellow,258,TRUE
186,1661235908.616,3721.386921317842,5701.57441534066,1000,1.972,-1.365,2.099,112.7,blue,258,TRUE
187,1661235908.713,3446.331742784012,4960.726101555988,1000,1.366,-1.281,0.098,121.1,red,258,TRUE
188,1661235908.817,3228.5796340976954,-823.8963497239153,1000,5.84,-0.209,-0.022,121.1,yellow,258,TRUE
189,1661235909.048,3775.170680056128,5635.839029308866,1000,2.028,-1.397,2.222,100.4,blue,258,TRUE
190,1661235909.136,3498.2705561398125,4765.792779759017,1000,1.478,-1.307,0.141,132.6,red,258,TRUE
191,1661235910.423,3747.247715107651,5644.460947452865,1000,1.059,-1.386,2.471,102.3,blue,258,TRUE
192,1661235910.512,3472.7857512874016,4558.778870443861,1000,0.386,-1.42,0.469,103.4,red,258,TRUE
193,1661235910.602,3238.184585888303,-810.7500654389455,1000,5.84,-0.209,-0.022,94.8,yellow,258,TRUE
194,1661235910.809,3691.5751592034444,5629.164243459379,1000,0.882,-1.385,2.526,137.1,blue,258,TRUE
195,1661235910.914,3477.054483806527,4415.8630557696815,1000,1.017,-1.408,0.97,106.7,red,258,TRUE
196,1661235911.007,3236.363461760478,-801.4677921448716,1000,5.84,-0.209,-0.022,89.8,yellow,258,TRUE
197,1661235911.199,3661.638763955472,5666.880328353363,1000,0.932,-1.364,2.246,120.7,blue,258,TRUE
198,1661235911.303,3455.7838431367686,4371.417240173923,1000,1.023,-1.438,0.531,136.6,red,258,TRUE
199,1661235912.595,3688.568685519733,5632.951511136062,1000,1.306,-1.361,2.029,100.7,blue,258,TRUE
200,1661235912.687,3350.837886351179,4345.276557148986,1000,0.357,-1.414,0.528,128.7,red,258,TRUE
201,1661235913.973,3632.1183742426333,5585.885018432629,1000,1.863,-1.36,1.772,100.7,blue,258,TRUE
202,1661235914.06,3313.8442295776276,4258.590010330544,1000,1.301,-1.456,0.084,118.7,red,258,TRUE
203,1661235915.335,3563.250516780623,5538.930005636376,1000,1.256,-1.426,2.244,101.3,blue,258,TRUE
204,1661235915.423,3421.3363911293072,4172.17338287367,1000,6.063,-1.419,0.305,102.8,red,258,TRUE
205,1661235915.512,3223.3826443854637,-791.1470208148044,1000,5.84,-0.209,-0.022,91.8,yellow,258,TRUE
206,1661235915.72,3465.7868057526157,5478.940050592555,1000,1.276,-1.404,2.087,120.7,blue,258,TRUE
207,1661235915.824,3630.9020777151777,4108.01360349042,1000,6.02,-1.427,0.029,121.3,red,258,TRUE
208,1661235915.93,3216.8909420881514,-791.6714023606178,1000,5.84,-0.209,-0.022,92.7,yellow,258,TRUE
209,1661235916.115,3445.7414564054125,5359.1205371690585,1000,1.357,-1.398,1.987,114.7,blue,258,TRUE
210,1661235916.214,3767.5298011763994,3989.913069285421,1000,6.128,-1.442,0.051,120.6,red,258,TRUE
211,1661235916.319,3211.9221987067835,-795.0606361264845,1000,5.84,-0.209,-0.022,105.7,yellow,258,TRUE
212,1661235917.564,3924.4311725221937,3972.0545341770417,1000,6.186,-1.475,-0.005,1166.0,red,258,TRUE
213,1661235918.881,3400.5534574824137,5207.391595587861,1000,1.67,-1.448,1.808,102.6,blue,258,TRUE
214,1661235918.969,4098.754678464399,3906.6849356970965,1000,5.906,-1.457,-0.032,103.7,red,258,TRUE
215,1661235919.059,3213.3203052797794,-801.540204620609,1000,5.84,-0.209,-0.022,93.0,yellow,258,TRUE
216,1661235919.267,3392.075986205316,5122.022910135401,1000,1.634,-1.439,2.001,120.7,blue,258,TRUE
217,1661235919.372,4249.482772495122,3896.937475913506,1000,0.389,-1.463,0.061,120.7,red,258,TRUE
218,1661235920.65,3432.6745881817374,5021.7226382164645,1000,2.412,-1.378,1.992,98.8,blue,258,TRUE
219,1661235920.737,4140.427968626041,3885.792713348737,1000,0.216,-1.484,0.029,116.7,red,258,TRUE
220,1661235920.837,3199.1981550626756,-790.7793034414113,1000,5.84,-0.209,-0.022,105.7,yellow,258,TRUE
221,1661235921.051,3502.571317510279,4945.176474122789,1000,2.881,-1.373,2.163,101.7,blue,258,TRUE
222,1661235921.141,3967.798988159881,3869.3545662338724,1000,0.195,-1.465,0.037,117.1,red,258,TRUE
223,1661235922.416,3645.5868486167838,4726.097595605821,1000,2.88,-1.394,2.2,100.8,blue,258,TRUE
224,1661235922.505,3835.0264778644446,3702.2442591646377,1000,0.828,-1.458,0.034,101.7,red,258,TRUE
225,1661235922.593,3204.310742614107,-785.6988022979637,1000,5.84,-0.209,-0.022,94.7,yellow,258,TRUE
226,1661235923.804,3728.0537282415994,3467.8738745769656,1000,0.407,-1.465,0.012,118.8,red,258,TRUE
227,1661235925.079,3785.07755946599,4633.856704518762,1000,4.538,-1.277,2.122,101.1,blue,258,TRUE
228,1661235925.169,3619.872693446135,3227.9876257693536,1000,6.196,-1.383,-1.644,100.7,red,258,TRUE
229,1661235925.257,3222.36021894382,-799.5092900428068,1000,5.84,-0.209,-0.022,102.7,yellow,258,TRUE
230,1661235925.474,3938.152339482238,4608.996448436435,1000,4.513,-1.334,2.006,109.7,blue,258,TRUE
231,1661235925.572,3465.620075048584,3048.9469073015152,1000,6.062,-1.377,-1.773,101.7,red,258,TRUE
232,1661235925.66,3230.426471274472,-802.1450457986083,1000,5.84,-0.209,-0.022,93.7,yellow,258,TRUE
233,1661235925.867,4072.1403007798003,4583.632428521993,1000,4.458,-1.33,2.018,120.6,blue,258,TRUE
234,1661235925.972,3453.2557200927113,2933.0688564518236,1000,5.785,-1.463,-0.063,120.7,red,258,TRUE
235,1661235927.25,4177.415237901721,4605.899946832343,1000,4.504,-1.344,1.907,100.7,blue,258,TRUE
236,1661235927.337,3554.4732471564726,2911.872842250594,1000,0.108,-1.429,0.079,133.1,red,258,TRUE
237,1661235928.628,4247.378989058601,4647.824353171918,1000,5.007,-1.276,2.011,101.1,blue,258,TRUE
238,1661235928.719,3603.5068454202387,3045.837748931556,1000,0.393,-1.517,0.05,114.6,red,258,TRUE
239,1661235929.989,4308.66871415448,4757.412037670432,1000,4.903,-1.299,2.019,100.8,blue,258,TRUE
240,1661235930.077,3563.788142339803,3122.6175290765805,1000,0.441,-1.478,0.091,102.7,red,258,TRUE
241,1661235930.167,3233.102891206386,-795.0522393644486,1000,5.84,-0.209,-0.022,89.8,yellow,258,TRUE
242,1661235930.403,4292.204420392384,4794.46551118277,1000,4.754,-1.32,2.01,105.5,blue,258,TRUE
243,1661235930.495,3552.27466064882,3236.698480214962,1000,0.422,-1.541,3.112,120.0,red,258,TRUE
244,1661235931.77,4291.734856635466,4798.3573471649515,1000,4.701,-1.333,1.939,101.1,blue,258,TRUE
245,1661235931.859,3648.516377431553,3347.06736160501,1000,0.108,-1.473,0.08,131.6,red,258,TRUE
246,1661235933.149,4295.7489525731735,4802.036795862033,1000,4.719,-1.325,1.948,98.7,blue,258,TRUE
247,1661235933.235,4003.7223384085605,3381.596251757386,1000,1.472,-1.371,0.296,132.4,red,258,TRUE
248,1661235934.524,4284.03134963609,4801.792344623008,1000,4.419,-1.372,2.114,100.8,blue,258,TRUE
249,1661235934.611,4372.990351908719,3170.982086026994,1000,1.927,-1.463,-0.096,117.7,red,258,TRUE
250,1661235935.885,4257.172559640197,4654.093204332434,1000,4.182,-1.307,2.138,100.7,blue,258,TRUE
251,1661235935.972,4715.630522751405,3007.4520564032696,1000,2.051,-1.5,-0.055,102.8,red,258,TRUE
252,1661235936.061,3231.612694638983,-796.6330605763959,1000,5.84,-0.209,-0.022,91.8,yellow,258,TRUE
253,1661235936.284,4216.299884172288,4527.887562028039,1000,3.074,-1.316,2.83,105.7,blue,258,TRUE
254,1661235936.376,5172.928085962495,2907.9114579606344,1000,1.902,-1.499,-0.063,118.7,red,258,TRUE
255,1661235936.477,3255.3520566984334,-801.1510117248649,1000,5.84,-0.209,-0.022,94.7,yellow,258,TRUE
256,1661235937.693,5618.618681926812,2771.515479633277,1000,1.935,-1.465,-3.038,103.6,red,258,TRUE
257,1661235937.788,3260.5747342881536,-806.2896871258826,1000,5.84,-0.209,-0.022,113.6,yellow,258,TRUE
258,1661235938.01,4249.571864390865,4171.520852026058,1000,3.159,-1.429,2.508,100.8,blue,258,TRUE
259,1661235938.099,5949.253578399616,2616.478717584497,1000,1.936,-1.451,-3.024,116.7,red,258,TRUE
260,1661235939.372,4280.787524217056,3725.1549449436448,1000,2.776,-1.242,3.13,100.7,blue,258,TRUE
261,1661235939.46,6037.403792688446,2524.63800477127,1000,1.96,-1.481,-0.088,102.7,red,258,TRUE
262,1661235940.719,4352.669707666082,3288.2090348947236,1000,2.871,-1.288,2.654,100.8,blue,258,TRUE
263,1661235940.806,6013.457338661018,2550.3347947077264,1000,2.146,-1.511,-0.058,133.6,red,258,TRUE
264,1661235942.096,4340.828113267488,2980.491989022401,1000,2.913,-1.328,2.309,100.7,blue,258,TRUE
265,1661235942.186,5973.432074979311,2504.717918353777,1000,2.395,-1.522,-0.014,100.7,red,258,TRUE
266,1661235942.272,3260.9909725630805,-808.3018803164524,1000,5.84,-0.209,-0.022,103.7,yellow,258,TRUE
267,1661235942.499,4419.391269362912,2825.4011962766704,1000,2.895,-1.247,2.389,101.6,blue,258,TRUE
268,1661235942.59,5943.212561488384,2485.5892581380403,1000,1.813,-1.545,-0.023,100.5,red,258,TRUE
269,1661235942.678,3256.9782989172727,-816.7556965102107,1000,5.84,-0.211,-0.022,102.8,yellow,258,TRUE
270,1661235942.914,4444.9713979587,2690.890086784716,1000,2.615,-1.295,2.752,105.7,blue,258,TRUE
271,1661235943.006,5909.16340069679,2517.01675708351,1000,1.957,-1.48,-0.005,118.8,red,258,TRUE
272,1661235944.281,4526.064760356589,2625.9737374021374,1000,2.377,-1.427,2.327,101.2,blue,258,TRUE
273,1661235944.369,5909.831349262667,2517.2401669541337,1000,1.942,-1.503,-0.06,117.7,red,258,TRUE
274,1661235944.471,3261.6713304786813,-824.7140807965347,1000,5.84,-0.211,-0.022,92.7,yellow,258,TRUE
275,1661235945.685,5815.541468403783,2419.352068292685,1000,2.773,-1.556,0.012,104.3,red,258,TRUE
276,1661235945.781,3264.8607606013297,-826.3060991070693,1000,5.84,-0.211,-0.023,143.6,yellow,258,TRUE
277,1661235946.032,4618.904595747396,2693.098187924935,1000,2.716,-1.254,2.641,101.7,blue,258,TRUE
278,1661235946.122,5753.78307486105,2405.2734678316074,1000,2.736,-1.484,0.025,101.8,red,258,TRUE
279,1661235947.379,4668.657217138886,2722.4813969874226,1000,3.003,-1.23,2.466,100.7,blue,258,TRUE
280,1661235947.467,5811.609265442137,2433.175967395427,1000,2.04,-1.503,-0.065,102.9,red,258,TRUE
281,1661235947.556,3256.481619437489,-826.1117927358158,1000,5.84,-0.211,-0.023,90.9,yellow,258,TRUE
282,1661235948.768,5820.459898168035,2381.7149394915814,1000,2.117,-1.512,-0.049,104.7,red,258,TRUE
283,1661235948.864,3244.1053749791517,-824.8397453721414,1000,5.84,-0.211,-0.023,114.7,yellow,258,TRUE
284,1661235949.086,4556.725138725791,2744.8458519686924,1000,2.856,-1.26,2.541,86.1,blue,258,TRUE
285,1661235949.158,5823.698810070386,2306.468322047154,1000,2.15,-1.512,-0.043,118.7,red,258,TRUE
286,1661235949.261,3229.186746827839,-813.4789699861617,1000,5.84,-0.211,-0.023,105.7,yellow,258,TRUE
287,1661235949.488,4648.201711604632,2613.71635238745,1000,2.885,-1.252,2.49,102.8,blue,258,TRUE
288,1661235949.577,5790.580636811442,2304.5376167866993,1000,2.146,-1.512,-0.048,118.7,red,258,TRUE
289,1661235950.852,4822.582338363256,2587.161472074515,1000,1.445,-1.265,2.925,101.3,blue,258,TRUE
290,1661235950.94,5840.506209979113,2321.5442190234917,1000,2.731,-1.342,0.456,102.8,red,258,TRUE
291,1661235951.029,3238.9566699386446,-803.8331763414252,1000,5.84,-0.211,-0.023,91.3,yellow,258,TRUE
292,1661235952.24,5891.144888672644,2309.7535988421496,1000,1.802,-1.509,-0.004,104.8,red,258,TRUE
293,1661235952.336,3237.435448630713,-803.6099348269978,1000,5.84,-0.211,-0.023,158.5,yellow,258,TRUE
294,1661235952.589,5038.591306584128,2701.8003010707694,1000,2.669,-1.218,2.353,99.7,blue,258,TRUE
295,1661235952.676,5889.90584752636,2307.928860203254,1000,1.725,-1.545,-0.003,116.7,red,258,TRUE
296,1661235953.951,5214.849230426097,2660.5042542423325,1000,2.433,-1.242,2.521,100.7,blue,258,TRUE
297,1661235954.038,5813.437685812787,2347.8341428207978,1000,2.393,-1.437,0.902,117.4,red,258,TRUE
298,1661235955.313,5349.948303370672,2633.145035233418,1000,3.009,-1.331,1.55,100.8,blue,258,TRUE
299,1661235955.401,5732.524298674741,2452.5925106740574,1000,1.893,-1.42,0.621,118.7,red,258,TRUE
300,1661235955.491,3235.9476554950397,-806.6680821207286,1000,5.84,-0.211,-0.023,89.8,yellow,258,TRUE
301,1661235956.701,5669.655973513681,2447.5582980284053,1000,1.893,-1.405,0.229,104.8,red,258,TRUE
302,1661235956.797,3234.369454678114,-811.40055427347,1000,5.84,-0.211,-0.023,113.7,yellow,258,TRUE
303,1661235957.018,5734.222451644045,2496.2933356214116,1000,2.854,-1.31,1.731,101.9,blue,258,TRUE
304,1661235957.108,5667.57753475906,2476.6471582236977,1000,2.04,-1.424,0.237,101.6,red,258,TRUE
305,1661235957.197,3241.5753381694685,-815.269035717879,1000,5.84,-0.211,-0.023,102.7,yellow,258,TRUE
306,1661235957.433,5811.272595487041,2501.637991349165,1000,2.619,-1.313,1.55,105.7,blue,258,TRUE
307,1661235957.525,5625.348281618425,2495.25300923753,1000,2.103,-1.564,-0.003,103.7,red,258,TRUE
308,1661235957.615,3230.4839440599335,-812.595311533113,1000,5.84,-0.211,-0.023,94.8,yellow,258,TRUE
309,1661235957.822,5931.237004691564,2428.595173325964,1000,2.243,-1.352,2.138,121.7,blue,258,TRUE
310,1661235957.927,5550.7397051062935,2469.4733930129155,1000,2.294,-1.538,3.12,105.7,red,258,TRUE
311,1661235958.018,3234.7437891870854,-832.7029638830636,1000,5.84,-0.211,-0.023,91.8,yellow,258,TRUE
312,1661235958.271,5855.828739112801,2291.24909018447,1000,2.297,-1.356,2.314,120.7,blue,258,TRUE
313,1661235958.375,5553.787353653552,2472.1510002142836,1000,2.379,-1.527,-0.019,136.6,red,258,TRUE
314,1661235959.67,5873.6869746386465,2266.590722723009,1000,2.054,-1.419,1.542,112.7,blue,258,TRUE
315,1661235959.771,5570.977879586037,2419.005582397138,1000,2.503,-1.398,-0.038,116.7,red,258,TRUE
316,1661235959.872,3230.009924116694,-826.4305887891263,1000,5.84,-0.211,-0.023,105.7,yellow,258,TRUE
317,1661235960.085,5869.682153407953,2285.2067931249558,1000,2.154,-1.409,1.552,102.6,blue,258,TRUE
318,1661235960.175,5604.630997457236,2413.5301333680927,1000,2.29,-1.451,-0.038,101.8,red,258,TRUE
319,1661235960.264,3237.241226685677,-812.9559040347207,1000,5.84,-0.211,-0.023,102.8,yellow,258,TRUE
320,1661235960.495,5916.1463305067045,2394.7879860479648,1000,2.214,-1.394,1.79,95.7,blue,258,TRUE
321,1661235960.577,5573.699107707432,2487.0578015209435,1000,1.93,-1.465,-0.065,103.8,red,258,TRUE
322,1661235960.669,3231.876312427199,-833.0951656338533,1000,5.84,-0.211,-0.023,91.8,yellow,258,TRUE
323,1661235960.874,5998.306741799738,2290.8496447091006,1000,2.306,-1.376,1.962,121.1,blue,258,TRUE
324,1661235960.979,5641.370383762325,2564.0095218373963,1000,1.48,-1.545,-0.001,105.4,red,258,TRUE
325,1661235961.07,3227.0674470902545,-825.4914006439238,1000,5.84,-0.211,-0.023,148.6,yellow,258,TRUE
326,1661235961.382,6013.653255495176,2255.17472164561,1000,2.31,-1.369,2.118,121.6,blue,258,TRUE
327,1661235961.487,5695.016283866455,2704.0917470462678,1000,1.157,-1.516,0.033,106.7,red,258,TRUE
328,1661235961.58,3254.772993209154,-838.5583073294633,1000,5.84,-0.211,-0.023,90.7,yellow,258,TRUE
329,1661235961.786,6058.694175127933,2223.200621776921,1000,2.257,-1.376,2.14,120.7,blue,258,TRUE
330,1661235961.891,5848.669354631129,2811.0866443440686,1000,1.534,-1.43,0.37,120.7,red,258,TRUE
331,1661235961.996,3259.9241947541536,-818.6108595466571,1000,5.84,-0.211,-0.023,94.2,yellow,258,TRUE
332,1661235963.209,6043.902569696808,2735.5000313828873,1000,2.234,-1.511,0.0,104.7,red,258,TRUE
333,1661235963.304,3309.6400269038127,-846.5358383073766,1000,5.84,-0.211,-0.023,173.7,yellow,258,TRUE
334,1661235964.618,6262.935714735841,2685.459164600326,1000,2.147,-1.451,-0.002,1164.4,red,258,TRUE
335,1661235965.95,6065.268731926066,2256.566754679495,1000,2.053,-1.393,1.954,102.6,blue,258,TRUE
336,1661235966.039,6424.489635930539,2610.223278163228,1000,1.986,-1.436,0.189,118.8,red,258,TRUE
337,1661235967.314,6102.006375522123,2211.3443826326766,1000,2.026,-1.403,2.165,100.8,blue,258,TRUE
338,1661235967.402,6524.460992456802,2519.1723615406304,1000,2.032,-1.432,-2.894,118.3,red,258,TRUE
339,1661235967.503,3311.2977784227874,-858.6020237508538,1000,5.84,-0.211,-0.023,95.3,yellow,258,TRUE
340,1661235967.69,6122.247475352782,2105.9856965761073,1000,1.992,-1.408,2.317,100.2,blue,258,TRUE
341,1661235967.777,6637.908209753577,2360.0257264838924,1000,1.972,-1.465,-3.091,117.7,red,258,TRUE
342,1661235967.879,3303.9834713886594,-818.8970182878944,1000,5.84,-0.211,-0.023,105.7,yellow,258,TRUE
343,1661235968.092,6157.457165657008,2223.5973602148133,1000,2.102,-1.38,2.402,101.8,blue,258,TRUE
344,1661235968.182,6666.990447605636,2264.0348459266,1000,2.014,-1.545,-3.115,117.7,red,258,TRUE
345,1661235969.455,6168.514978143172,2200.314481509655,1000,1.673,-1.474,3.069,100.8,blue,258,TRUE
346,1661235969.543,6663.773523161418,2378.870386959438,1000,1.852,-1.511,-0.052,102.8,red,258,TRUE
347,1661235969.632,3302.8867544152795,-818.6854971909796,1000,5.84,-0.211,-0.023,94.7,yellow,258,TRUE
348,1661235970.857,6579.5156698118835,2416.118748991307,1000,1.733,-1.457,-0.062,1184.7,red,258,TRUE
349,1661235972.194,6151.072148699139,2271.6417326064056,1000,1.826,-1.414,1.273,100.8,blue,258,TRUE
350,1661235972.282,6597.005909741034,2452.6480693859476,1000,1.643,-1.451,-0.79,117.7,red,258,TRUE
351,1661235972.383,3296.8757025864875,-814.1019038180902,1000,5.84,-0.211,-0.023,105.7,yellow,258,TRUE
352,1661235972.597,6076.150643716169,2241.2250214696246,1000,1.81,-1.419,1.319,101.7,blue,258,TRUE
353,1661235972.688,6573.312358731324,2454.807539934964,1000,1.673,-1.461,-0.088,115.7,red,258,TRUE
354,1661235973.959,6014.229898299039,2266.365712470996,1000,1.848,-1.425,1.203,100.7,blue,258,TRUE
355,1661235974.047,6582.424817537435,2464.4959028630096,1000,1.707,-1.469,-0.091,102.7,red,258,TRUE
356,1661235974.135,3276.4401875979906,-817.143518062856,1000,5.84,-0.211,-0.023,92.8,yellow,258,TRUE
357,1661235974.343,5924.943567985937,2242.4650455746205,1000,1.901,-1.416,1.167,120.7,blue,258,TRUE
358,1661235974.448,6546.380943611705,2457.0652835693168,1000,1.61,-1.46,-0.092,120.6,red,258,TRUE
359,1661235975.724,5882.669324333986,2237.2399848814744,1000,1.733,-1.462,3.034,100.7,blue,258,TRUE
360,1661235975.812,6524.431570999702,2414.4421334732647,1000,1.535,-1.431,-0.791,132.7,red,258,TRUE
361,1661235977.101,5800.677374881264,2249.8775119302422,1000,1.674,-1.475,0.093,100.7,blue,258,TRUE
362,1661235977.19,6544.290610187713,2430.187452257929,1000,1.707,-1.452,-3.024,115.7,red,258,TRUE
363,1661235978.462,5768.916009278991,2272.970218742896,1000,1.652,-1.416,1.773,100.8,blue,258,TRUE
364,1661235978.55,6504.854046933943,2412.3950890472993,1000,1.727,-1.457,-0.079,117.7,red,258,TRUE
365,1661235979.823,5814.086956480642,2334.4626739036194,1000,1.97,-1.321,1.913,100.8,blue,258,TRUE
366,1661235979.911,6495.973199521782,2415.4946584457725,1000,1.732,-1.461,-0.076,134.3,red,258,TRUE
367,1661235981.204,5887.686454536896,2409.396691175701,1000,1.856,-1.336,2.023,98.7,blue,258,TRUE
368,1661235981.291,6474.951504990758,2421.825691998332,1000,1.828,-1.424,-0.517,116.7,red,258,TRUE
369,1661235981.391,3230.4559742756287,-793.5779810128619,1000,5.84,-0.211,-0.023,105.7,yellow,258,TRUE
370,1661235981.62,5954.175132413704,2472.9954173130577,1000,1.844,-1.324,2.053,101.7,blue,258,TRUE
371,1661235981.712,6491.734649367209,2426.017405937224,1000,1.834,-1.412,-0.467,99.7,red,258,TRUE
372,1661235981.798,3216.5558792479474,-787.537302706938,1000,5.84,-0.211,-0.023,102.7,yellow,258,TRUE
373,1661235982.018,5952.331632359143,2372.5429251396235,1000,1.793,-1.332,2.019,107.7,blue,258,TRUE
374,1661235982.114,6488.160053571977,2399.320755821416,1000,1.878,-1.42,-0.458,101.7,red,258,TRUE
375,1661235982.202,3223.2385392769756,-819.7916421261992,1000,5.84,-0.211,-0.023,102.9,yellow,258,TRUE
376,1661235982.439,6027.1210244848035,2487.4282170959764,1000,1.773,-1.333,2.013,105.7,blue,258,TRUE
377,1661235982.53,6502.2720383310225,2405.4024137963816,1000,1.851,-1.374,-0.251,103.7,red,258,TRUE
378,1661235982.62,3222.418252557012,-820.5769947249113,1000,5.84,-0.211,-0.023,133.6,yellow,258,TRUE
379,1661235984.863,6056.557602692684,2520.7793034102306,1000,1.919,-1.338,1.632,105.7,blue,258,TRUE
380,1661235984.961,6600.893604139295,2319.9639467252805,1000,2.017,-1.458,0.021,97.7,red,258,TRUE
381,1661235985.051,3218.149754475014,-813.4228355498539,1000,5.84,-0.211,-0.023,97.7,yellow,258,TRUE
382,1661235985.135,3449.9234190887223,-1050.8707662165211,1000,5.764,-0.906,0.003,118.2,green,258,TRUE
383,1661235985.402,6077.496849231101,2578.0932788236373,1000,1.918,-1.362,1.28,120.7,blue,258,TRUE
384,1661235985.507,6670.817855882782,2251.98105526926,1000,2.081,-1.431,0.227,121.7,red,258,TRUE
385,1661235987.878,6703.412935296816,2307.8402521248518,1000,2.106,-1.438,-0.119,98.8,red,258,TRUE
386,1661235987.968,3226.1472252577855,-804.5014390202565,1000,5.84,-0.211,-0.023,112.7,yellow,258,TRUE
387,1661235988.053,3515.1948783045914,-1370.4559346622057,1000,5.763,-0.911,0.008,132.7,green,258,TRUE
388,1661235990.415,3791.9393373425846,-1740.450635122319,1000,5.775,-0.841,0.033,1167.6,green,258,TRUE
389,1661235991.589,5628.157148247806,2476.0363638344384,1000,3.072,-1.346,2.213,113.7,blue,258,TRUE
390,1661235991.681,6675.304617990484,2279.34324824273,1000,1.765,-1.474,0.021,111.7,red,258,TRUE
391,1661235991.781,3200.410108426397,-792.8391164132232,1000,5.84,-0.211,-0.023,115.7,yellow,258,TRUE
392,1661235994.007,5078.623308919058,1958.9544524105097,1000,3.018,-1.34,1.821,104.7,blue,258,TRUE
393,1661235994.103,6669.0060928884195,2368.2320670774848,1000,1.321,-1.532,-3.107,128.7,red,258,TRUE
394,1661235996.451,6604.808454777776,2372.8752324348843,1000,1.287,-1.491,-0.071,114.7,red,258,TRUE
395,1661235998.771,6421.619287777649,2457.644904295372,1000,1.624,-1.477,-0.058,113.7,red,258,TRUE
396,1661236001.075,6097.202214741378,2601.2203905717092,1000,1.658,-1.416,-0.35,114.7,red,258,TRUE
397,1661236002.357,4595.603327226617,1560.3522908443417,1000,2.411,-1.432,1.568,104.7,blue,258,TRUE
398,1661236002.449,5891.443928335589,2570.5453045211175,1000,1.341,-1.51,0.034,118.7,red,258,TRUE
399,1661236003.725,4045.721840537615,988.2119108816505,1000,3.099,-1.383,1.782,98.7,blue,258,TRUE
400,1661236003.81,5776.818168271679,2631.00437111764,1000,0.957,-1.428,-1.944,132.6,red,258,TRUE
401,1661236005.113,3572.551548001262,421.7150495322391,1000,2.367,-1.444,2.421,100.7,blue,258,TRUE
402,1661236005.203,5579.181526918114,2592.1596307755362,1000,0.761,-1.331,-1.728,116.7,red,258,TRUE
403,1661236006.475,3048.4689068172843,-154.4147516937759,1000,2.199,-1.47,3.086,100.9,blue,258,TRUE
404,1661236006.563,5399.412650155332,2576.8459500021645,1000,2.245,-1.541,-0.011,117.8,red,258,TRUE
405,1661236007.837,2996.279760329408,-611.139390311395,1000,2.278,-1.475,3.069,100.8,blue,258,TRUE
406,1661236007.925,5177.07206479206,2691.47301979592,1000,1.992,-1.432,-0.264,132.7,red,258,TRUE
407,1661236010.324,4931.495509455359,2615.4109568052395,1000,1.51,-1.499,0.049,112.7,red,258,TRUE
408,1661236012.688,5047.564135998749,2286.3514908098527,1000,0.137,-1.524,0.041,113.7,red,258,TRUE
409,1661236015.05,5321.851603361196,2052.7826231345266,1000,6.266,-1.486,0.037,114.7,red,258,TRUE
410,1661236016.333,3002.956899535713,-628.1730032228947,1000,2.483,-1.429,2.389,104.7,blue,258,TRUE
411,1661236016.424,5542.578157832286,1856.9485290944567,1000,5.219,-1.487,0.051,132.6,red,258,TRUE
412,1661236017.714,3021.3380181336856,-677.2199813979978,1000,2.649,-1.406,1.959,100.4,blue,258,TRUE
413,1661236017.804,5745.5642537536105,1672.6758369898696,1000,4.952,-1.502,0.009,116.1,red,258,TRUE
414,1661236020.199,6057.415607336545,1336.581384210024,1000,6.012,-1.341,1.334,114.7,red,258,TRUE
415,1661236022.564,6625.216958341603,1151.9534911165626,1000,5.914,-1.394,0.76,114.7,red,258,TRUE
416,1661236024.93,6679.192129305811,1302.702036221716,1000,5.774,-1.374,0.676,128.7,red,258,TRUE
417,1661236026.227,3224.045238557353,-186.70220095162472,1000,1.564,-1.358,1.572,104.8,blue,258,TRUE
418,1661236026.319,6584.416261944141,1300.264883277871,1000,5.73,-1.406,0.92,117.7,red,258,TRUE
419,1661236026.42,3197.1477605880405,-791.655840426879,1000,5.84,-0.211,-0.023,105.7,yellow,258,TRUE
420,1661236026.648,3368.3602284292015,350.8679864581267,1000,1.56,-1.358,1.549,102.3,blue,258,TRUE
421,1661236026.741,6535.479671851744,1253.6520292537652,1000,5.809,-1.388,0.854,99.6,red,258,TRUE
422,1661236026.827,3198.687862586305,-777.7555996210194,1000,5.84,-0.211,-0.023,103.0,yellow,258,TRUE
423,1661236027.049,3546.7947167864677,847.6382920828024,1000,1.562,-1.359,1.545,106.0,blue,258,TRUE
424,1661236027.143,6529.194706158739,1200.3967587858344,1000,5.436,-1.41,0.605,116.6,red,258,TRUE
425,1661236028.415,3732.0699452734975,1385.0957916275377,1000,1.553,-1.361,1.517,100.7,blue,258,TRUE
426,1661236028.504,6527.132286347366,1169.8414799511013,1000,5.221,-1.419,0.587,116.7,red,258,TRUE
427,1661236029.778,3980.701001805503,1909.7243217063988,1000,1.558,-1.359,1.523,100.7,blue,258,TRUE
428,1661236029.868,6419.46425884596,1109.486722369574,1000,5.15,-1.404,0.56,115.7,red,258,TRUE
429,1661236032.264,6480.857859817271,1069.8966126385812,1000,6.037,-1.409,0.972,114.7,red,258,TRUE
430,1661236034.628,6422.538933363664,1001.5492669380543,1000,5.635,-1.352,0.497,114.5,red,258,TRUE
431,1661236036.992,6436.290256308045,996.7846223247861,1000,5.681,-1.427,0.244,114.7,red,258,TRUE
432,1661236038.274,4408.401787912881,2386.96450172484,1000,2.604,-1.336,1.986,104.8,blue,258,TRUE
433,1661236038.365,6440.321762971146,1008.1444388895239,1000,5.354,-1.437,0.403,117.7,red,258,TRUE
434,1661236038.467,3195.2738182659327,-774.0433601701708,1000,5.84,-0.211,-0.023,93.7,yellow,258,TRUE
435,1661236039.697,6460.960811329998,986.4578114256124,1000,5.719,-1.344,0.337,1166.8,red,258,TRUE
436,1661236041.014,4615.332852062681,2359.2402943518355,1000,2.686,-1.376,2.161,105.1,blue,258,TRUE
437,1661236041.104,6498.007279497425,988.0258388012475,1000,5.743,-1.359,0.35,118.7,red,258,TRUE
438,1661236043.427,6448.220852332546,1064.316994755702,1000,6.049,-1.333,0.415,114.6,red,258,TRUE
439,1661236045.762,6491.686841700152,1139.2968773088653,1000,5.451,-1.34,0.317,114.7,red,258,TRUE
440,1661236048.112,6540.493886376181,1174.2658473647552,1000,5.31,-1.383,0.309,114.6,red,258,TRUE
441,1661236049.246,3605.5121174855535,-1524.9419469257955,1000,4.898,-1.269,0.335,1166.9,green,258,TRUE
442,1661236050.428,4837.818391282941,2330.7038856692275,1000,2.831,-1.35,1.869,104.7,blue,258,TRUE
443,1661236050.524,6582.031007175869,1196.169606991664,1000,5.427,-1.348,-2.419,97.8,red,258,TRUE
444,1661236050.609,3216.699068206382,-806.3239491368063,1000,5.84,-0.211,-0.023,102.8,yellow,258,TRUE
445,1661236050.698,3417.2075842689787,-1147.1556671935925,1000,0.494,-1.272,0.576,103.8,green,258,TRUE
446,1661236050.881,4995.797191981818,2267.5334401183704,1000,2.886,-1.283,2.25,115.3,blue,258,TRUE
447,1661236050.981,6604.413879859203,1247.742436857271,1000,5.624,-1.371,-2.632,120.7,red,258,TRUE
448,1661236052.103,2843.180120502242,-807.5661531657915,1000,0.512,-1.153,0.379,1168.5,green,258,TRUE
449,1661236053.278,5055.38664129913,2230.623986222486,1000,3.138,-1.072,3.055,113.7,blue,258,TRUE
450,1661236053.384,6633.858751993871,1251.228193983795,1000,5.259,-1.396,-1.864,127.7,red,258,TRUE
451,1661236055.744,6571.339719944363,1198.10523458652,1000,5.503,-1.413,0.58,115.7,red,258,TRUE
452,1661236056.865,3025.5313323684804,9.706988148786573,1000,1.384,-1.251,0.709,1165.5,green,258,TRUE
453,1661236058.036,5089.778987848095,2238.0368995682097,1000,2.589,-1.475,3.088,113.7,blue,258,TRUE
454,1661236058.152,6097.140159163143,1342.9456594575017,1000,5.21,-1.446,0.408,1075.9,red,258,TRUE
455,1661236059.214,3209.991289900576,786.9795875285084,1000,1.42,-1.236,0.707,103.7,green,258,TRUE
456,1661236059.453,4881.129163307401,2317.6407608367394,1000,2.579,-1.487,3.091,118.7,blue,258,TRUE
457,1661236059.556,6086.555394921105,1480.0258212992685,1000,5.519,-1.392,0.209,120.3,red,258,TRUE
458,1661236060.678,3165.8110407577256,1726.087952452957,1000,1.368,-1.228,0.565,1183.0,green,258,TRUE
459,1661236061.867,4764.065955441245,2343.8381003658656,1000,2.569,-1.502,3.091,113.7,blue,258,TRUE
460,1661236061.959,6044.343663216542,1463.249309098546,1000,5.213,-1.337,0.073,112.7,red,258,TRUE
461,1661236062.058,3212.213619967331,-814.0378219690903,1000,5.84,-0.211,-0.023,102.7,yellow,258,TRUE
462,1661236062.146,3586.2485646236833,1996.0793783152083,1000,1.356,-1.238,0.578,103.8,green,258,TRUE
463,1661236065.712,5966.537165926788,1476.2434485845038,1000,5.584,-1.318,2.195,114.7,red,258,TRUE
464,1661236065.805,3236.8025677652945,-826.3202528202959,1000,5.84,-0.211,-0.023,111.7,yellow,258,TRUE
465,1661236065.904,3961.3185977692997,2309.6981623027905,1000,1.336,-1.245,0.586,103.3,green,258,TRUE
466,1661236066.085,4594.663446270306,2309.7368561490707,1000,2.69,-1.472,3.043,101.7,blue,258,TRUE
467,1661236066.175,5923.69755760985,1447.9920157662023,1000,5.845,-1.301,2.195,102.6,red,258,TRUE
468,1661236066.264,3248.957247828317,-826.7474666983722,1000,5.84,-0.211,-0.023,118.0,yellow,258,TRUE
469,1661236066.366,4218.628941491147,2407.052367336871,1000,1.335,-1.244,0.584,120.7,green,258,TRUE
470,1661236066.582,4519.812397671137,2402.380138757444,1000,2.671,-1.472,3.048,98.7,blue,258,TRUE
471,1661236066.667,5916.667967834958,1446.9377652259545,1000,6.081,-1.299,2.2,118.6,red,258,TRUE
472,1661236069.021,5847.496864016351,1467.0921494707345,1000,0.72,-1.412,1.958,99.8,red,258,TRUE
473,1661236069.113,3241.8263341980314,-831.4724822793518,1000,5.84,-0.211,-0.023,98.0,yellow,258,TRUE
474,1661236069.198,4220.516050169982,2385.044267581948,1000,1.334,-1.237,0.574,102.8,green,258,TRUE
475,1661236070.422,5781.361887902926,1448.8673593925216,1000,0.818,-1.414,1.676,1152.1,red,258,TRUE
476,1661236071.559,4155.136132396518,2439.10960092612,1000,1.356,-1.197,0.375,104.7,green,258,TRUE
477,1661236071.787,4556.036054118765,2377.076191684638,1000,2.659,-1.486,3.062,100.7,blue,258,TRUE
478,1661236071.876,5740.618452067062,1470.0235059163006,1000,0.814,-1.38,2.014,116.7,red,258,TRUE
479,1661236072.994,4176.200288337377,2374.6736982056163,1000,1.133,-1.236,0.427,1182.8,green,258,TRUE
480,1661236074.183,4624.466450576775,2381.574375872439,1000,2.761,-1.448,1.985,114.7,blue,258,TRUE
481,1661236074.275,5743.514866548428,1476.7319249472368,1000,0.998,-1.257,2.309,126.7,red,258,TRUE
482,1661236075.404,4074.741838435108,2399.103711711552,1000,1.167,-1.232,0.422,1167.7,green,258,TRUE
483,1661236076.577,4642.622143284309,2383.8353588144605,1000,2.728,-1.467,3.041,99.7,blue,258,TRUE
484,1661236076.669,5732.985522274285,1535.4035000557087,1000,1.191,-1.298,2.277,98.3,red,258,TRUE
485,1661236076.754,3235.952675524563,-832.19951430618,1000,5.84,-0.211,-0.023,102.7,yellow,258,TRUE
486,1661236076.845,4006.1458668544947,2352.2821729032844,1000,1.176,-1.227,0.403,101.7,green,258,TRUE
487,1661236077.035,4649.27683452869,2363.8758818166766,1000,2.716,-1.473,3.047,105.7,blue,258,TRUE
488,1661236077.127,5713.757825314853,1578.8727061989346,1000,1.262,-1.283,2.302,118.4,red,258,TRUE
489,1661236078.251,3970.5035807352397,2359.6655063384314,1000,1.181,-1.236,0.417,1166.0,green,258,TRUE
490,1661236079.422,4690.2185402762425,2413.403466729183,1000,2.702,-1.466,0.104,99.8,blue,258,TRUE
491,1661236079.514,5711.441370347061,1535.8138841314685,1000,1.386,-1.338,2.211,112.7,red,258,TRUE
492,1661236079.614,3207.50243302946,-801.5825860294714,1000,5.84,-0.211,-0.023,102.7,yellow,258,TRUE
493,1661236079.703,3961.1772089316632,2393.9629722923614,1000,1.218,-1.256,0.476,104.4,green,258,TRUE
494,1661236079.886,4712.583117463456,2404.631301773685,1000,2.727,-1.466,0.104,99.8,blue,258,TRUE
495,1661236079.971,5729.200857157961,1482.7334607434952,1000,1.336,-1.337,2.376,119.3,red,258,TRUE
496,1661236080.075,3248.284418225942,-819.9014139036057,1000,5.84,-0.211,-0.023,105.7,yellow,258,TRUE
497,1661236080.167,4017.9813347139648,2387.373716634627,1000,1.227,-1.254,0.469,103.8,green,258,TRUE
498,1661236080.35,4704.814382125892,2432.9876857678896,1000,2.762,-1.458,3.03,115.2,blue,258,TRUE
499,1661236080.449,5764.074421219477,1525.707093738877,1000,1.297,-1.341,2.542,120.7,red,258,TRUE
500,1661236080.554,3291.2829370830877,-839.7656617656502,1000,5.84,-0.211,-0.023,120.7,yellow,258,TRUE
501,1661236080.661,4016.432500986752,2387.2899338891934,1000,1.227,-1.235,0.441,104.8,green,258,TRUE
502,1661236080.871,4650.010091104172,2445.8512945169427,1000,2.764,-1.46,3.034,103.7,blue,258,TRUE
503,1661236080.961,5773.469416671072,1518.0708301398797,1000,1.106,-1.343,2.561,119.3,red,258,TRUE
504,1661236082.081,4153.045159087454,2373.3422549436636,1000,1.238,-1.242,0.449,1183.5,green,258,TRUE
505,1661236083.27,4647.80098678545,2424.841675855049,1000,2.791,-1.449,1.924,114.7,blue,258,TRUE
506,1661236083.362,5803.863572582759,1506.8932103515526,1000,1.031,-1.454,3.026,111.7,red,258,TRUE
507,1661236083.462,3289.678223711329,-847.6293109934558,1000,5.84,-0.211,-0.023,116.7,yellow,258,TRUE
508,1661236083.563,4216.4763020653945,2389.448508344781,1000,1.235,-1.25,0.444,105.8,green,258,TRUE
509,1661236083.749,4599.852476387409,2427.9352519390254,1000,2.797,-1.448,1.936,99.7,blue,258,TRUE
510,1661236083.835,5765.671130982843,1500.458481770049,1000,1.09,-1.398,2.194,104.0,red,258,TRUE
511,1661236083.925,3375.362688076506,-868.8708442116131,1000,5.84,-0.211,-0.023,103.7,yellow,258,TRUE
512,1661236084.016,4298.2497770350865,2384.6519628893807,1000,1.232,-1.245,0.445,101.8,green,258,TRUE
513,1661236084.197,4583.492011178367,2439.5245281708326,1000,2.796,-1.45,1.907,100.6,blue,258,TRUE
514,1661236084.285,5749.166155408835,1576.5937813633964,1000,1.396,-1.307,2.186,117.7,red,258,TRUE
515,1661236084.386,3455.1883565016983,-912.5686661158062,1000,5.84,-0.211,-0.023,120.7,yellow,258,TRUE
516,1661236084.491,4317.938682807054,2381.959286693575,1000,1.245,-1.242,0.467,120.7,green,258,TRUE
517,1661236084.719,4535.966677477358,2432.268017595227,1000,2.795,-1.451,3.027,101.7,blue,258,TRUE
518,1661236084.808,5772.875370737515,1526.760451865783,1000,1.382,-1.378,1.966,102.9,red,258,TRUE
519,1661236084.897,3463.056201294823,-913.4774084676473,1000,5.84,-0.211,-0.023,103.7,yellow,258,TRUE
520,1661236084.989,4278.036339462996,2357.672713149738,1000,1.345,-1.206,0.43,101.7,green,258,TRUE
521,1661236085.168,4544.930691525223,2452.483339570027,1000,2.791,-1.453,3.027,101.7,blue,258,TRUE
522,1661236085.258,5846.509708527466,1540.1277404274479,1000,1.173,-1.49,-3.065,116.7,red,258,TRUE
523,1661236087.611,5908.273935717173,1508.8470018956893,1000,5.737,-1.442,-1.107,113.7,red,258,TRUE
524,1661236089.903,4516.8905896498545,2479.6396364112893,1000,4.285,-1.245,2.038,127.6,blue,258,TRUE
525,1661236090.009,5868.14649849734,1465.4719543785075,1000,5.849,-1.299,2.678,125.7,red,258,TRUE
526,1661236091.137,4487.0619136071255,2273.841532486023,1000,1.385,-1.192,0.458,1184.1,green,258,TRUE
527,1661236092.327,4532.628748146984,2551.429874264541,1000,2.699,-1.499,3.083,98.8,blue,258,TRUE
528,1661236092.418,5915.373875783026,1489.3991168611808,1000,6.205,-1.402,2.238,97.7,red,258,TRUE
529,1661236092.503,3422.2208125494167,-893.5999551951489,1000,5.84,-0.211,-0.023,117.7,yellow,258,TRUE
530,1661236092.603,4383.8341172188475,2234.440412611218,1000,1.139,-1.264,0.343,107.7,green,258,TRUE
531,1661236094.955,4143.811566059604,2257.9744995115434,1000,0.937,-1.205,0.361,1182.5,green,258,TRUE
532,1661236096.144,4544.658719802265,2520.048870735636,1000,2.763,-1.456,3.052,99.1,blue,258,TRUE
533,1661236096.235,5959.1701410258165,1504.8269421110365,1000,5.618,-1.421,1.669,98.2,red,258,TRUE
534,1661236096.322,3432.06244160116,-895.7141712920028,1000,5.84,-0.211,-0.023,100.8,yellow,258,TRUE
535,1661236096.41,4079.6066056761547,2332.161131717453,1000,0.724,-1.331,0.194,117.7,green,258,TRUE
536,1661236096.608,4566.872412279604,2514.5020044544353,1000,2.643,-1.46,3.059,99.0,blue,258,TRUE
537,1661236096.695,5956.6207669916985,1584.2987941070378,1000,5.576,-1.461,0.109,101.7,red,258,TRUE
538,1661236096.784,3426.2729308983994,-883.4517989605624,1000,5.84,-0.211,-0.023,102.7,yellow,258,TRUE
539,1661236096.873,3978.575637062169,2542.8267052018587,1000,6.219,-1.318,0.077,103.7,green,258,TRUE
540,1661236100.456,5923.062645050501,1462.8023640284846,1000,4.261,-1.476,-3.047,111.7,red,258,TRUE
541,1661236100.56,3350.4036438317867,-852.4867679723453,1000,5.84,-0.211,-0.023,97.7,yellow,258,TRUE
542,1661236100.645,4034.290940968631,2527.0389332196714,1000,3.65,-1.299,0.759,102.8,green,258,TRUE
543,1661236100.827,4421.077245381398,2611.5313237851965,1000,3.114,-1.149,2.187,99.8,blue,258,TRUE
544,1661236100.915,5888.642439636155,1404.2993525616548,1000,4.28,-1.52,-0.034,117.2,red,258,TRUE
545,1661236103.251,5964.073935030239,1377.5643781776344,1000,4.832,-1.418,-0.499,114.7,red,258,TRUE
546,1661236103.344,3282.4447330505523,-809.6597398520917,1000,5.84,-0.211,-0.023,111.7,yellow,258,TRUE
547,1661236103.443,4099.271670175906,2654.0270221342325,1000,1.88,-1.336,0.397,117.7,green,258,TRUE
548,1661236104.671,5958.697730068841,1261.511115050168,1000,4.88,-1.478,-0.008,1120.4,red,258,TRUE
549,1661236105.776,4296.957443172513,2899.7057163111244,1000,0.412,-1.295,0.171,104.8,green,258,TRUE
550,1661236106.02,4267.478110867673,2717.0723257052064,1000,0.916,-1.407,1.506,101.1,blue,258,TRUE
551,1661236106.107,5977.558827099361,1148.214713247028,1000,4.941,-1.441,-0.617,119.7,red,258,TRUE
552,1661236108.449,5926.67478318401,1172.9536775869128,1000,5.114,-1.366,1.991,99.6,red,258,TRUE
553,1661236108.54,3281.612625647005,-808.3027248698123,1000,5.84,-0.211,-0.023,113.1,yellow,258,TRUE
554,1661236108.64,4581.416035782108,2996.349784146298,1000,1.704,-1.359,0.566,102.9,green,258,TRUE
555,1661236108.824,4170.110698981767,2767.952500555393,1000,0.933,-1.404,1.485,99.7,blue,258,TRUE
556,1661236108.909,5893.494214376896,1212.6748304857465,1000,5.075,-1.382,1.913,118.7,red,258,TRUE
557,1661236110.032,4787.040787231195,3059.538557039859,1000,1.224,-1.268,-0.211,1167.5,green,258,TRUE
558,1661236111.205,3973.1079422541675,2789.3033558491393,1000,0.982,-1.369,1.808,113.7,blue,258,TRUE
559,1661236111.297,5889.724073756009,1264.9240125107776,1000,4.872,-1.45,0.898,112.7,red,258,TRUE
560,1661236111.396,3263.709712788442,-826.8860049056311,1000,5.84,-0.211,-0.023,117.7,yellow,258,TRUE
561,1661236111.498,5043.886554675153,2964.294958112203,1000,1.011,-1.186,0.175,121.7,green,258,TRUE
562,1661236112.727,5986.387468372406,1288.7420720487876,1000,4.683,-1.499,0.027,1121.8,red,258,TRUE
563,1661236113.834,5244.383547951615,2962.4012873154848,1000,1.557,-1.239,0.363,104.8,green,258,TRUE
564,1661236114.047,3867.81656305927,2948.393007658525,1000,1.008,-1.384,1.588,100.8,blue,258,TRUE
565,1661236114.135,6069.262572191571,1301.5496414155846,1000,4.697,-1.502,0.007,102.8,red,258,TRUE
566,1661236114.224,3120.2840706140705,-828.9805948560183,1000,5.84,-0.211,-0.023,88.8,yellow,258,TRUE
567,1661236114.3,5360.662998394567,2875.4671405007302,1000,1.505,-1.241,0.376,102.7,green,258,TRUE
568,1661236114.506,3734.44752133867,3061.9744467406767,1000,1.006,-1.383,1.604,122.1,blue,258,TRUE
569,1661236114.611,6091.304527820427,1368.3794386339416,1000,4.773,-1.525,-0.013,105.7,red,258,TRUE
570,1661236114.703,3107.100835022788,-851.0526030328832,1000,5.84,-0.211,-0.023,118.7,yellow,258,TRUE
571,1661236116.932,3759.525460220762,3064.184115948905,1000,0.996,-1.368,1.688,104.7,blue,258,TRUE
572,1661236117.028,6213.055120807275,1338.5037554394341,1000,4.653,-1.516,-0.041,113.7,red,258,TRUE
573,1661236117.121,3110.096376539512,-852.1532737591618,1000,5.84,-0.211,-0.023,127.2,yellow,258,TRUE
574,1661236119.389,3653.6601481009457,3081.5387508398,1000,1.009,-1.368,1.682,1119.7,blue,258,TRUE
575,1661236120.498,3112.5043235487356,-855.7221231149043,1000,5.84,-0.211,-0.023,114.7,yellow,258,TRUE
576,1661236120.764,3690.7499864610168,3105.555099685031,1000,1.011,-1.371,1.585,103.7,blue,258,TRUE
577,1661236120.856,6088.6939346475265,1179.1820146721413,1000,3.752,-1.436,-2.383,117.2,red,258,TRUE
578,1661236123.191,5651.063826861847,1394.0025427515275,1000,5.531,-1.467,0.071,100.3,red,258,TRUE
579,1661236123.283,3114.314554064607,-861.7885962482924,1000,5.84,-0.211,-0.023,98.8,yellow,258,TRUE
580,1661236123.371,4934.976999570026,2618.388534038478,1000,1.461,-1.264,0.346,100.8,green,258,TRUE
581,1661236123.575,3748.6815499821046,3117.658317953455,1000,1.031,-1.378,1.488,105.7,blue,258,TRUE
582,1661236123.667,5108.980335457419,1627.289396898279,1000,5.832,-1.485,-3.099,118.7,red,258,TRUE
583,1661236125.976,4680.459876217774,1883.5629904950986,1000,5.388,-1.35,-2.452,114.7,red,258,TRUE
584,1661236127.095,5522.142373353292,2472.7044392777757,1000,1.158,-1.235,0.108,1165.6,green,258,TRUE
585,1661236128.266,3662.566368494789,3089.872247641517,1000,1.006,-1.377,1.695,99.7,blue,258,TRUE
586,1661236128.358,4232.478133510877,2089.965085804955,1000,5.369,-1.386,-2.34,127.7,red,258,TRUE
587,1661236130.692,3766.568071680402,2286.3109035060766,1000,0.057,-1.523,0.031,113.5,red,258,TRUE
588,1661236131.81,5639.464267481738,2456.57799769198,1000,1.485,-1.224,0.243,1163.9,green,258,TRUE
589,1661236132.98,3653.9495728709317,3063.5850031195064,1000,1.012,-1.378,1.597,98.7,blue,258,TRUE
590,1661236133.071,3528.7127192661596,2571.2933745363803,1000,0.195,-1.517,-0.039,97.7,red,258,TRUE
591,1661236133.158,3125.8557114748123,-863.9637851081078,1000,5.84,-0.211,-0.023,100.7,yellow,258,TRUE
592,1661236133.245,5510.3408929854595,2596.955195059906,1000,1.392,-1.305,0.285,103.7,green,258,TRUE
593,1661236133.437,3594.422166185297,3064.6847887648455,1000,1.011,-1.377,1.626,120.8,blue,258,TRUE
594,1661236133.542,3601.9754304834073,2510.0468181577858,1000,0.205,-1.51,-0.013,105.7,red,258,TRUE
595,1661236133.634,3240.8906475643203,-875.4987677886878,1000,5.84,-0.211,-0.023,103.7,yellow,258,TRUE
596,1661236133.723,5479.017013220339,2676.221866251053,1000,1.452,-1.32,0.045,103.8,green,258,TRUE
597,1661236133.993,3671.324798078617,2459.478973807198,1000,0.403,-1.522,-0.001,103.7,red,258,TRUE
598,1661236134.082,3280.675290142594,-899.7831496070881,1000,5.84,-0.211,-0.023,103.7,yellow,258,TRUE
599,1661236134.174,5485.742727020671,2726.883128286691,1000,1.506,-1.311,0.117,101.8,green,258,TRUE
600,1661236134.411,3806.0098091666773,3029.0367090072964,1000,1.012,-1.376,1.626,118.7,blue,258,TRUE
601,1661236134.514,3669.132903908959,2400.7404057121785,1000,0.561,-1.517,0.034,121.2,red,258,TRUE
602,1661236134.619,3287.014096637479,-900.9318336549546,1000,5.84,-0.211,-0.023,105.7,yellow,258,TRUE
