,timestamp,x,y,z,yaw,roll,pitch,latency,student,session,success
0,1661296273.084,3634.587015219402,-2521.2734218926503,1000,4.863,-1.239,0.144,109.4,yellow,259,TRUE
1,1661296273.178,4133.658062395952,-1244.1017066339512,1000,4.82,-1.512,-3.106,93.9,green,259,TRUE
2,1661296277.821,3390.3989746032803,-2217.1903415453817,1000,4.25,-1.241,0.104,1094.9,blue,259,TRUE
3,1661296277.821,1776.1762578867786,779.7250028461995,1000,4.25,-1.241,0.104,1174.6,red,259,TRUE
4,1661296277.821,3268.6696744076203,-1964.3708758080545,1000,4.25,-1.241,0.104,1174.6,yellow,259,TRUE
5,1661296277.821,3014.2112480919495,-1908.87776265475,1000,4.25,-1.241,0.104,1174.6,yellow,259,TRUE
6,1661296281.14,2322.1887338426786,1385.9865064292353,1000,2.76,1.439,-0.296,1141.9,red,259,TRUE
7,1661296284.409,3095.61040701226,735.764159169267,1000,3.987,-1.202,0.091,124.9,blue,259,TRUE
8,1661296284.549,2660.7551456227043,3109.871802181609,1000,1.229,1.533,0.003,1093.8,red,259,TRUE
9,1661296292.226,2660.1989374823124,3114.386632247758,1000,2.119,1.31,0.676,1142.0,red,259,TRUE
10,1661296295.48,2425.2936668912835,3463.588300716586,1000,3.818,-1.142,0.132,124.9,blue,259,TRUE
11,1661296295.605,2684.7457667035947,3172.735538979519,1000,2.486,1.304,0.663,1095.1,red,259,TRUE
12,1661296302.219,2591.873137391561,3575.8361715826595,1000,3.686,-1.152,0.118,125.0,blue,259,TRUE
13,1661296302.344,2580.424528784709,3144.709753536091,1000,2.81,1.296,0.639,1125.9,red,259,TRUE
14,1661296305.627,2630.354042660827,3124.539953328735,1000,2.835,1.296,0.631,125.3,red,259,TRUE
15,1661296309.039,2637.3380583903268,3281.0437907400883,1000,2.914,1.304,0.513,1140.6,red,259,TRUE
16,1661296311.383,2647.9386342584307,3157.9623977231972,1000,3.01,1.313,0.49,125.1,red,259,TRUE
17,1661296312.728,2740.256152297061,3739.446819861793,1000,3.692,-1.15,0.095,1096.7,blue,259,TRUE
18,1661296315.059,2807.8031956162786,3700.863924498377,1000,3.696,-1.145,0.094,1095.0,blue,259,TRUE
19,1661296317.372,2805.678485600656,3685.403545998501,1000,3.696,-1.127,0.082,125.3,blue,259,TRUE
20,1661296317.498,2524.7663444110726,3273.658723299916,1000,3.332,1.307,0.412,1126.6,red,259,TRUE
21,1661296318.858,2515.75091534533,3160.881254813089,1000,3.361,1.307,0.394,125.1,red,259,TRUE
22,1661296320.203,2751.7393330975765,3876.950045948939,1000,3.642,-1.105,0.059,1095.1,blue,259,TRUE
23,1661296322.517,2768.9180662674057,3756.89760917549,1000,3.574,-1.131,0.057,109.3,blue,259,TRUE
24,1661296322.611,2438.4056534263887,3131.3594474221695,1000,3.313,1.298,0.415,124.9,red,259,TRUE
25,1661296323.924,2782.2936924826404,3739.7934449943314,1000,3.535,-1.154,0.071,125.3,blue,259,TRUE
26,1661296324.065,2609.6335188914536,3141.8169016009992,1000,3.306,1.296,0.41,1110.6,red,259,TRUE
27,1661296325.318,3683.2285939817084,5160.500801607095,1000,5.371,-0.077,-0.039,78.1,blue,259,TRUE
28,1661296325.38,2414.490670136518,3077.286994634738,1000,3.3,1.317,0.427,125.0,red,259,TRUE
29,1661296326.71,3502.700036807402,4865.196314793839,1000,3.542,-1.138,0.069,109.3,blue,259,TRUE
30,1661296326.803,2404.33127909174,2969.705465652352,1000,3.3,1.325,0.409,125.0,red,259,TRUE
31,1661296328.131,3379.069832074132,4659.11241506981,1000,3.553,-1.129,0.072,109.7,blue,259,TRUE
32,1661296328.225,2451.278982986582,3016.425209134767,1000,3.373,1.309,0.383,124.9,red,259,TRUE
33,1661296329.57,2744.593657430815,3843.180396016706,1000,3.773,-1.077,0.13,1109.1,blue,259,TRUE
34,1661296331.899,2849.080658930895,3812.001691747222,1000,3.659,-1.106,0.081,1110.8,blue,259,TRUE
35,1661296336.498,2815.0204464555127,3821.5306526040845,1000,3.709,-1.101,0.13,125.0,blue,259,TRUE
36,1661296336.623,2408.3471909703826,3017.128289430866,1000,3.511,1.277,0.316,1142.0,red,259,TRUE
37,1661296338.905,3122.8085882109935,3145.750442976945,1000,3.755,-1.105,0.149,1141.9,blue,259,TRUE
38,1661296341.267,2864.2002539128357,3654.6817996183945,1000,3.668,-1.127,0.107,1095.0,blue,259,TRUE
39,1661296344.504,3001.5774614239317,3582.328124530331,1000,3.662,-1.117,0.104,1140.4,blue,259,TRUE
40,1661296346.833,3005.421535234708,3656.7802352444637,1000,4.359,-1.088,0.157,109.3,blue,259,TRUE
41,1661296346.926,2402.0941186380005,3036.6021984703875,1000,3.491,1.293,0.275,124.9,red,259,TRUE
42,1661296349.182,3050.413590980897,3734.2760771559015,1000,4.47,-1.038,0.096,1157.2,blue,259,TRUE
43,1661296352.481,3020.4741280988515,4052.9924217096586,1000,5.816,-1.028,0.064,1143.8,blue,259,TRUE
44,1661296355.767,2877.8654455129767,4478.3951325305325,1000,4.656,-1.02,0.024,1157.9,blue,259,TRUE
45,1661296359.082,2822.339015389079,5002.4303318341,1000,4.358,-1.077,0.253,1126.6,blue,259,TRUE
46,1661296370.533,2656.5398964196493,5573.470124983615,1000,4.306,-1.043,0.231,93.8,blue,259,TRUE
47,1661296370.611,2209.201690400401,3795.474486642355,1000,1.688,1.297,0.363,171.9,red,259,TRUE
48,1661296371.033,2512.7526743801677,6235.479425980761,1000,4.314,-1.043,0.223,109.3,blue,259,TRUE
49,1661296371.126,2110.7351227588683,4176.936816645547,1000,1.686,1.295,0.361,93.7,red,259,TRUE
50,1661296371.423,2329.9013148199324,6723.097301932251,1000,4.307,-1.052,0.22,109.3,blue,259,TRUE
51,1661296371.517,2047.9251434500984,4407.473874268981,1000,1.683,1.29,0.356,93.8,red,259,TRUE
52,1661296371.815,2199.935507757215,7002.440586065419,1000,4.309,-1.056,0.22,109.3,blue,259,TRUE
53,1661296371.909,2012.2186885124772,4569.051779104925,1000,1.683,1.292,0.357,93.8,red,259,TRUE
54,1661296372.206,2192.283879089438,7065.707035457388,1000,4.309,-1.055,0.22,125.0,blue,259,TRUE
55,1661296372.315,1926.9164946504568,4959.783290528812,1000,1.681,1.294,0.362,156.4,red,259,TRUE
56,1661296373.659,1976.4474358199807,6791.59168099409,1000,4.309,-1.049,0.217,1159.0,blue,259,TRUE
57,1661296377.443,1967.6883254032746,6792.143557211377,1000,4.309,-1.049,0.216,109.4,blue,259,TRUE
58,1661296377.537,1844.7692316710563,5339.046500341307,1000,1.695,1.288,0.349,93.7,red,259,TRUE
59,1661296378.851,1958.7329576392951,6672.610113454728,1000,4.311,-1.072,0.221,1158.9,blue,259,TRUE
60,1661296383.654,2013.6447314409172,6697.804770181545,1000,4.318,-1.054,0.206,1174.7,blue,259,TRUE
61,1661296385.094,2015.1968767088163,6690.7206835232255,1000,4.336,-1.057,0.205,109.3,blue,259,TRUE
62,1661296385.188,1848.5654048181987,5427.97715904279,1000,1.738,1.309,0.521,110.5,red,259,TRUE
63,1661296386.47,2008.5021210357706,6677.589946244357,1000,4.323,-1.065,0.201,1171.6,blue,259,TRUE
64,1661296388.8,2225.8048488328354,6965.362257406615,1000,4.326,-1.055,0.194,109.4,blue,259,TRUE
65,1661296388.893,1861.2228301953517,5433.020160378031,1000,1.821,1.326,0.588,171.8,red,259,TRUE
66,1661296389.317,2279.7758808787466,6975.858003394401,1000,4.327,-1.059,0.195,110.9,blue,259,TRUE
67,1661296389.412,1845.9746384806494,5426.7351732985335,1000,1.817,1.336,0.609,109.4,red,259,TRUE
68,1661296393.147,1468.5245164244004,5226.85720202573,1000,1.743,1.333,0.585,1159.1,red,259,TRUE
69,1661296395.401,2277.370698757369,6949.950614319736,1000,4.343,-1.056,0.202,109.7,blue,259,TRUE
70,1661296395.495,1495.7666346502392,5332.14006411353,1000,1.749,1.329,0.573,156.1,red,259,TRUE
71,1661296396.808,2208.618120295647,6919.070727641927,1000,4.357,-1.06,0.207,109.4,blue,259,TRUE
72,1661296396.902,1455.676234297044,5352.076206384786,1000,1.752,1.321,0.554,156.3,red,259,TRUE
73,1661296398.233,2205.456801561813,6907.966922075449,1000,4.356,-1.064,0.207,1174.4,blue,259,TRUE
74,1661296399.658,2173.1414718944247,6891.975953233716,1000,4.373,-1.043,0.195,109.3,blue,259,TRUE
75,1661296399.751,1363.1871561214098,5219.854060118371,1000,1.761,1.323,0.588,109.1,red,259,TRUE
76,1661296404.411,1338.6372344969125,5242.256058484904,1000,1.708,1.345,0.668,1187.2,red,259,TRUE
77,1661296406.693,2064.6078392262684,6874.7586844425105,1000,4.385,-1.052,0.205,109.7,blue,259,TRUE
78,1661296406.787,1429.7460943556714,5319.649898847639,1000,1.695,1.33,0.605,156.2,red,259,TRUE
79,1661296407.226,2064.1398179552057,6885.472853810754,1000,4.391,-1.065,0.212,109.3,blue,259,TRUE
80,1661296407.32,1848.1224377983572,5541.289308514715,1000,1.674,1.331,0.617,109.0,red,259,TRUE
81,1661296409.633,1964.467861946085,5554.641937707838,1000,1.724,1.323,0.633,1173.3,red,259,TRUE
82,1661296411.901,2225.7206477015043,6916.112501507235,1000,4.41,-1.042,0.212,109.4,blue,259,TRUE
83,1661296411.995,2062.279063260656,5650.4531515596755,1000,1.713,1.323,0.629,171.9,red,259,TRUE
84,1661296413.354,2057.1030317098607,6405.274160541663,1000,4.402,-1.071,0.19,1159.0,blue,259,TRUE
85,1661296418.11,2083.6176938933527,6524.738596201101,1000,4.283,-1.076,0.192,109.4,blue,259,TRUE
86,1661296418.204,2138.017445499023,5761.865977927188,1000,1.768,1.328,0.586,156.2,red,259,TRUE
87,1661296419.549,2154.210594522472,6610.537832054164,1000,4.283,-1.06,0.185,1188.6,blue,259,TRUE
88,1661296421.003,2598.6441538685685,7142.796394049915,1000,4.3,-1.065,0.194,1112.2,blue,259,TRUE
89,1661296423.271,2544.57863173891,7092.201463170535,1000,4.29,-1.046,0.183,109.3,blue,259,TRUE
90,1661296423.365,2156.6676437160454,5725.048033250959,1000,1.812,1.301,0.448,157.9,red,259,TRUE
91,1661296427.103,-2162.099475008691,5775.127675474125,1000,4.344,-1.068,0.19,1174.8,blue,259,TRUE
92,1661296429.467,43.47023319692812,6279.076815871926,1000,4.289,-1.007,0.175,1173.2,blue,259,TRUE
93,1661296431.858,784.1227330857179,6537.596124150069,1000,4.277,-1.032,0.117,1173.1,blue,259,TRUE
94,1661296436.596,1217.813864438583,6640.960613254143,1000,3.937,-1.141,0.19,109.4,blue,259,TRUE
95,1661296436.69,2146.414754622814,5679.275167440989,1000,2.805,1.424,-0.549,171.9,red,259,TRUE
96,1661296440.397,1547.57094920605,6625.892563901854,1000,2.75,-1.122,-0.13,109.3,blue,259,TRUE
97,1661296440.49,2412.1170984259543,5758.234552511276,1000,4.126,1.34,0.243,171.8,red,259,TRUE
98,1661296441.851,2172.3789746830466,5932.654937879311,1000,0.852,-1.09,-0.053,1157.6,blue,259,TRUE
99,1661296444.167,3229.6752954013227,6084.352333074746,1000,1.285,-1.042,-0.027,109.7,blue,259,TRUE
100,1661296444.261,2574.616837591368,5684.35589061432,1000,4.088,1.3,0.295,171.7,red,259,TRUE
101,1661296448.016,3546.0323758178806,6114.894610915627,1000,1.444,-1.067,0.124,1187.0,blue,259,TRUE
102,1661296450.392,3967.074596540673,6097.242604098027,1000,1.484,-1.062,0.132,1157.6,blue,259,TRUE
103,1661296455.179,4150.498982430073,6035.777608248627,1000,1.984,-1.022,0.212,1173.2,blue,259,TRUE
104,1661296457.525,4317.194757536563,6035.028181878232,1000,1.975,-1.014,0.209,109.4,blue,259,TRUE
105,1661296457.619,2855.6308039655364,5649.18492009202,1000,4.086,1.307,0.569,156.2,red,259,TRUE
106,1661296458.978,4102.7570060497355,6662.979442216001,1000,1.944,-1.0,0.215,1173.3,blue,259,TRUE
107,1661296463.748,4076.808151714495,6679.95516910784,1000,1.946,-0.997,0.207,1173.4,blue,259,TRUE
108,1661296466.127,4120.750275195024,6654.858644366817,1000,1.947,-0.998,0.204,1172.8,blue,259,TRUE
109,1661296470.881,3983.423763473497,6620.934138455998,1000,1.951,-1.005,0.207,1173.1,blue,259,TRUE
110,1661296473.243,4028.5258336256134,6618.29654273408,1000,1.948,-0.995,0.204,1190.3,blue,259,TRUE
111,1661296475.637,3995.478783061617,6640.642929091503,1000,1.955,-1.004,0.208,1142.0,blue,259,TRUE
112,1661296477.982,3914.596568795018,6715.172280455442,1000,1.961,-1.011,0.212,1187.2,blue,259,TRUE
113,1661296480.374,3878.2428850867514,6634.529374087845,1000,1.969,-0.996,0.209,1157.5,blue,259,TRUE
114,1661296485.113,3735.539276641179,6603.320732434943,1000,1.97,-1.005,0.208,1173.2,blue,259,TRUE
115,1661296487.458,3749.6473781766103,6539.200773671978,1000,1.972,-1.002,0.208,110.7,blue,259,TRUE
116,1661296487.553,3273.217706462132,5662.117166571202,1000,4.048,1.334,0.622,171.8,red,259,TRUE
117,1661296488.913,3702.412643612776,6516.278786407405,1000,1.972,-0.996,0.206,1173.1,blue,259,TRUE
118,1661296491.259,3788.196940794056,6500.033847545251,1000,1.979,-1.001,0.214,109.4,blue,259,TRUE
119,1661296491.353,3580.9814760274057,5745.529571478258,1000,4.032,1.295,0.483,171.7,red,259,TRUE
120,1661296491.792,3873.0989349995384,6502.4084223965765,1000,1.984,-0.995,0.207,109.4,blue,259,TRUE
121,1661296491.886,3846.3406264290084,5858.205006104566,1000,4.036,1.286,0.495,93.7,red,259,TRUE
122,1661296495.558,3897.2489293941926,6497.580028633324,1000,1.978,-0.998,0.201,1157.6,blue,259,TRUE
123,1661296500.282,3955.4321765477107,6449.463456888599,1000,1.981,-0.997,0.205,109.5,blue,259,TRUE
124,1661296500.376,3866.3161154802115,5850.717261814989,1000,4.038,1.299,0.584,156.6,red,259,TRUE
125,1661296501.721,3861.9286104880716,6462.970913900087,1000,1.98,-1.006,0.212,1173.0,blue,259,TRUE
126,1661296506.506,3871.7950617600654,6468.307894167566,1000,2.005,-0.993,0.201,1204.4,blue,259,TRUE
127,1661296508.899,3781.4738398356835,6447.0432308025265,1000,2.006,-0.995,0.201,1188.8,blue,259,TRUE
128,1661296514.732,3829.1279753784765,5795.0981427983315,1000,5.286,1.383,0.465,1187.2,red,259,TRUE
129,1661296516.999,3679.3707353633267,6108.892735928202,1000,2.716,-1.078,-0.071,109.0,blue,259,TRUE
130,1661296517.092,3792.151429285758,5433.726507597931,1000,5.744,1.406,0.303,156.2,red,259,TRUE
131,1661296523.271,3700.347954889175,2925.840460831133,1000,1.3,-1.077,0.032,1171.9,blue,259,TRUE
132,1661296525.646,4469.511552895698,2801.997974780274,1000,1.286,-1.067,0.028,1187.2,blue,259,TRUE
133,1661296527.067,4491.007489914889,2885.134580397293,1000,1.29,-1.058,0.029,109.3,blue,259,TRUE
134,1661296527.161,3700.2572451473393,4756.830727482512,1000,4.244,1.373,-0.264,93.8,red,259,TRUE
135,1661296527.474,4512.022864881041,2928.916034522859,1000,1.29,-1.057,0.029,109.3,blue,259,TRUE
136,1661296527.567,3694.959356206489,4091.059024279015,1000,4.242,1.38,-0.283,93.7,red,259,TRUE
137,1661296528.817,4459.936803265455,2895.5277193028114,1000,1.292,-1.07,0.033,1187.0,blue,259,TRUE
138,1661296531.193,4072.447472527243,3573.508601492354,1000,1.296,-1.062,0.031,1172.9,blue,259,TRUE
139,1661296533.537,4216.999181431395,3588.8974463990767,1000,1.299,-1.067,0.028,110.6,blue,259,TRUE
140,1661296533.632,3685.1373718380332,3350.198372941803,1000,4.177,1.398,-0.397,171.7,red,259,TRUE
141,1661296535.007,4213.229532519344,3566.418921543087,1000,1.298,-1.065,0.029,1171.5,blue,259,TRUE
142,1661296537.397,4107.516191688343,3622.5897115342727,1000,1.297,-1.059,0.022,1187.2,blue,259,TRUE
143,1661296539.787,3941.5597693958553,3666.2449687624758,1000,1.287,-1.06,0.003,1171.6,blue,259,TRUE
144,1661296542.163,3937.2491951879474,3760.313197764915,1000,1.297,-1.06,0.007,1202.6,blue,259,TRUE
145,1661296544.569,4272.717760600003,3171.0817475697877,1000,1.282,-1.059,0.003,1186.9,blue,259,TRUE
146,1661296546.974,4246.667113018832,3133.2150104043926,1000,1.275,-1.048,0.001,1171.6,blue,259,TRUE
147,1661296551.723,4099.0069787573975,3203.6615874706004,1000,1.269,-1.042,0.004,1171.6,blue,259,TRUE
148,1661296554.082,4056.4990783857033,3217.78736276914,1000,1.265,-1.055,0.008,109.1,blue,259,TRUE
149,1661296554.176,3667.670183538002,2629.174021885014,1000,4.32,1.391,-0.358,156.2,red,259,TRUE
150,1661296555.535,4472.727509998828,3420.8983043272146,1000,1.26,-1.044,0.002,1171.3,blue,259,TRUE
151,1661296557.925,4609.7463000673215,3522.3635523271196,1000,1.259,-1.037,0.011,1187.2,blue,259,TRUE
152,1661296562.752,4557.594068900006,3590.0536613572667,1000,1.259,-1.035,0.022,1140.3,blue,259,TRUE
153,1661296565.064,4498.613038324995,3526.0951923308985,1000,1.252,-1.054,0.023,109.4,blue,259,TRUE
154,1661296565.157,3697.951810608796,2040.088812570553,1000,4.26,1.405,-0.42,156.5,red,259,TRUE
155,1661296566.516,4487.280341882681,3552.79434492914,1000,1.253,-1.059,0.026,1171.8,blue,259,TRUE
156,1661296576.208,4498.535432247242,3641.6437571244774,1000,1.24,-1.074,0.02,1171.5,blue,259,TRUE
157,1661296578.584,4465.890767280172,3335.1647506288696,1000,1.309,-1.106,0.085,1187.2,blue,259,TRUE
158,1661296580.977,4373.942445141056,3261.508175109533,1000,1.318,-1.117,0.122,1173.1,blue,259,TRUE
159,1661296585.854,4369.1403143118305,2936.988036125173,1000,2.183,-1.078,0.112,1188.8,blue,259,TRUE
160,1661296587.199,4437.632041298982,2817.3044615715276,1000,2.19,-1.084,0.089,109.4,blue,259,TRUE
161,1661296587.293,3672.1906872181517,1835.0791532714713,1000,2.794,1.445,0.805,109.3,red,259,TRUE
162,1661296587.605,4393.494266018464,2711.004241575585,1000,2.186,-1.092,0.088,109.3,blue,259,TRUE
163,1661296587.699,3684.7957146390218,1923.207445248977,1000,3.343,1.478,0.011,93.6,red,259,TRUE
164,1661296588.934,4477.7264237630325,2653.56446966009,1000,2.162,-1.101,0.083,1142.2,blue,259,TRUE
165,1661296590.061,2715.06905915806,-1907.1944083711462,1000,0.008,-1.514,3.1,125.0,yellow,259,TRUE
166,1661296590.17,4746.977577202578,-756.6978231390066,1000,4.679,-1.449,0.554,109.3,green,259,TRUE
167,1661296592.547,2399.4972548976525,-1933.0724286690822,1000,5.329,-1.392,-2.998,1155.8,yellow,259,TRUE
168,1661296594.831,4256.868067867329,2883.7755134030517,1000,2.142,-1.129,0.085,1127.5,blue,259,TRUE
169,1661296595.943,2298.3994629645595,-1885.7447626725382,1000,6.236,-1.436,3.061,125.1,yellow,259,TRUE
170,1661296598.18,4188.52163566219,2743.3654879911905,1000,2.138,-1.134,0.08,125.0,blue,259,TRUE
171,1661296598.305,2307.951691671817,-1857.3681589922992,1000,0.164,-1.28,3.039,93.6,yellow,259,TRUE
172,1661296601.681,2521.9611007988256,-2417.6003058540186,1000,5.6,-1.308,-0.183,1155.9,yellow,259,TRUE
173,1661296607.372,3312.933151270754,2478.169557793496,1000,0.023,-1.117,0.209,1110.6,blue,259,TRUE
174,1661296607.372,3312.9744624684427,2478.4110386458046,1000,0.023,-1.117,0.209,1110.6,red,259,TRUE
175,1661296607.372,3313.013856705481,2478.274587046073,1000,0.023,-1.117,0.209,1110.6,red,259,TRUE
176,1661296611.753,3520.35599636975,2588.760248653163,1000,2.929,1.273,0.433,1156.7,red,259,TRUE
177,1661296615.038,3322.393210946031,2779.9001392566734,1000,3.22,-1.08,0.183,124.9,blue,259,TRUE
178,1661296615.163,3445.8285461269998,2460.1676697804437,1000,2.547,1.309,0.866,1096.8,red,259,TRUE
179,1661296618.402,3290.039973069299,2879.7194338864524,1000,3.264,-1.065,0.206,125.4,blue,259,TRUE
180,1661296618.528,3552.6401033111783,2528.4498655107354,1000,2.617,1.338,0.969,1109.1,red,259,TRUE
181,1661296621.75,3328.454906173715,2872.3525932937296,1000,3.259,-1.082,0.197,124.9,blue,259,TRUE
182,1661296621.859,3619.655040366677,2554.2714851210803,1000,2.851,1.335,0.687,140.9,red,259,TRUE
183,1661296625.268,3574.888123800916,2789.2658425561835,1000,2.907,1.338,0.747,1141.7,red,259,TRUE
184,1661296628.569,4280.033465377945,2771.541368423293,1000,1.702,-1.125,0.057,1079.9,blue,259,TRUE
185,1661296632.916,3535.726766144634,2877.467642614225,1000,2.697,1.364,0.838,1173.1,red,259,TRUE
186,1661296634.246,4250.478283037867,2723.184255272402,1000,1.788,-1.14,0.093,109.0,blue,259,TRUE
187,1661296634.339,3511.031643212179,2818.880592518891,1000,2.885,1.492,0.039,125.0,red,259,TRUE
188,1661296635.637,4267.571234634234,2775.7410303390957,1000,1.767,-1.132,0.075,124.7,blue,259,TRUE
189,1661296635.747,3518.999836997092,2771.8932416514585,1000,3.036,1.513,0.007,109.1,red,259,TRUE
190,1661296635.841,2919.488027239608,-2566.5327909360694,1000,5.594,-1.116,-0.064,93.7,yellow,259,TRUE
191,1661296636.075,4029.7887230276942,2705.3974816516757,1000,1.766,-1.13,0.074,1110.5,blue,259,TRUE
192,1661296636.075,3598.503039626732,2801.4028433499084,1000,1.766,-1.13,0.074,1110.5,red,259,TRUE
193,1661296636.075,3655.6770062165583,2822.325717307238,1000,1.766,-1.13,0.074,1110.5,red,259,TRUE
194,1661296637.17,3094.6010652928244,-2657.3393789931724,1000,5.61,-1.13,-0.041,140.5,yellow,259,TRUE
195,1661296639.424,3971.874291936865,2789.3634503418675,1000,1.796,-1.116,0.074,124.9,blue,259,TRUE
196,1661296639.564,3686.263327849944,2557.8164982957574,1000,3.783,1.462,-0.067,1097.1,red,259,TRUE
197,1661296645.163,3836.7176864374815,2942.0081012723526,1000,3.479,-1.154,0.29,109.4,blue,259,TRUE
198,1661296645.257,3679.17695535144,2258.162579030805,1000,3.392,1.396,-0.583,125.2,red,259,TRUE
199,1661296647.636,3333.6437033817574,2050.075562829696,1000,3.23,1.462,-0.004,1110.7,red,259,TRUE
200,1661296650.874,3434.954796442196,4100.0828785620915,1000,4.344,-1.097,0.231,109.3,blue,259,TRUE
201,1661296650.968,3762.3584839277655,1682.4574382556448,1000,3.603,1.439,0.611,110.5,red,259,TRUE
202,1661296651.061,3408.2579523964937,-3024.891316457454,1000,5.441,-1.089,-0.065,126.2,yellow,259,TRUE
203,1661296653.316,3192.610536987122,4736.211212713983,1000,4.046,-1.107,0.204,109.3,blue,259,TRUE
204,1661296653.409,4685.815049605481,1410.4931567194128,1000,3.053,1.473,0.086,125.3,red,259,TRUE
205,1661296653.534,3091.0531822698413,-2815.7130527459403,1000,5.501,-1.074,-0.037,1079.4,yellow,259,TRUE
206,1661296654.77,2967.742507829585,5222.613327816294,1000,3.683,-1.079,0.125,109.6,blue,259,TRUE
207,1661296654.864,5212.484145134525,1343.3720295020173,1000,2.404,1.341,1.658,109.3,red,259,TRUE
208,1661296654.957,3216.004036262363,-2834.86097390565,1000,5.495,-1.037,-0.004,125.0,yellow,259,TRUE
209,1661296660.617,2686.6897874300553,6036.780267294747,1000,3.603,-1.041,0.101,142.2,blue,259,TRUE
210,1661296660.759,7488.156185127155,1170.4839589440753,1000,3.294,1.402,0.323,1109.1,red,259,TRUE
211,1661296663.996,2464.9765437609426,6813.962386603537,1000,3.634,-1.034,0.108,125.0,blue,259,TRUE
212,1661296664.121,4642.4462053108,1567.5679647643208,1000,3.01,1.164,-2.285,1094.9,red,259,TRUE
213,1661296667.373,2020.3419832163188,7588.416355266628,1000,3.758,-1.146,0.157,1155.9,blue,259,TRUE
214,1661296670.797,5158.5443356422065,1507.957040039628,1000,2.741,1.436,0.401,141.0,red,259,TRUE
215,1661296673.192,6164.420749265861,951.266672093267,1000,2.737,1.384,0.271,1127.9,red,259,TRUE
216,1661296674.491,2083.196493218522,7567.9228458541465,1000,3.754,-1.154,0.154,109.5,blue,259,TRUE
217,1661296674.585,5951.470143130634,1244.1439512485954,1000,2.843,1.428,0.262,109.4,red,259,TRUE
218,1661296674.679,3176.518480418897,-2850.214920800867,1000,5.517,-1.041,0.02,93.8,yellow,259,TRUE
219,1661296674.882,2146.8704411132517,7597.297732510633,1000,3.754,-1.145,0.152,109.7,blue,259,TRUE
220,1661296674.976,5903.360415342227,1308.744294812402,1000,2.953,1.457,0.014,125.3,red,259,TRUE
221,1661296676.26,2262.1584833091542,7570.275966778509,1000,3.749,-1.118,0.142,125.1,blue,259,TRUE
222,1661296676.369,5880.704794817078,1318.6507741701548,1000,3.019,1.452,0.025,125.0,red,259,TRUE
223,1661296678.808,2368.36796330012,7350.886294994094,1000,3.816,-1.112,0.032,124.9,blue,259,TRUE
224,1661296678.948,3853.9196574975344,-2985.8042295384416,1000,5.503,-1.04,0.005,1126.3,red,259,TRUE
225,1661296678.948,3342.953861902828,-2883.475090934285,1000,5.503,-1.04,0.005,1126.3,yellow,259,TRUE
226,1661296678.948,3445.4078301448926,-2903.9589845506607,1000,5.503,-1.04,0.005,1126.3,yellow,259,TRUE
227,1661296680.246,2442.440745876024,7267.568292115016,1000,3.961,-1.176,0.124,124.7,blue,259,TRUE
228,1661296680.356,5014.3779105115555,-689.5649454630279,1000,2.869,1.48,0.029,124.9,red,259,TRUE
229,1661296681.654,2627.3597969082157,3185.127885100245,1000,2.943,1.473,0.034,1110.7,blue,259,TRUE
230,1661296681.654,4218.738680777639,602.0451833811738,1000,2.943,1.473,0.034,1110.7,red,259,TRUE
231,1661296681.654,3820.5894784245856,1247.9301462010822,1000,2.943,1.473,0.034,1110.7,red,259,TRUE
232,1661296683.938,1829.5770091868167,5532.181724527871,1000,3.601,-1.139,0.136,109.7,blue,259,TRUE
233,1661296684.032,4223.233231633645,1269.1524548255452,1000,3.037,1.51,-0.037,109.3,red,259,TRUE
234,1661296684.125,3389.8143393782498,-2895.053215444159,1000,5.525,-1.024,0.052,93.7,yellow,259,TRUE
235,1661296685.314,4467.9567260645445,1290.2607107423992,1000,3.114,1.487,-0.052,109.4,red,259,TRUE
236,1661296685.408,3399.4728756424706,-2891.4722645342395,1000,5.541,-1.082,0.076,156.0,yellow,259,TRUE
237,1661296685.72,1523.226735907667,6175.109859481751,1000,3.476,-1.17,0.185,109.2,blue,259,TRUE
238,1661296685.814,4802.13212013676,2042.445613578101,1000,3.185,1.476,-0.058,125.0,red,259,TRUE
239,1661296685.955,3803.095482879334,5164.760835723582,1000,4.421,-1.173,1.184,1127.5,yellow,259,TRUE
240,1661296687.113,1192.9757504184677,7805.957659836448,1000,3.416,-1.133,0.158,1094.9,blue,259,TRUE
241,1661296689.411,1056.9364388345605,7579.2892564528875,1000,3.372,-1.136,0.158,1093.5,blue,259,TRUE
242,1661296690.489,3298.2459798508553,1267.6083303825442,1000,5.503,-0.959,0.043,157.8,yellow,259,TRUE
243,1661296690.74,1016.5701485939094,7514.322040896892,1000,3.422,-1.144,0.184,109.4,blue,259,TRUE
244,1661296690.834,4731.750936451811,2060.4406710296457,1000,3.436,1.451,-0.044,109.3,red,259,TRUE
245,1661296690.928,3155.1305219068345,-31.91727601771966,1000,5.499,-0.96,0.033,93.8,yellow,259,TRUE
246,1661296691.115,977.7501597509155,7485.897543975727,1000,3.48,-1.151,0.207,126.1,blue,259,TRUE
247,1661296691.241,5871.177593496776,1443.703210810127,1000,3.394,1.46,-0.035,1126.7,red,259,TRUE
248,1661296692.524,1002.2155954585941,7503.132285676667,1000,3.473,-1.198,0.303,109.4,blue,259,TRUE
249,1661296692.618,5770.9315531046905,1668.8232088006562,1000,3.45,1.457,-0.034,109.4,red,259,TRUE
250,1661296692.712,3090.931606510683,-658.7474533501692,1000,5.495,-0.948,0.044,93.8,yellow,259,TRUE
251,1661296693.9,5817.61770586936,1713.5390887722451,1000,3.485,1.511,-0.038,109.6,red,259,TRUE
252,1661296693.994,3049.8820800642798,-1055.9104909745176,1000,5.49,-0.956,0.05,156.2,yellow,259,TRUE
253,1661296694.307,986.6276486870604,7493.648694541889,1000,3.459,-1.168,0.243,124.9,blue,259,TRUE
254,1661296694.416,5796.411781531811,1625.1100918445434,1000,3.68,1.419,0.177,125.0,red,259,TRUE
255,1661296694.525,3018.5480061197445,-1322.7653869363896,1000,5.492,-0.964,0.052,93.8,yellow,259,TRUE
256,1661296694.744,1002.9749208474228,7441.9436132384635,1000,3.461,-1.154,0.231,1093.4,blue,259,TRUE
257,1661296695.822,2852.2570194204413,-2632.499451184165,1000,5.487,-0.962,0.064,156.2,yellow,259,TRUE
258,1661296696.15,454.84499407578113,7155.154319268462,1000,3.482,-1.17,0.245,110.9,blue,259,TRUE
259,1661296696.245,5610.393929253472,1589.925430213309,1000,1.756,1.494,0.036,109.7,red,259,TRUE
260,1661296696.339,2865.7692530251065,-2639.474797517482,1000,5.478,-0.956,0.05,109.3,yellow,259,TRUE
261,1661296696.573,562.7119175373904,7234.427753573978,1000,3.41,-1.182,0.193,109.3,blue,259,TRUE
262,1661296696.667,5378.5994537516935,1525.7910501734857,1000,1.266,1.523,0.015,125.0,red,259,TRUE
263,1661296696.886,699.0001531057878,7281.565292346996,1000,3.327,-1.197,0.182,125.1,blue,259,TRUE
264,1661296696.995,5081.564573871515,1547.1168246919676,1000,1.348,1.501,0.06,109.4,red,259,TRUE
265,1661296697.088,2788.8846769537267,-2646.5260405077684,1000,5.474,-0.953,0.046,78.5,yellow,259,TRUE
266,1661296697.276,804.7658059450232,7349.69658173005,1000,3.242,-1.188,0.176,124.9,blue,259,TRUE
267,1661296697.386,4765.118080733597,1530.3673927336029,1000,1.986,1.454,3.05,126.4,red,259,TRUE
268,1661296697.496,2857.9442269224764,-2625.2029202593912,1000,5.473,-0.952,0.046,140.6,yellow,259,TRUE
269,1661296697.793,873.9266981470901,7393.980860553754,1000,3.294,-1.168,0.221,109.3,blue,259,TRUE
270,1661296697.887,4351.199649144403,1615.4273647315902,1000,2.181,1.513,0.01,109.3,red,259,TRUE
271,1661296697.981,2854.000324123826,-2625.5519830992293,1000,5.472,-0.952,0.046,94.9,yellow,259,TRUE
272,1661296698.216,926.0799274507149,7430.243095640445,1000,3.454,-1.152,0.231,1079.6,blue,259,TRUE
273,1661296699.28,2830.49020933559,-2618.582376803597,1000,5.469,-0.952,0.044,156.2,yellow,259,TRUE
274,1661296699.608,874.4748053321223,7637.992013206129,1000,2.244,-1.148,-0.033,109.3,blue,259,TRUE
275,1661296699.702,4140.335374089745,2012.665365140548,1000,3.44,1.37,0.831,109.4,red,259,TRUE
276,1661296699.796,2828.07454639665,-2620.709021676778,1000,5.468,-0.951,0.041,93.9,yellow,259,TRUE
277,1661296699.999,920.3617932774274,7720.466109437669,1000,1.716,-1.143,-0.118,125.0,blue,259,TRUE
278,1661296700.108,4179.61459744093,2446.506979911654,1000,3.312,1.377,0.253,109.7,red,259,TRUE
279,1661296700.421,1104.8618874915328,7796.064820979427,1000,1.247,-1.125,-0.159,125.0,blue,259,TRUE
280,1661296700.53,4370.0764580102905,2954.904466971477,1000,3.151,1.318,0.043,125.0,red,259,TRUE
281,1661296700.623,2904.524882299865,-2656.2795266676976,1000,5.463,-0.957,0.043,156.5,yellow,259,TRUE
282,1661296700.967,4700.733190862239,3492.6384778277447,1000,3.085,1.335,0.35,109.2,red,259,TRUE
283,1661296701.061,2867.835767115629,-2661.935038638004,1000,5.46,-0.959,0.041,78.1,yellow,259,TRUE
284,1661296701.233,2578.084463806406,7973.298212470118,1000,0.668,-1.082,0.027,126.5,blue,259,TRUE
285,1661296701.328,5030.117706934477,3989.212463595768,1000,2.598,1.397,0.041,125.0,red,259,TRUE
286,1661296701.437,2855.731157692602,-2656.279405435284,1000,5.46,-0.956,0.048,95.4,yellow,259,TRUE
287,1661296701.642,2657.4666629873004,8028.919592823679,1000,1.048,-1.101,-0.155,109.3,blue,259,TRUE
288,1661296701.736,5539.348245654609,4474.893345335084,1000,2.067,1.445,1.401,109.4,red,259,TRUE
289,1661296701.83,2850.4276058628484,-2650.605818513591,1000,5.46,-0.958,0.05,93.7,yellow,259,TRUE
290,1661296702.048,2739.541216658908,7923.989064586946,1000,1.558,-1.215,-0.12,109.4,blue,259,TRUE
291,1661296702.142,5780.167542644273,4745.900494141309,1000,1.927,1.335,1.71,109.7,red,259,TRUE
292,1661296702.236,2862.3981077600442,-2655.348866801453,1000,5.464,-0.958,0.062,156.2,yellow,259,TRUE
293,1661296702.564,2789.004062019165,7806.933747331852,1000,2.49,-1.129,0.005,109.4,blue,259,TRUE
294,1661296702.658,5943.897857359993,4950.4698811171365,1000,1.885,1.328,1.73,109.4,red,259,TRUE
295,1661296702.751,2860.8238545315876,-2644.053193634418,1000,5.459,-0.958,0.051,93.7,yellow,259,TRUE
296,1661296702.97,2789.440676556209,7652.59298927644,1000,3.271,-1.132,0.107,125.3,blue,259,TRUE
297,1661296703.079,6049.49489492003,5108.364471893845,1000,1.87,1.314,1.744,125.0,red,259,TRUE
298,1661296704.36,2696.469775789849,7627.77378850829,1000,4.114,-1.127,0.273,109.2,blue,259,TRUE
299,1661296704.454,6052.19509143152,5240.703301869664,1000,1.788,1.268,1.683,140.6,red,259,TRUE
300,1661296708.145,2529.849762849733,7553.33334879444,1000,3.584,-1.069,0.076,125.0,blue,259,TRUE
301,1661296708.27,5628.057222922541,5557.25254831433,1000,1.671,1.281,1.574,1141.8,red,259,TRUE
302,1661296709.568,2550.2857232575316,7492.184533836434,1000,3.529,-1.096,0.06,126.6,blue,259,TRUE
303,1661296709.678,5797.777379263061,5531.589264527236,1000,1.75,1.259,1.604,126.3,red,259,TRUE
304,1661296710.976,2569.738856110735,7481.2555456750515,1000,3.528,-1.083,0.046,126.8,blue,259,TRUE
305,1661296711.118,6038.828213930982,5251.66420171041,1000,1.762,1.27,1.655,1094.7,red,259,TRUE
306,1661296712.369,2560.237765555696,7494.043982193874,1000,3.542,-1.086,0.047,110.7,blue,259,TRUE
307,1661296712.464,5987.201330372092,5228.267756137506,1000,1.588,1.33,1.324,140.9,red,259,TRUE
308,1661296714.901,7883.867827020326,4888.836090852294,1000,1.611,1.349,0.507,1079.8,red,259,TRUE
309,1661296718.11,2552.846503236432,7474.320971804819,1000,3.602,-1.12,0.082,125.0,blue,259,TRUE
310,1661296718.203,6844.537637477524,5152.422782634938,1000,1.643,1.462,0.005,140.6,red,259,TRUE
311,1661296720.578,6526.590241534516,5102.532736919972,1000,1.805,1.325,0.0,126.6,red,259,TRUE
312,1661296722.924,6314.082195337263,5071.864595703422,1000,1.808,1.343,0.045,140.6,red,259,TRUE
313,1661296725.224,2524.506246344758,7524.67733114479,1000,3.526,-1.119,0.062,1127.6,blue,259,TRUE
314,1661296728.493,2445.488789964307,7524.411351180664,1000,3.577,-1.107,0.056,1140.3,blue,259,TRUE
315,1661296731.763,2420.7104980236304,7561.125911543207,1000,3.554,-1.088,0.105,1142.1,blue,259,TRUE
316,1661296735.046,2481.5569208690013,7545.805484674431,1000,3.422,-1.106,0.061,1141.9,blue,259,TRUE
317,1661296738.333,2493.0316573828427,7468.190317671218,1000,3.43,-1.078,0.103,1156.0,blue,259,TRUE
318,1661296741.634,2313.1232101463206,7476.633935951716,1000,3.842,-1.074,0.192,1141.9,blue,259,TRUE
319,1661296744.919,2152.4238340057623,7430.503568786705,1000,3.691,-1.073,0.195,1142.1,blue,259,TRUE
320,1661296748.189,2276.2368290362565,7545.173441339483,1000,3.664,-1.214,0.326,1141.8,blue,259,TRUE
321,1661296751.459,2066.1456451610907,7607.163392944735,1000,2.83,-1.166,0.165,1143.0,blue,259,TRUE
322,1661296758.143,5073.807862884685,2870.4180548797913,1000,4.717,1.358,0.273,1111.0,blue,259,TRUE
323,1661296758.143,6037.366962305232,4728.22565129173,1000,4.717,1.358,0.273,1111.0,red,259,TRUE
324,1661296758.143,5876.6700966291055,4418.617681656005,1000,4.717,1.358,0.273,1111.0,red,259,TRUE
325,1661296761.396,3797.2609443489864,5123.152205675647,1000,3.419,-1.14,0.173,1157.5,blue,259,TRUE
326,1661296764.681,3326.5437601656363,5862.6298694676725,1000,3.338,-1.119,0.148,1143.7,blue,259,TRUE
327,1661296769.078,2906.7135217515097,-2652.315512281029,1000,5.28,-0.926,0.009,156.2,yellow,259,TRUE
328,1661296770.376,2805.0636241771826,7390.439904299091,1000,3.36,-1.115,0.122,1145.2,blue,259,TRUE
329,1661296771.505,2973.9901868883703,-2659.680727971829,1000,5.277,-0.925,0.005,140.9,yellow,259,TRUE
330,1661296772.741,2762.009619913879,7339.188002880259,1000,3.359,-1.118,0.115,110.4,blue,259,TRUE
331,1661296772.835,5488.52571140774,3973.4616774655065,1000,5.283,1.475,0.088,124.9,red,259,TRUE
332,1661296775.102,2681.74744656429,7259.305819226746,1000,3.354,-1.116,0.116,1156.0,blue,259,TRUE
333,1661296781.808,3003.873421025788,2935.91413994605,1000,2.077,1.425,0.188,1111.0,red,259,TRUE
334,1661296784.045,1756.228611040625,6643.149267082594,1000,3.367,-1.095,0.077,1110.9,blue,259,TRUE
335,1661296785.141,3047.140463583651,-2679.9131720591354,1000,5.26,-0.918,0.019,78.0,yellow,259,TRUE
336,1661296787.474,3126.76723725812,-2699.387166608399,1000,5.261,-0.938,0.05,1125.9,yellow,259,TRUE
337,1661296789.711,2336.7966549176217,6018.940482261685,1000,2.332,-1.126,0.108,1141.9,blue,259,TRUE
338,1661296796.392,2392.0177676977582,6494.436164669355,1000,4.01,-1.096,0.057,1142.0,blue,259,TRUE
339,1661296799.676,2473.340616567189,7012.75082176706,1000,4.729,-1.07,0.292,1155.9,blue,259,TRUE
340,1661296806.385,5884.877938996892,9124.251470837971,1000,5.582,-1.018,0.059,1079.7,blue,259,TRUE
341,1661296807.449,3189.579267616275,-2699.563408178852,1000,5.212,-0.933,0.014,156.5,yellow,259,TRUE
342,1661296808.7,6005.61202952784,9208.669996399121,1000,5.616,-1.053,0.051,109.3,blue,259,TRUE
343,1661296808.794,4475.0539273872855,1870.7174997852997,1000,2.807,1.45,0.543,124.9,red,259,TRUE
344,1661296811.218,3052.1561365306857,-2432.0404272684827,1000,5.211,-0.938,0.003,1127.9,yellow,259,TRUE
345,1661296813.441,5840.200418990152,8988.465953348807,1000,4.078,-1.229,0.235,109.7,blue,259,TRUE
346,1661296813.535,4920.540171144458,1774.4857784093185,1000,2.939,1.313,0.003,124.9,red,259,TRUE
347,1661296815.786,4991.008882239964,8573.56762898443,1000,3.607,-1.065,-0.063,1143.6,blue,259,TRUE
348,1661296822.465,4496.212614067866,8239.209981006867,1000,3.863,-1.083,0.105,140.6,blue,259,TRUE
349,1661296822.606,6421.489208064734,2954.861901016275,1000,2.776,1.278,0.208,1142.1,red,259,TRUE
350,1661296822.606,4736.6945926248845,261.0441217010093,1000,2.776,1.278,0.208,1142.1,yellow,259,TRUE
351,1661296822.606,5298.377425057403,1159.0512453664758,1000,2.776,1.278,0.208,1142.1,yellow,259,TRUE
352,1661296824.857,4103.481590468599,8014.1697907806965,1000,3.978,-1.081,0.122,124.7,blue,259,TRUE
353,1661296824.997,5756.488407744473,1739.9705191593084,1000,2.647,1.298,0.3,1125.0,red,259,TRUE
354,1661296827.263,3555.446926603708,7740.68531003835,1000,3.892,-1.117,-0.012,1124.8,blue,259,TRUE
355,1661296828.372,4788.416216006211,179.13065993836074,1000,5.211,-0.932,0.021,140.6,yellow,259,TRUE
356,1661296829.621,2955.980329726171,7366.62284161603,1000,3.913,-1.101,0.125,109.5,blue,259,TRUE
357,1661296829.715,5747.317345118658,1529.0293791792124,1000,2.557,1.325,0.304,125.1,red,259,TRUE
358,1661296831.996,1740.7849157364337,6773.146208647168,1000,3.853,-1.076,0.093,1140.3,blue,259,TRUE
359,1661296838.699,2389.8119941461027,6962.332416356394,1000,3.652,-1.226,0.0,1109.1,blue,259,TRUE
360,1661296843.09,4475.035727916075,-404.6807867790195,1000,5.203,-0.939,0.001,1156.0,yellow,259,TRUE
361,1661296845.34,2499.847870905478,7182.832474610337,1000,3.562,-1.104,0.097,109.4,blue,259,TRUE
362,1661296845.433,5725.692214072841,1490.8093409659123,1000,2.507,1.271,0.409,125.2,red,259,TRUE
363,1661296847.714,2539.9294512552538,7200.215325801769,1000,3.541,-1.101,0.1,1140.4,blue,259,TRUE
364,1661296851.01,2407.51531248683,7246.690529391726,1000,3.356,-1.289,0.045,1140.7,blue,259,TRUE
365,1661296854.276,1815.126698693569,6795.49829551175,1000,3.343,-1.309,0.046,1155.8,blue,259,TRUE
366,1661296857.588,1093.7603555471987,6478.752580841475,1000,5.796,-1.112,0.192,1140.7,blue,259,TRUE
367,1661296860.885,1627.271280315393,6922.475183929227,1000,5.713,-1.094,0.007,1157.5,blue,259,TRUE
368,1661296864.214,2197.052541968442,7203.51874504243,1000,5.381,-1.238,-0.152,1155.8,blue,259,TRUE
369,1661296870.978,2693.301854303245,7573.49213154613,1000,5.406,-1.365,0.252,125.0,blue,259,TRUE
370,1661296871.087,5313.190287157536,1528.608142964116,1000,1.32,1.44,2.002,125.0,red,259,TRUE
371,1661296873.368,3301.1503166318143,7917.284857925476,1000,5.397,-1.369,0.264,1156.3,blue,259,TRUE
372,1661296876.667,4218.76188521707,8692.465248630686,1000,5.346,-1.088,0.007,1140.5,blue,259,TRUE
373,1661296879.95,5658.305119211821,9350.524474990618,1000,5.39,-1.137,0.089,1141.9,blue,259,TRUE
374,1661296883.221,5546.614345172635,9334.138294987773,1000,5.4,-1.103,0.016,1142.0,blue,259,TRUE
375,1661296886.52,5393.000160835436,9461.035307243024,1000,5.376,-1.204,-0.04,1158.0,blue,259,TRUE
376,1661296889.835,5444.174811855873,9431.233879253414,1000,5.346,-1.152,-0.239,1126.5,blue,259,TRUE
377,1661296896.531,2725.3542849615583,7093.564607954589,1000,2.627,-1.086,-0.127,1109.1,blue,259,TRUE
378,1661296897.624,4186.121434661225,-770.5859974923119,1000,5.166,-0.946,0.017,156.5,yellow,259,TRUE
379,1661296897.892,2783.475303961717,7063.757259712642,1000,0.953,-1.091,0.12,93.8,blue,259,TRUE
380,1661296897.97,5514.594587451966,1488.3674670362886,1000,3.794,1.286,0.523,109.4,red,259,TRUE
381,1661296898.063,4179.294845935562,-844.9101284599001,1000,5.167,-0.944,0.016,78.1,yellow,259,TRUE
382,1661296898.36,3153.2198805535604,7180.160855521307,1000,0.771,-1.017,0.044,109.3,blue,259,TRUE
383,1661296898.454,5569.710450717971,1490.5187310069462,1000,3.793,1.29,0.527,124.9,red,259,TRUE
384,1661296899.797,3482.0632555362968,7157.176652601661,1000,1.15,-1.001,0.204,125.3,blue,259,TRUE
385,1661296899.922,10407.917489787715,-2438.377477430819,1000,5.169,-0.942,0.011,1126.4,red,259,TRUE
386,1661296899.922,3706.5848640198055,-1777.8278484335242,1000,5.169,-0.942,0.011,1126.4,yellow,259,TRUE
387,1661296899.922,3241.505994468875,-2716.661349664273,1000,5.169,-0.942,0.011,1126.4,yellow,259,TRUE
388,1661296901.252,3771.1879358135166,7133.391749385007,1000,1.273,-1.048,0.023,124.9,blue,259,TRUE
389,1661296901.361,8133.643325411792,-478.0355403802165,1000,3.76,1.297,0.62,126.2,red,259,TRUE
390,1661296902.661,3974.3346786278976,7084.159500809626,1000,1.294,-1.057,0.038,109.4,blue,259,TRUE
391,1661296902.755,7504.050949427295,214.03779625060702,1000,3.35,1.332,2.549,109.3,red,259,TRUE
392,1661296902.848,3191.988470878477,-2731.9473532353545,1000,5.167,-0.947,0.007,78.1,yellow,259,TRUE
393,1661296903.129,4343.384227284253,7036.746835332233,1000,1.264,-1.054,0.027,109.4,blue,259,TRUE
394,1661296903.223,7149.112765881483,648.4429049775401,1000,3.306,1.165,2.637,126.6,red,259,TRUE
395,1661296904.568,5674.170814229491,1246.6536787561013,1000,3.674,1.514,0.002,1141.9,blue,259,TRUE
396,1661296904.568,6854.132460554715,768.0643070180803,1000,3.674,1.514,0.002,1141.9,red,259,TRUE
397,1661296904.568,6657.480069180531,847.91172508596,1000,3.674,1.514,0.002,1141.9,red,259,TRUE
398,1661296906.869,3822.7698843268217,7372.012660180331,1000,3.679,-1.13,0.009,1094.7,blue,259,TRUE
399,1661296909.198,2535.5934604811146,7566.503462643261,1000,3.763,-1.061,0.094,1079.3,blue,259,TRUE
400,1661296910.261,3223.4068697305593,-2722.1724105427834,1000,5.168,-0.935,-0.001,156.3,yellow,259,TRUE
401,1661296910.621,2554.2423944899247,7531.274190929011,1000,3.613,-1.095,0.161,124.7,blue,259,TRUE
402,1661296910.745,6214.602709650162,1594.0422121866955,1000,3.125,1.467,-0.027,1126.5,red,259,TRUE
403,1661296912.075,6202.907704874984,1596.8311606308157,1000,3.117,1.452,-0.039,125.1,red,259,TRUE
404,1661296913.404,2638.0597394172714,7306.381745997347,1000,3.135,-1.106,0.029,1080.8,blue,259,TRUE
405,1661296915.704,2788.950081634114,6988.616561586018,1000,2.855,-1.16,0.037,1110.5,blue,259,TRUE
406,1661296919.004,6086.901001231557,1449.724291097558,1000,2.819,1.389,0.544,124.7,red,259,TRUE
407,1661296920.285,3976.8463413408404,4983.921898087954,1000,1.95,-1.057,0.047,109.6,blue,259,TRUE
408,1661296920.379,6066.36551870231,1434.729743622849,1000,2.815,1.432,0.617,140.6,red,259,TRUE
409,1661296921.726,6801.405095503417,12042.36853999358,1000,2.822,1.331,0.519,1110.3,blue,259,TRUE
410,1661296921.726,5871.393219013532,1341.4066088073141,1000,2.822,1.331,0.519,1110.3,red,259,TRUE
411,1661296921.726,5741.411225088134,1279.2015078501734,1000,2.822,1.331,0.519,1110.3,red,259,TRUE
412,1661296923.961,6004.218362671659,6749.47394287843,1000,2.944,-1.169,0.254,109.0,blue,259,TRUE
413,1661296924.055,5782.192533327828,1296.9825229489613,1000,3.291,1.452,-0.011,125.0,red,259,TRUE
414,1661296925.368,5857.185107469952,5209.5170457547365,1000,2.995,-1.188,0.291,109.3,blue,259,TRUE
415,1661296925.462,5820.165494983262,1284.3139486784878,1000,3.394,1.462,-0.013,140.6,red,259,TRUE
416,1661296926.76,5827.010221782801,4476.567776435149,1000,3.135,-1.11,0.244,124.9,blue,259,TRUE
417,1661296926.869,5914.474970634649,1346.6135738592486,1000,3.386,1.467,-0.017,125.3,red,259,TRUE
418,1661296928.214,5707.2069037669635,2326.6461598567153,1000,2.707,-1.114,0.055,1095.0,blue,259,TRUE
419,1661296931.515,5930.335217205201,1278.4518973011307,1000,2.808,1.4,-0.135,125.4,red,259,TRUE
420,1661296932.86,4923.764564042751,3234.0795903850503,1000,4.814,-1.136,0.031,1110.5,blue,259,TRUE
421,1661296935.098,5227.874068868933,3258.9403476047196,1000,1.358,-1.203,0.144,109.3,blue,259,TRUE
422,1661296935.192,5950.674471222086,1436.8130344940855,1000,2.939,1.53,-0.039,124.6,red,259,TRUE
423,1661296937.868,5597.321523624038,2541.6651301273746,1000,2.988,1.49,-0.069,1141.9,blue,259,TRUE
424,1661296937.868,5596.560224024511,2541.671929841838,1000,2.988,1.49,-0.069,1141.9,red,259,TRUE
425,1661296937.868,5596.825139837492,2541.6827225195125,1000,2.988,1.49,-0.069,1141.9,red,259,TRUE
426,1661296941.244,5727.9419520743895,2257.568322602256,1000,3.063,1.443,0.407,124.9,red,259,TRUE
427,1661296942.573,5914.5473558040285,2318.835438640257,1000,2.597,-1.045,0.195,109.6,blue,259,TRUE
428,1661296942.666,5746.683337300287,2078.2711098707177,1000,3.024,1.482,0.038,126.8,red,259,TRUE
429,1661296944.027,5865.646042927476,2740.9378220720723,1000,2.603,-1.002,0.205,1095.0,blue,259,TRUE
430,1661296946.342,6174.503878522938,2462.1243272282254,1000,2.53,-1.036,0.185,1096.7,blue,259,TRUE
431,1661296949.643,5855.871638406539,1969.485861046692,1000,2.56,1.349,2.233,125.0,red,259,TRUE
432,1661296950.972,6284.502568298569,2440.9666930198196,1000,1.79,-1.09,0.088,109.7,blue,259,TRUE
433,1661296951.066,5883.433516780978,1962.3697776547504,1000,2.909,1.498,-0.033,140.5,red,259,TRUE
434,1661296952.412,6236.138276651382,2494.600540569314,1000,1.776,-1.122,0.092,1108.8,blue,259,TRUE
435,1661296954.679,6171.168227333776,2516.886504811646,1000,1.832,-1.184,0.132,109.4,blue,259,TRUE
436,1661296954.772,5962.283230041539,1806.0418869048347,1000,3.293,1.434,-0.357,125.1,red,259,TRUE
437,1661296956.118,5904.016062995348,2280.000574601486,1000,1.778,-1.413,0.377,1094.8,blue,259,TRUE
438,1661296958.4,6057.476375716399,2393.8511323530693,1000,1.803,-1.185,0.167,109.3,blue,259,TRUE
439,1661296958.494,5970.5325623013005,1633.7232780954362,1000,3.375,1.352,0.233,125.0,red,259,TRUE
440,1661296959.839,6252.192730815607,2281.4264877661167,1000,1.802,-1.117,0.166,1095.1,blue,259,TRUE
441,1661296963.139,5913.040290045501,1608.5088566975955,1000,3.341,1.332,0.22,126.5,red,259,TRUE
442,1661296964.5,5606.282248287565,1630.1999060843307,1000,0.022,1.117,0.11,1126.2,blue,259,TRUE
443,1661296964.5,5880.355776983891,1623.1940068216315,1000,0.022,1.117,0.11,1126.2,red,259,TRUE
444,1661296964.5,5766.217959528299,1638.6291975344966,1000,0.022,1.117,0.11,1126.2,red,259,TRUE
445,1661296966.754,5868.847684356191,2016.89044021269,1000,1.757,-1.155,0.124,109.4,blue,259,TRUE
446,1661296966.848,5693.7043310815025,1608.5269433939584,1000,3.327,1.342,0.075,124.8,red,259,TRUE
447,1661296968.196,5221.316227242282,1983.3463013591056,1000,1.868,-1.321,0.25,1110.7,blue,259,TRUE
448,1661296968.196,5552.427429499096,1671.9190891805258,1000,1.868,-1.321,0.25,1110.7,red,259,TRUE
449,1661296968.196,5481.564464943213,1751.1801057730152,1000,1.868,-1.321,0.25,1110.7,red,259,TRUE
450,1661296970.527,5471.0488288629385,1767.0209430459927,1000,3.123,1.338,0.213,124.9,red,259,TRUE
451,1661296971.856,5508.848002966691,2085.757636488268,1000,3.488,-1.131,0.238,1095.2,blue,259,TRUE
452,1661296974.169,5563.338450148078,2042.1129123930305,1000,3.01,-1.101,0.195,109.7,blue,259,TRUE
453,1661296974.263,5486.979386740681,1705.6265978573117,1000,3.06,1.343,0.262,140.5,red,259,TRUE
454,1661296975.624,5584.241222945726,2134.2885489341443,1000,2.29,-1.083,0.207,1110.4,blue,259,TRUE
455,1661296978.909,5515.912784810799,1684.403073347148,1000,3.372,1.458,0.023,125.3,red,259,TRUE
456,1661296980.268,5434.004469957966,2062.0808396526304,1000,2.846,-1.109,0.098,1095.0,blue,259,TRUE
457,1661296982.567,5411.5378462556855,2088.734487608627,1000,2.751,-1.152,0.073,109.7,blue,259,TRUE
458,1661296982.661,5566.621062250565,1693.8135878596586,1000,3.322,1.443,-0.164,124.9,red,259,TRUE
459,1661296983.975,5415.594653103818,2088.150300468662,1000,2.68,-1.142,-0.01,109.3,blue,259,TRUE
460,1661296984.068,5659.829544920062,1613.5778393794355,1000,3.243,1.382,-0.015,125.1,red,259,TRUE
461,1661296985.384,5408.9922186841795,2084.6988472741514,1000,2.716,-1.14,0.015,109.3,blue,259,TRUE
462,1661296985.477,5775.704659995993,1587.7264853216982,1000,3.511,1.42,-0.168,109.3,red,259,TRUE
463,1661296985.571,3291.904200525855,-2742.499340645283,1000,5.163,-0.939,0.028,93.8,yellow,259,TRUE
464,1661296985.868,5404.685934078266,2054.6085633356392,1000,2.715,-1.14,0.07,109.4,blue,259,TRUE
465,1661296985.962,5877.057338179972,1527.0393648545714,1000,3.118,1.368,1.688,124.9,red,259,TRUE
466,1661296987.275,5435.2945974920685,2071.965916246359,1000,2.441,-1.106,-0.022,109.6,blue,259,TRUE
467,1661296987.369,6009.674532460522,1553.3523332872144,1000,2.842,1.292,1.448,109.4,red,259,TRUE
468,1661296987.463,3363.616821195563,-2722.828324756955,1000,5.166,-0.929,0.034,93.7,yellow,259,TRUE
469,1661296987.76,5472.353565926266,2099.003734167065,1000,2.409,-1.103,-0.033,109.4,blue,259,TRUE
470,1661296987.853,6131.759177374884,1532.7732865657779,1000,2.88,1.282,1.473,109.4,red,259,TRUE
471,1661296987.947,3274.4983503739027,-2754.3279365337307,1000,5.164,-0.929,0.029,78.0,yellow,259,TRUE
472,1661296990.181,6138.536658977032,1515.5643231510712,1000,3.023,1.389,0.357,125.0,red,259,TRUE
473,1661296991.495,5490.612317883584,2097.773717427615,1000,2.721,-1.162,0.076,126.5,blue,259,TRUE
474,1661296991.857,5503.19313823758,2099.48162927783,1000,2.866,-1.157,0.109,109.7,blue,259,TRUE
475,1661296991.951,5498.37278269487,1540.942323433823,1000,2.857,1.392,0.179,125.0,red,259,TRUE
476,1661296993.278,5509.960819077033,2074.4001491317395,1000,2.97,-1.145,0.083,109.7,blue,259,TRUE
477,1661296993.372,5505.672739967113,1538.068297441647,1000,2.89,1.385,0.107,125.0,red,259,TRUE
478,1661296994.7,5519.027180700984,2086.085133792285,1000,2.973,-1.124,0.075,109.7,blue,259,TRUE
479,1661296994.794,5511.609816713183,1556.3923692765313,1000,2.901,1.389,0.072,109.7,red,259,TRUE
480,1661296994.888,3326.8638216375507,-2740.2434686277807,1000,5.169,-0.906,0.017,93.7,yellow,259,TRUE
481,1661296995.169,5502.713563783648,2067.3442917340362,1000,2.971,-1.131,0.077,124.9,blue,259,TRUE
482,1661296995.278,5518.416491844276,1565.0226286009538,1000,2.899,1.388,0.068,124.7,red,259,TRUE
483,1661296995.387,3298.5632844073652,-2734.3235798067403,1000,5.174,-0.905,0.023,94.1,yellow,259,TRUE
484,1661296995.669,5468.447158618768,2051.849984505089,1000,2.993,-1.136,0.085,125.0,blue,259,TRUE
485,1661296995.778,5522.638763796962,1557.0077188697164,1000,2.899,1.389,0.068,125.3,red,259,TRUE
486,1661296997.109,5479.591053301956,1988.665435322316,1000,3.011,-1.069,0.084,1109.1,blue,259,TRUE
487,1661296999.407,5573.62382099897,1799.3814036896722,1000,3.156,-1.116,0.085,109.3,blue,259,TRUE
488,1661296999.5,5525.459950366597,1563.0861765068573,1000,2.901,1.373,0.034,109.7,red,259,TRUE
489,1661296999.594,3167.8355896516755,-2756.2203925842136,1000,5.172,-0.916,0.026,93.7,yellow,259,TRUE
490,1661296999.891,5519.078837286935,1950.0165183093097,1000,3.286,-1.103,0.046,109.3,blue,259,TRUE
491,1661296999.985,5540.405788924789,1563.2365102959236,1000,2.897,1.373,0.026,109.3,red,259,TRUE
492,1661297000.079,3177.483966147219,-2752.2217927175575,1000,5.173,-0.916,0.026,93.7,yellow,259,TRUE
493,1661297000.391,5619.054685349249,2180.104415862733,1000,3.459,-1.073,0.045,109.4,blue,259,TRUE
494,1661297000.485,5553.232247251949,1573.998318876322,1000,2.897,1.371,0.021,109.3,red,259,TRUE
495,1661297000.578,3166.7222341371903,-2729.7867706440747,1000,5.169,-0.925,0.021,156.4,yellow,259,TRUE
496,1661297001.83,5627.577828792147,2212.6884562126183,1000,3.311,-1.068,0.007,109.4,blue,259,TRUE
497,1661297001.923,5556.507148602815,1580.8855722221097,1000,2.895,1.382,0.011,125.0,red,259,TRUE
498,1661297005.408,3192.4671252585013,-2499.866532016419,1000,5.185,-0.924,0.045,1141.8,red,259,TRUE
499,1661297005.408,3171.0387330076046,-2691.5515528281817,1000,5.185,-0.924,0.045,1141.8,yellow,259,TRUE
500,1661297005.408,3148.4616171584444,-2651.4999609030383,1000,5.185,-0.924,0.045,1141.8,yellow,259,TRUE
501,1661297008.648,5649.7239709715495,2251.2401294689494,1000,3.251,-1.068,-0.015,140.6,blue,259,TRUE
502,1661297008.789,5695.390739742599,1782.2724567357775,1000,2.856,1.38,0.011,1095.2,red,259,TRUE
503,1661297012.012,5718.8883924147995,2269.785428813284,1000,3.25,-1.08,-0.015,1156.0,blue,259,TRUE
504,1661297016.437,6008.202691627016,1723.4829549587637,1000,2.265,1.431,0.853,1157.6,red,259,TRUE
505,1661297019.738,5277.643865783827,1899.912022354528,1000,1.999,-1.146,0.072,124.9,blue,259,TRUE
506,1661297019.941,5581.432995955308,1496.4419959742975,1000,0.013,31.276,33.073,1095.1,red,259,TRUE
507,1661297019.941,4913.894003431543,-306.04105957468147,1000,0.013,31.276,33.073,1095.1,green,259,TRUE
508,1661297019.941,5025.160608854679,-5.621565025409343,1000,0.013,31.276,33.073,1095.1,green,259,TRUE
509,1661297021.208,4887.701175581663,1434.1793601142392,1000,2.212,-1.09,0.143,109.3,blue,259,TRUE
510,1661297021.302,5429.50759830979,1423.4587181860086,1000,3.382,1.407,-0.325,109.3,red,259,TRUE
511,1661297021.395,1327.25655081891,-392.4704657324294,1000,5.882,-1.37,2.854,125.1,yellow,259,TRUE
512,1661297023.618,4284.433548493935,911.7753486390092,1000,3.491,-1.06,0.197,109.4,blue,259,TRUE
513,1661297023.712,5396.997148987102,1405.7890032996522,1000,3.374,1.484,-0.071,124.9,red,259,TRUE
514,1661297023.837,2078.334651998189,183.44212620081927,1000,5.108,-1.454,3.137,1079.4,yellow,259,TRUE
515,1661297025.103,3718.2008581291607,499.48227480690997,1000,3.632,-1.072,0.241,109.7,blue,259,TRUE
516,1661297025.197,5427.566880618015,1466.151869810931,1000,2.59,1.331,2.895,109.7,red,259,TRUE
517,1661297025.291,2076.731109491284,322.2747418620658,1000,6.099,-1.493,3.13,109.3,yellow,259,TRUE
518,1661297025.385,4721.524505580802,389.301691717541,1000,4.235,-1.428,1.165,109.3,green,259,TRUE
519,1661297025.682,3174.7655679853942,104.80985410427614,1000,3.696,-1.077,0.245,109.3,blue,259,TRUE
520,1661297025.775,5415.029287136443,1478.809672643146,1000,2.253,1.169,2.527,109.4,red,259,TRUE
521,1661297025.869,2053.4751959699997,460.63316718318555,1000,5.937,-1.467,3.121,110.9,yellow,259,TRUE
522,1661297025.964,4449.340563768937,826.9283905787761,1000,4.179,-1.48,3.052,109.3,green,259,TRUE
523,1661297027.247,5429.09931900568,1524.4366015594194,1000,2.514,0.965,2.916,110.9,red,259,TRUE
524,1661297027.342,2131.330958163553,629.5171530793897,1000,0.457,-1.486,-3.072,125.0,yellow,259,TRUE
525,1661297027.467,1448.278612551579,624.7803754365336,1000,0.494,-1.428,0.91,1079.5,green,259,TRUE
526,1661297028.609,2701.7161272444023,-320.0312810493366,1000,1.75,-1.098,-0.02,126.5,blue,259,TRUE
527,1661297028.736,5449.297869553974,1785.4488849715144,1000,2.373,1.222,2.499,1109.0,red,259,TRUE
528,1661297029.829,1783.071055737943,725.3514399738737,1000,0.685,-1.429,0.957,109.4,green,259,TRUE
529,1661297030.049,2616.3271539956067,-200.74377604490596,1000,0.314,-1.066,0.072,109.3,blue,259,TRUE
530,1661297030.143,5499.389272290833,1764.8509297890723,1000,2.611,1.541,3.12,109.5,red,259,TRUE
531,1661297030.237,2148.7461786497734,735.6308325661469,1000,6.104,-1.436,-3.129,109.4,yellow,259,TRUE
532,1661297030.33,1914.1350417169979,786.3644559123869,1000,0.632,-1.419,0.984,109.5,green,259,TRUE
533,1661297030.612,2553.0545973614717,-65.64869156681196,1000,6.23,-1.079,0.0,109.0,blue,259,TRUE
534,1661297030.705,5457.271120599568,1824.13438719921,1000,2.533,1.512,3.118,109.4,red,259,TRUE
535,1661297030.799,2242.237757994452,875.5555340527344,1000,6.261,-1.428,-2.64,124.9,yellow,259,TRUE
536,1661297030.924,2041.4930614110615,592.5516798209268,1000,0.696,-1.384,0.94,1096.6,green,259,TRUE
537,1661297032.099,2597.79000899775,36.790048751650204,1000,0.336,-1.078,0.124,125.0,blue,259,TRUE
538,1661297032.224,3637.476794529989,1261.7536752726633,1000,0.583,-1.445,-2.302,1110.6,red,259,TRUE
539,1661297032.224,2502.096003936206,1055.2232354946725,1000,0.583,-1.445,-2.302,1110.6,yellow,259,TRUE
540,1661297032.224,2762.4974525813864,1188.5898803360649,1000,0.583,-1.445,-2.302,1110.6,yellow,259,TRUE
541,1661297033.319,2646.950247106873,1238.5822521083333,1000,0.496,-1.392,0.774,109.4,green,259,TRUE
542,1661297033.537,2615.517600193403,94.13947181343993,1000,0.61,-1.074,0.193,125.0,blue,259,TRUE
543,1661297033.647,4531.159671875532,1455.5062127448434,1000,2.551,1.431,0.48,109.4,red,259,TRUE
544,1661297033.74,3228.062111006517,1246.8971823648276,1000,0.391,-1.425,3.079,109.6,yellow,259,TRUE
545,1661297033.834,2974.1591403009247,1574.680100556462,1000,0.575,-1.367,0.846,109.3,green,259,TRUE
546,1661297034.147,2382.0474714755524,262.79315261000113,1000,0.601,-1.081,0.199,1109.1,blue,259,TRUE
547,1661297035.24,3615.6325006850334,1331.479856002632,1000,6.063,-1.414,2.915,109.4,yellow,259,TRUE
548,1661297035.334,3293.411572593894,1696.5817505400755,1000,1.566,-1.199,1.607,125.0,green,259,TRUE
549,1661297036.538,2353.105162605243,229.8673024036835,1000,0.596,-1.081,0.194,110.9,blue,259,TRUE
550,1661297036.634,4895.86855860424,1538.8231314244006,1000,3.097,1.38,-0.061,125.0,red,259,TRUE
551,1661297036.758,3347.7796713711405,1739.3170644334155,1000,2.095,-1.414,1.032,110.6,green,259,TRUE
552,1661297036.979,2385.9706296466934,108.13512180757444,1000,0.585,-1.081,0.19,93.5,blue,259,TRUE
553,1661297037.057,5062.125943486164,1567.4461898841469,1000,3.078,1.421,-0.057,109.4,red,259,TRUE
554,1661297037.15,4774.436206349054,1721.857819996311,1000,6.054,-1.42,2.995,124.7,yellow,259,TRUE
555,1661297037.463,2424.05250927797,157.37992283099555,1000,0.568,-1.076,0.18,124.7,blue,259,TRUE
556,1661297037.572,5157.001571320901,1562.005429168346,1000,3.102,1.428,-0.065,125.0,red,259,TRUE
557,1661297037.681,4704.04175571915,1759.1841925101196,1000,6.084,-1.41,2.882,109.7,yellow,259,TRUE
558,1661297037.775,4681.808645424652,1291.9268340140425,1000,1.356,-1.269,1.142,109.0,green,259,TRUE
559,1661297037.994,2464.444974942382,194.21900527803462,1000,0.554,-1.072,0.177,109.3,blue,259,TRUE
560,1661297038.087,5261.625229951752,1531.3298444285676,1000,3.094,1.444,-0.173,110.8,red,259,TRUE
561,1661297038.181,4671.83546982905,1818.4303936709991,1000,6.123,-1.404,2.783,110.7,yellow,259,TRUE
562,1661297038.277,4675.3554587564395,1109.3543097617403,1000,0.846,-1.361,0.949,124.6,green,259,TRUE
563,1661297039.465,2528.9777024166947,144.83934620030672,1000,1.226,-0.995,0.121,110.5,blue,259,TRUE
564,1661297039.56,5583.920826888597,1573.1984137610632,1000,3.11,1.414,-0.197,125.0,red,259,TRUE
565,1661297042.923,5645.3449962307195,1479.0711723667537,1000,2.586,1.42,-0.227,1142.5,red,259,TRUE
566,1661297044.065,4973.183023782422,1149.4548424016364,1000,5.967,-1.374,0.9,1094.7,green,259,TRUE
567,1661297046.161,2735.8777217646966,725.8630082103664,1000,6.267,-1.137,-0.097,1142.4,blue,259,TRUE
568,1661297047.288,4687.167811646561,1735.0990198589016,1000,0.118,-1.428,-2.808,109.4,yellow,259,TRUE
569,1661297047.381,4938.435577637861,1119.1655569495279,1000,6.055,-1.361,0.841,125.0,green,259,TRUE
570,1661297048.57,3259.7750065278756,1091.2052193397233,1000,2.099,-1.072,0.107,111.3,blue,259,TRUE
571,1661297048.666,5753.37208209166,1386.737853188358,1000,2.52,1.437,0.133,124.6,red,259,TRUE
572,1661297048.759,4522.293114258775,1787.41116735869,1000,5.826,-1.36,-2.879,109.4,yellow,259,TRUE
573,1661297048.853,4965.956863292174,1097.2374576212144,1000,6.117,-1.386,1.041,109.2,green,259,TRUE
574,1661297050.074,3815.781874432412,1431.302193714436,1000,2.594,-1.15,0.219,1126.8,blue,259,TRUE
575,1661297051.185,4397.505156116747,1928.3569552106076,1000,0.492,-1.472,-3.049,125.0,yellow,259,TRUE
576,1661297051.31,5046.113821195008,1119.7588498335786,1000,6.258,-1.395,1.149,1110.3,green,259,TRUE
577,1661297052.468,4312.591018322851,1743.547957943274,1000,2.844,-1.151,0.183,109.4,blue,259,TRUE
578,1661297052.561,6039.159204503322,1356.6410847426064,1000,2.74,1.355,1.606,109.3,red,259,TRUE
579,1661297052.655,4270.083315247196,2099.049742077739,1000,0.435,-1.472,-3.071,126.5,yellow,259,TRUE
580,1661297052.764,5022.363028833835,1149.6187667379259,1000,6.185,-1.38,0.984,110.9,green,259,TRUE
581,1661297053.987,4338.526999826506,2219.7625801561812,1000,3.004,-1.182,0.091,1126.1,blue,259,TRUE
582,1661297055.098,4184.7900659076595,2254.544252661625,1000,0.311,-1.418,-2.679,109.3,yellow,259,TRUE
583,1661297055.192,4907.728806148355,1133.2638576029883,1000,5.521,-1.46,0.077,126.4,green,259,TRUE
584,1661297057.543,3522.5967349712796,3050.628342501643,1000,1.939,-1.412,-2.295,1127.8,yellow,259,TRUE
585,1661297059.795,4820.065029011613,2547.4097213377986,1000,3.427,-1.28,1.136,1126.3,blue,259,TRUE
586,1661297060.906,3267.5639605500796,2672.573404882398,1000,1.655,-1.457,-3.072,124.9,yellow,259,TRUE
587,1661297061.015,4912.782133275602,1231.8280394582077,1000,0.549,-1.361,0.79,125.0,green,259,TRUE
588,1661297063.378,3128.522520640683,2200.6109287835866,1000,1.669,-1.457,-3.106,1157.6,yellow,259,TRUE
589,1661297065.615,5135.418548365063,2271.056602343208,1000,3.414,-1.211,0.46,109.7,blue,259,TRUE
590,1661297065.709,6300.6523529135375,1311.2623696637845,1000,2.493,1.401,0.076,124.9,red,259,TRUE
591,1661297065.818,2957.7875358581055,1693.1269691192972,1000,1.391,-1.475,-3.133,109.7,yellow,259,TRUE
592,1661297065.912,5047.752500515631,1245.2783429261085,1000,0.304,-1.31,1.108,109.4,green,259,TRUE
593,1661297066.195,5174.513272342274,2227.0813770195055,1000,3.088,-1.164,0.052,109.4,blue,259,TRUE
594,1661297066.289,6414.302262507133,1259.559439767885,1000,2.465,1.407,0.137,124.6,red,259,TRUE
595,1661297066.398,2753.741885519936,1184.3884056683562,1000,1.425,-1.481,-3.135,109.3,yellow,259,TRUE
596,1661297066.492,5216.057692555052,1275.879495516532,1000,0.244,-1.309,1.086,109.4,green,259,TRUE
597,1661297066.773,5141.138443030247,2246.697504585262,1000,3.289,-1.285,0.632,126.6,blue,259,TRUE
598,1661297066.884,6616.4949130259265,1224.1705350154682,1000,2.527,1.429,0.132,109.3,red,259,TRUE
599,1661297066.978,2533.036509534431,754.7179454460351,1000,0.381,-1.422,-2.641,109.3,yellow,259,TRUE
600,1661297067.072,5380.164244756882,1350.3746768083681,1000,0.338,-1.29,0.95,109.4,green,259,TRUE
601,1661297067.368,5144.122914382158,2225.659618651252,1000,3.356,-1.292,0.865,109.0,blue,259,TRUE
602,1661297067.462,6792.363037611107,1235.3476995002095,1000,2.544,1.454,0.019,109.3,red,259,TRUE
