,timestamp,x,y,z,yaw,roll,pitch,latency,student,session,success
0,1661300422.102,1585.8415154760917,-164.46227593907543,1000,1.401,1.26,0.995,1141.7,red,260,TRUE
1,1661300425.399,2654.3590401689244,3467.948627091749,1000,4.012,-1.48,3.099,140.6,blue,260,TRUE
2,1661300425.603,2164.9314693838996,2991.9247365841065,1000,1.485,1.228,0.743,1062.3,red,260,TRUE
3,1661300430.211,2807.667764946098,3652.2168998977754,1000,4.057,-1.499,3.102,1171.9,blue,260,TRUE
4,1661300437.412,2359.6291891034466,3027.655746209663,1000,4.104,-1.479,3.089,1156.0,blue,260,TRUE
5,1661300438.553,3270.0629346179326,-2202.814613021789,1000,4.706,-0.939,-0.413,156.3,yellow,260,TRUE
6,1661300439.803,2532.803562154577,3275.544721782124,1000,4.111,-1.475,3.087,109.3,blue,260,TRUE
7,1661300439.896,2287.023819853305,2870.39676604795,1000,1.285,1.318,0.637,125.2,red,260,TRUE
8,1661300442.161,2379.184008278208,3790.374187653375,1000,4.123,-1.479,3.086,1155.9,blue,260,TRUE
9,1661300448.85,2686.650230651566,3478.202381282846,1000,4.102,-1.473,3.091,1108.9,blue,260,TRUE
10,1661300452.13,1410.7230876947503,1671.3048786173636,1000,4.106,-1.474,3.091,1124.7,blue,260,TRUE
11,1661300453.24,3291.847581928834,-2294.4552336916863,1000,4.633,-0.961,-0.439,155.9,yellow,260,TRUE
12,1661300455.52,1846.2060122865416,2285.2376940875965,1000,4.114,-1.469,3.09,125.0,blue,260,TRUE
13,1661300455.629,2254.474328054306,2720.47510636541,1000,1.253,1.323,0.97,140.8,red,260,TRUE
14,1661300459.083,2178.63352255634,2564.90564352247,1000,1.198,1.314,0.99,1171.8,red,260,TRUE
15,1661300462.426,2687.188910681601,3419.6633777205307,1000,4.112,-1.466,3.095,1124.7,blue,260,TRUE
16,1661300465.832,2255.679773985799,2611.337341126638,1000,1.691,1.419,0.429,140.6,red,260,TRUE
17,1661300468.222,2349.20936523663,2976.629521174041,1000,1.588,1.268,0.781,124.9,red,260,TRUE
18,1661300469.518,2661.4925149273145,4930.421613746092,1000,4.68,-1.515,3.122,109.4,blue,260,TRUE
19,1661300469.612,2384.493917443555,3519.4888987440513,1000,1.58,1.333,0.579,125.0,red,260,TRUE
20,1661300470.908,2645.037458539992,5457.60773192157,1000,4.358,-1.393,2.618,109.3,blue,260,TRUE
21,1661300471.002,2406.0073914491954,4247.022262632077,1000,1.256,1.317,0.865,109.3,red,260,TRUE
22,1661300472.283,2511.266250382002,5966.0673895534765,1000,4.154,-1.44,2.639,109.7,blue,260,TRUE
23,1661300472.377,2415.107658859431,4985.710016542272,1000,1.018,1.312,0.875,125.1,red,260,TRUE
24,1661300472.486,3348.0567257295806,-2434.212192876313,1000,4.608,-0.909,-0.437,78.1,yellow,260,TRUE
25,1661300472.705,2401.5952122327285,7693.413066923722,1000,4.132,-1.48,3.13,1109.2,blue,260,TRUE
26,1661300474.985,2324.2198995764093,7375.792649484905,1000,3.346,-1.364,-2.814,125.0,blue,260,TRUE
27,1661300475.11,2506.1768633879237,6519.578174780831,1000,2.715,1.341,1.26,1126.5,red,260,TRUE
28,1661300476.394,2333.2707023356793,7165.4141233600385,1000,3.452,-1.39,-2.836,125.0,blue,260,TRUE
29,1661300476.504,2661.1897683763113,6468.510737237009,1000,3.424,1.343,1.104,124.7,red,260,TRUE
30,1661300477.8,2332.456673843297,7174.025550690089,1000,3.507,-1.392,-2.883,125.1,blue,260,TRUE
31,1661300477.909,2698.6970590097285,6459.686628969154,1000,3.386,1.332,0.997,125.0,red,260,TRUE
32,1661300479.176,2414.1142017385246,7188.830622580916,1000,2.769,-1.203,-3.086,109.3,blue,260,TRUE
33,1661300479.27,2677.7120788041148,6506.447245984034,1000,2.904,1.341,1.08,125.2,red,260,TRUE
34,1661300480.585,2843.322833827371,6210.196320182541,1000,2.462,-1.441,-2.966,1095.2,blue,260,TRUE
35,1661300482.883,11110.275288471981,8073.296020475271,1000,1.004,1.229,0.833,1110.5,blue,260,TRUE
36,1661300482.883,2589.213332715341,6765.43218625709,1000,1.004,1.229,0.833,1110.5,red,260,TRUE
37,1661300482.883,2530.1186312614295,6937.892034740577,1000,1.004,1.229,0.833,1110.5,red,260,TRUE
38,1661300485.153,7203.535425823663,6881.476527591285,1000,1.295,-1.283,-2.746,109.3,blue,260,TRUE
39,1661300485.246,2540.1942099609532,7083.504113767008,1000,0.884,1.239,0.834,124.9,red,260,TRUE
40,1661300486.56,3676.945694878845,3071.0952420335802,1000,1.951,-1.448,3.055,1079.3,blue,260,TRUE
41,1661300487.624,3350.7595222738382,-2570.0196633418705,1000,4.628,-0.887,-0.38,125.0,yellow,260,TRUE
42,1661300487.717,2838.7708282913486,-2686.040745430311,1000,5.109,-0.626,0.255,125.0,green,260,TRUE
43,1661300487.983,3683.976287168981,2747.048022546699,1000,1.429,-1.286,2.962,124.7,blue,260,TRUE
44,1661300488.092,2512.1159620821127,7254.81909703173,1000,0.769,1.239,0.838,124.7,red,260,TRUE
45,1661300488.202,4013.04613947508,-2625.912219239976,1000,4.641,-0.912,-0.37,110.6,yellow,260,TRUE
46,1661300488.28,2896.5313039350813,-2806.8537472918147,1000,5.105,-0.62,0.248,111.0,green,260,TRUE
47,1661300489.515,2574.4956394930646,7486.028181074049,1000,0.767,1.241,0.842,1142.0,red,260,TRUE
48,1661300492.832,5378.857807617805,857.1581125858756,1000,6.202,-1.228,2.98,1112.2,blue,260,TRUE
49,1661300492.832,3035.0356865274675,6521.365040586866,1000,6.202,-1.228,2.98,1112.2,red,260,TRUE
50,1661300492.832,3558.9986887384875,5363.865739669401,1000,6.202,-1.228,2.98,1112.2,red,260,TRUE
51,1661300493.928,4011.0828866429215,-2613.0615961167646,1000,4.646,-0.843,-0.372,125.3,yellow,260,TRUE
52,1661300496.181,5539.302502184181,1089.042115203234,1000,0.012,-1.028,2.836,109.4,blue,260,TRUE
53,1661300496.275,3604.259749724976,5291.720974896851,1000,0.778,1.228,0.815,124.9,red,260,TRUE
54,1661300496.399,3555.6220313290605,-2595.799019850929,1000,4.632,-0.964,-0.489,1079.4,yellow,260,TRUE
55,1661300497.62,5641.569836324437,1191.801100994914,1000,0.014,-1.037,2.838,124.6,blue,260,TRUE
56,1661300497.744,2412.3794756985203,7280.26328213616,1000,0.808,1.213,0.768,1096.8,red,260,TRUE
57,1661300500.97,2512.4503932306434,7316.41244149173,1000,0.02,1.117,0.778,1110.6,blue,260,TRUE
58,1661300500.97,2462.88799161545,7298.757622244513,1000,0.02,1.117,0.778,1110.6,red,260,TRUE
59,1661300500.97,2479.5128155866914,7304.713175204935,1000,0.02,1.117,0.778,1110.6,red,260,TRUE
60,1661300502.065,3491.433885709047,-2591.491816032758,1000,4.572,-0.956,-0.53,125.0,yellow,260,TRUE
61,1661300504.331,4375.581831967826,4253.198523752352,1000,0.019,-1.055,2.821,125.0,blue,260,TRUE
62,1661300504.472,4949.252673452905,-3176.66204537751,1000,0.039,-1.117,-0.485,1127.9,red,260,TRUE
63,1661300504.472,3366.0355818434978,-2546.237404853527,1000,0.039,-1.117,-0.485,1127.9,yellow,260,TRUE
64,1661300504.472,3303.132650426705,-2523.6670916319986,1000,0.039,-1.117,-0.485,1127.9,yellow,260,TRUE
65,1661300505.568,3083.1449030099684,-2776.269829207257,1000,5.116,-0.554,0.262,109.4,green,260,TRUE
66,1661300505.818,5009.282952058195,3303.3928857465166,1000,6.232,-1.08,2.85,109.2,blue,260,TRUE
67,1661300505.912,3779.4404150803903,1932.9460063187373,1000,0.792,1.218,0.772,110.6,red,260,TRUE
68,1661300506.006,3314.4840220039086,-2530.836638655155,1000,4.576,-0.908,-0.467,142.2,yellow,260,TRUE
69,1661300506.117,3193.175098187058,-2765.3460200904174,1000,5.117,-0.552,0.261,140.3,green,260,TRUE
70,1661300506.335,5302.472714861029,2767.2006843419763,1000,6.262,-1.074,2.848,109.3,blue,260,TRUE
71,1661300506.429,3318.9124559153183,3688.787174702298,1000,0.788,1.216,0.77,109.4,red,260,TRUE
72,1661300506.523,3303.779148153701,-2541.7201097422912,1000,4.579,-0.903,-0.454,124.9,yellow,260,TRUE
73,1661300506.632,3223.7900524090755,-2756.45428368711,1000,5.116,-0.552,0.261,124.7,green,260,TRUE
74,1661300506.866,3087.3641971512966,4575.682654357093,1000,0.782,1.213,0.766,124.9,red,260,TRUE
75,1661300506.976,3259.213258608938,-2547.0994184794636,1000,4.584,-0.912,-0.459,124.9,yellow,260,TRUE
76,1661300509.244,5820.677318542434,1037.9084127141464,1000,0.079,-1.025,2.818,124.9,blue,260,TRUE
77,1661300509.369,2048.080102106658,7223.463266833323,1000,0.798,1.212,0.754,1095.2,red,260,TRUE
78,1661300509.369,3020.743495969012,-924.5133685689166,1000,0.798,1.212,0.754,1095.2,yellow,260,TRUE
79,1661300509.369,2842.939037061611,688.8968914197307,1000,0.798,1.212,0.754,1095.2,yellow,260,TRUE
80,1661300510.448,3248.306618709337,-2773.711446528157,1000,5.112,-0.562,0.263,94.9,green,260,TRUE
81,1661300510.764,5972.902636264591,988.0734145412166,1000,0.075,-0.99,2.832,109.3,blue,260,TRUE
82,1661300510.857,2185.740272177696,7312.023790004305,1000,0.795,1.218,0.771,124.9,red,260,TRUE
83,1661300510.966,2980.238356064631,664.1238657713626,1000,4.881,-0.923,-0.206,109.7,yellow,260,TRUE
84,1661300511.061,3337.3821344884295,-2797.7542261940835,1000,5.111,-0.556,0.263,109.2,green,260,TRUE
85,1661300511.326,5916.400306005933,1094.9312735014585,1000,0.068,-0.994,2.836,124.9,blue,260,TRUE
86,1661300511.499,2948.8600095267902,7773.412078355591,1000,0.796,1.218,0.767,1062.2,red,260,TRUE
87,1661300511.499,630.6591460318366,-2736.247241386775,1000,0.796,1.218,0.767,1140.3,yellow,260,TRUE
88,1661300516.973,5752.8723665262405,1045.7722795512818,1000,0.098,-1.031,2.813,1156.1,blue,260,TRUE
89,1661300518.129,3416.887437900766,-2465.2562667928487,1000,4.823,-0.928,-0.435,1094.6,yellow,260,TRUE
90,1661300520.334,5822.451097933005,1036.3915506438002,1000,0.159,-1.101,2.729,1126.5,blue,260,TRUE
91,1661300521.445,3511.142095780336,-2483.7708068397487,1000,4.883,-1.174,-0.605,125.0,yellow,260,TRUE
92,1661300523.726,6326.699875647439,1093.972054270997,1000,0.135,-1.081,2.781,1126.5,blue,260,TRUE
93,1661300524.852,3604.3272521444187,-2529.0919894303674,1000,4.854,-1.163,-0.626,1079.4,yellow,260,TRUE
94,1661300527.042,6184.89334908002,1061.1102495739303,1000,0.103,-1.157,2.741,1126.3,blue,260,TRUE
95,1661300528.153,3597.336425938928,-2530.120554607688,1000,4.83,-1.157,-0.683,124.9,yellow,260,TRUE
96,1661300533.798,6330.2326184695485,993.1981007032773,1000,0.129,-1.065,2.789,1143.4,blue,260,TRUE
97,1661300534.941,3868.0883570328606,-2744.416352963575,1000,4.835,-0.82,-0.291,1126.4,yellow,260,TRUE
98,1661300537.145,6337.712206275825,1045.4865023977493,1000,0.092,-1.093,2.803,125.0,blue,260,TRUE
99,1661300537.255,3416.0552793738134,7361.00941335047,1000,3.653,1.3,0.934,126.2,red,260,TRUE
100,1661300537.381,3175.877429619952,-2626.2419180997094,1000,5.251,-0.554,0.142,109.7,green,260,TRUE
101,1661300539.618,3743.9788902563196,7145.074525890445,1000,3.663,1.299,0.92,1126.4,red,260,TRUE
102,1661300540.729,3134.8702660008717,-2603.8996715100034,1000,5.249,-0.54,0.141,124.9,green,260,TRUE
103,1661300541.934,6576.04221939866,1214.5961365704684,1000,5.612,-1.222,-3.094,109.4,blue,260,TRUE
104,1661300542.027,3849.1887185689875,7066.182507321885,1000,3.665,1.293,0.873,124.6,red,260,TRUE
105,1661300542.136,4140.826685783118,-2622.9399222325824,1000,4.868,-0.956,-0.359,109.7,yellow,260,TRUE
106,1661300542.23,3055.2127790956824,-2612.025184501361,1000,5.251,-0.517,0.151,109.6,green,260,TRUE
107,1661300543.466,6793.957850981045,1179.5874009465526,1000,5.63,-1.178,-2.969,1143.5,blue,260,TRUE
108,1661300547.894,3762.190658514475,6984.486653685306,1000,3.663,1.299,0.884,1143.4,red,260,TRUE
109,1661300549.006,2965.5149036514435,-2570.243199686631,1000,5.257,-0.55,0.16,171.8,green,260,TRUE
110,1661300550.303,6197.290055460614,1164.8766831053335,1000,5.479,-1.224,-3.085,1126.3,blue,260,TRUE
111,1661300551.414,3663.9908096600175,-2704.309843072231,1000,4.652,-0.936,-0.336,109.4,yellow,260,TRUE
112,1661300551.492,2874.5703247623655,-2512.977012036728,1000,5.256,-0.538,0.158,109.4,green,260,TRUE
113,1661300552.712,6361.303725962982,1291.5929762734952,1000,5.265,-1.288,2.965,1155.7,blue,260,TRUE
114,1661300554.871,2795.8539198646536,-2458.500974692439,1000,5.258,-0.53,0.167,1141.9,green,260,TRUE
115,1661300557.014,5841.5356083767065,1659.363666001831,1000,4.636,-1.324,-2.861,1141.7,blue,260,TRUE
116,1661300558.155,3706.3853161917664,-2613.941661078246,1000,4.691,-0.854,-0.273,1098.1,yellow,260,TRUE
117,1661300560.331,5310.363865941913,2155.371781650006,1000,4.796,-1.475,3.124,109.3,blue,260,TRUE
118,1661300560.425,3794.2583918679325,6922.679198922317,1000,3.647,1.296,0.889,126.1,red,260,TRUE
119,1661300560.551,1547.5403066820097,-1094.5977882050315,1000,4.541,-0.977,-0.622,1093.8,yellow,260,TRUE
120,1661300563.883,2826.0770724631143,-1924.258128423058,1000,4.672,-0.949,-0.356,1159.0,yellow,260,TRUE
121,1661300566.153,5074.044984591544,1970.0376852923691,1000,1.011,-1.493,3.126,1140.0,blue,260,TRUE
122,1661300567.278,3034.100304806285,-2104.670442442417,1000,4.684,-0.882,-0.287,110.9,yellow,260,TRUE
123,1661300567.373,3608.6203929927337,-2085.010310999622,1000,5.285,-0.573,0.238,141.0,green,260,TRUE
124,1661300568.593,4741.742703419339,2118.990386595207,1000,6.044,-1.323,2.997,109.4,blue,260,TRUE
125,1661300568.687,3961.614232660053,6724.6513722339505,1000,3.65,1.297,0.881,126.4,red,260,TRUE
126,1661300568.813,4010.4593450884086,-2638.8462791999796,1000,4.631,-0.852,-0.344,1079.5,yellow,260,TRUE
127,1661300571.003,4728.680905957654,2066.065016938284,1000,0.039,-1.367,3.014,1126.4,blue,260,TRUE
128,1661300572.114,3971.036609428344,-2657.645126106462,1000,4.765,-0.903,-0.386,124.7,yellow,260,TRUE
129,1661300573.336,4697.348664684824,1991.0519408056773,1000,0.292,-1.283,2.682,124.9,blue,260,TRUE
130,1661300573.461,3791.3157967710845,6640.232241224732,1000,3.67,1.297,0.903,1080.9,red,260,TRUE
131,1661300574.526,3331.144638767128,-2709.9355449764907,1000,5.275,-0.492,0.208,109.4,green,260,TRUE
132,1661300579.109,3661.129124817303,4624.077074091678,1000,4.687,1.306,0.798,109.3,red,260,TRUE
133,1661300581.424,7142.85041573647,1741.157955135508,1000,6.204,-1.317,2.903,125.0,blue,260,TRUE
134,1661300581.533,3637.186948718967,3780.294686764471,1000,3.228,1.408,0.944,109.7,red,260,TRUE
135,1661300581.627,3830.7512386318954,-2609.5613038406855,1000,4.777,-0.873,-0.352,124.9,yellow,260,TRUE
136,1661300581.736,3097.0939011060977,-2641.5689171502468,1000,5.267,-0.496,0.201,109.4,green,260,TRUE
137,1661300582.97,6801.41870712256,1576.3954913667112,1000,6.193,-1.337,2.962,1143.7,blue,260,TRUE
138,1661300587.259,6550.280739039809,1381.3200607214678,1000,6.154,-1.353,2.901,1141.9,blue,260,TRUE
139,1661300589.402,3355.1905544764545,-2771.7619829820655,1000,5.26,-0.503,0.199,1157.4,green,260,TRUE
140,1661300591.637,3668.332096294287,3328.424847834643,1000,3.085,1.333,0.867,125.0,red,260,TRUE
141,1661300592.763,3349.4560390955735,-2736.139754981754,1000,5.259,-0.479,0.199,1126.1,green,260,TRUE
142,1661300593.952,6503.971478545123,1386.7346570699165,1000,5.705,-1.312,2.981,124.9,blue,260,TRUE
143,1661300594.077,3697.754395582313,2048.6712549496688,1000,3.266,1.329,0.623,1080.7,red,260,TRUE
144,1661300595.142,3209.927009643156,-2682.2081795839986,1000,5.259,-0.495,0.202,109.4,green,260,TRUE
145,1661300595.423,6450.74514876474,1414.866371894404,1000,5.714,-1.314,2.983,109.6,blue,260,TRUE
146,1661300595.517,3652.0485266313976,1987.603551827546,1000,3.229,1.328,0.662,125.0,red,260,TRUE
147,1661300598.877,3627.228479416437,2036.923701281242,1000,3.185,1.308,0.762,1141.8,red,260,TRUE
148,1661300599.988,3139.82268596344,-2659.2285192108893,1000,5.255,-0.5,0.203,126.4,green,260,TRUE
149,1661300601.254,6417.144799380006,1640.4229390754533,1000,5.933,-1.298,2.798,1142.0,blue,260,TRUE
150,1661300611.452,5711.36468392708,1437.671527198786,1000,2.009,1.335,1.017,1095.2,red,260,TRUE
151,1661300612.531,3150.5481135401915,-2687.4371369296805,1000,5.243,-0.465,0.197,109.3,green,260,TRUE
152,1661300612.812,5901.783123892221,1473.1569008365736,1000,2.045,1.338,1.091,125.1,red,260,TRUE
153,1661300613.939,3119.720595396642,-2660.2374059503177,1000,5.246,-0.496,0.2,1206.0,green,260,TRUE
154,1661300615.145,6197.993306607839,1408.3443613939182,1000,5.725,-1.3,3.136,124.9,blue,260,TRUE
155,1661300615.27,6404.794251377036,1387.7652439570159,1000,2.081,1.336,1.201,1093.4,red,260,TRUE
156,1661300616.347,3122.6395571299695,-2652.2094602752436,1000,5.244,-0.476,0.2,110.9,green,260,TRUE
157,1661300616.677,6234.72588162652,1301.6666930661258,1000,5.599,-1.316,-3.098,109.4,blue,260,TRUE
158,1661300616.771,6184.59950704523,1341.8494006316653,1000,2.057,1.345,1.037,125.0,red,260,TRUE
159,1661300621.276,3114.833886134229,-2656.7245120857747,1000,5.238,-0.491,0.197,125.0,green,260,TRUE
160,1661300622.48,6239.280653144752,1444.9884669635014,1000,0.0,-1.088,2.567,109.3,blue,260,TRUE
161,1661300622.574,5502.912122896764,1253.5849868634884,1000,2.162,1.338,2.285,140.6,red,260,TRUE
162,1661300623.716,3129.8837401199303,-2671.0412030844154,1000,5.241,-0.542,0.204,1159.1,green,260,TRUE
163,1661300625.876,5864.374738695727,1723.6129447510225,1000,0.068,-1.112,2.488,1141.8,blue,260,TRUE
164,1661300627.033,2781.355551190567,-2564.3598497499297,1000,0.04,-0.838,0.214,1128.1,yellow,260,TRUE
165,1661300627.033,3105.140853946408,-2666.6530852257415,1000,0.04,-0.838,0.214,1128.1,green,260,TRUE
166,1661300627.033,3036.5317555768875,-2627.257336685246,1000,0.04,-0.838,0.214,1128.1,green,260,TRUE
167,1661300629.227,5990.988124659781,1698.964763947605,1000,0.007,-1.055,2.512,109.3,blue,260,TRUE
168,1661300629.32,5382.881319720031,1565.8209027860103,1000,2.117,1.274,2.423,125.0,red,260,TRUE
169,1661300632.713,5423.562671385494,1438.1352553461147,1000,2.131,1.281,2.422,1140.2,red,260,TRUE
170,1661300635.966,6169.938263536377,1735.46680446274,1000,0.01,-1.052,2.582,140.6,blue,260,TRUE
171,1661300636.121,5203.571928954823,1573.7343480620154,1000,2.293,1.34,1.921,1064.1,red,260,TRUE
172,1661300637.17,3235.1687864040614,-2636.5318434869378,1000,5.316,-0.748,0.273,109.4,green,260,TRUE
173,1661300638.404,5314.433010826795,1090.4905301341273,1000,6.252,-1.092,2.55,1142.0,blue,260,TRUE
174,1661300639.53,3247.6220640296197,-2546.6984642113102,1000,5.047,-0.88,-0.347,126.5,yellow,260,TRUE
175,1661300641.798,5315.495064618927,1166.3871648619954,1000,6.274,-1.091,2.537,125.4,blue,260,TRUE
176,1661300641.923,5318.0757801238815,1732.6261827518492,1000,2.181,1.332,0.466,1079.4,red,260,TRUE
177,1661300642.987,3161.9876575297003,-2590.4993414023834,1000,5.303,-1.059,-0.213,109.4,green,260,TRUE
178,1661300644.223,5532.251349850929,1062.4981023999442,1000,0.034,-1.18,2.4,1126.3,blue,260,TRUE
179,1661300645.333,3417.8720853549494,-2566.1693808057294,1000,5.108,-0.881,-0.293,125.3,yellow,260,TRUE
180,1661300647.584,5819.39788742952,921.961445900035,1000,5.864,-1.258,3.005,125.0,blue,260,TRUE
181,1661300647.709,3455.3511955475283,3456.700454795432,1000,2.27,1.308,1.192,1079.5,red,260,TRUE
182,1661300650.901,5781.656067690191,945.7713881831754,1000,6.068,-1.223,2.798,125.0,blue,260,TRUE
183,1661300650.995,2789.0752221764787,3999.797154679213,1000,2.693,1.329,0.755,140.6,red,260,TRUE
184,1661300651.119,3454.4764022039562,-2554.6169603774233,1000,5.109,-0.995,-0.381,125.2,yellow,260,TRUE
185,1661300653.386,5745.735698457906,994.6206634587293,1000,6.066,-1.194,2.812,125.1,blue,260,TRUE
186,1661300653.511,3192.0525720277155,3615.472668806059,1000,4.412,1.253,0.597,1079.3,red,260,TRUE
187,1661300654.575,3111.4222495555937,-2563.59641302307,1000,5.323,-0.38,0.051,110.9,green,260,TRUE
188,1661300659.189,6282.453859113913,1477.401195475111,1000,6.126,-1.228,2.583,1095.0,blue,260,TRUE
189,1661300663.598,3547.9129472200043,2607.2870095789485,1000,4.383,1.324,0.726,1142.1,red,260,TRUE
190,1661300664.708,3107.801453970398,-2538.073453575234,1000,5.321,-0.423,0.065,140.6,green,260,TRUE
191,1661300664.911,6385.341106583497,1229.4210594057683,1000,0.033,-1.189,2.586,109.4,blue,260,TRUE
192,1661300665.005,4162.964613789173,2177.611387746707,1000,3.105,1.259,0.797,124.9,red,260,TRUE
193,1661300667.412,5505.970087533336,1123.6843499341528,1000,2.463,1.21,2.661,1095.1,red,260,TRUE
194,1661300674.043,6344.6258594058445,1234.078378639487,1000,5.683,-1.188,2.49,126.4,blue,260,TRUE
195,1661300674.17,5847.883746785852,1221.5514564127427,1000,2.053,1.217,2.41,1094.8,red,260,TRUE
196,1661300677.436,6347.10914485033,1147.3154216630037,1000,5.736,-1.282,2.779,1110.6,blue,260,TRUE
197,1661300678.547,3859.142035456774,-2560.41734751565,1000,5.245,-0.933,-0.191,1081.0,yellow,260,TRUE
198,1661300681.926,3908.527927235753,-2541.958798152875,1000,4.973,-0.87,-0.461,1126.4,yellow,260,TRUE
199,1661300687.528,5868.746645123321,3484.5766722524313,1000,1.61,-1.334,2.491,1109.1,blue,260,TRUE
200,1661300688.605,3769.6468107295914,-2530.6697326413164,1000,5.02,-0.951,-0.372,126.5,yellow,260,TRUE
201,1661300690.844,6250.582523635596,3516.803785061835,1000,1.504,-1.335,2.694,125.0,blue,260,TRUE
202,1661300690.984,5800.659689771916,1783.1864360866452,1000,1.697,1.149,2.273,1079.8,red,260,TRUE
203,1661300694.207,5961.164880749034,3424.4298678713544,1000,1.814,-1.266,2.53,124.9,blue,260,TRUE
204,1661300694.348,6041.342803174532,1108.4849959761025,1000,1.636,1.1,2.2,1093.8,red,260,TRUE
205,1661300697.583,5693.897249576371,3347.672516548877,1000,1.497,-1.308,2.765,1141.9,blue,260,TRUE
206,1661300702.009,5843.5781542730065,1056.0564274273197,1000,1.836,1.214,1.963,1156.1,red,260,TRUE
207,1661300706.404,4308.133885524196,-1599.9991527910138,1000,4.911,-1.429,-1.672,1156.3,yellow,260,TRUE
208,1661300708.671,5724.3009519715515,1105.469040189929,1000,1.943,1.27,1.78,1110.8,blue,260,TRUE
209,1661300708.671,5803.998246019175,1073.0917523801452,1000,1.943,1.27,1.78,1110.8,red,260,TRUE
210,1661300708.671,5784.220456638773,1081.7570818269946,1000,1.943,1.27,1.78,1110.8,red,260,TRUE
211,1661300709.766,3802.1467065323145,-1531.7644246234727,1000,3.509,-1.301,-2.201,93.7,yellow,260,TRUE
212,1661300709.845,2839.8207513020548,-2284.6906181024765,1000,5.2,-1.376,-0.334,109.3,green,260,TRUE
213,1661300712.22,3382.825221729648,-1374.3632953255471,1000,5.496,-1.384,-1.717,1142.8,yellow,260,TRUE
214,1661300713.598,5883.748624759772,2388.7091626950687,1000,2.797,-1.128,2.765,1081.1,blue,260,TRUE
215,1661300714.663,3021.2341995697097,-905.6749267411382,1000,4.604,-1.355,-1.336,125.0,yellow,260,TRUE
216,1661300714.757,2762.139195845138,-1668.9890624046104,1000,0.542,-1.271,-0.427,125.0,green,260,TRUE
217,1661300715.961,5710.74698248078,2125.6934647178064,1000,2.742,-1.181,2.89,109.4,blue,260,TRUE
218,1661300716.055,5809.052777287139,1142.0645000211773,1000,2.063,1.312,0.725,124.6,red,260,TRUE
219,1661300717.384,5696.725644827522,2117.8895149000414,1000,2.662,-1.178,2.939,1155.9,blue,260,TRUE
220,1661300718.525,3669.0686474023637,1632.2583826055356,1000,0.278,-1.494,-3.074,125.1,yellow,260,TRUE
221,1661300718.65,4885.985155544184,1475.3873910344898,1000,6.201,-1.362,0.032,1098.1,green,260,TRUE
222,1661300720.749,5577.722820240751,2226.3395383839297,1000,2.703,-1.125,2.964,1142.1,blue,260,TRUE
223,1661300721.875,4060.8088575366883,1595.5243747450318,1000,5.95,-1.436,-1.83,125.0,yellow,260,TRUE
224,1661300722.0,5112.891844499366,1602.6566128299646,1000,6.054,-1.347,-0.105,1124.4,green,260,TRUE
225,1661300724.14,5624.503279880406,2347.29899464231,1000,2.736,-1.118,2.94,1140.2,blue,260,TRUE
226,1661300725.265,4216.766823659102,1735.517813955834,1000,5.541,-1.428,-1.768,125.3,yellow,260,TRUE
227,1661300725.39,5064.6790546717175,1800.1075042619157,1000,6.067,-1.359,-0.124,1108.9,green,260,TRUE
228,1661300727.514,5675.627740450348,2356.2004259050477,1000,2.846,-1.166,2.896,1140.3,blue,260,TRUE
229,1661300728.639,4280.620353276638,1695.4911018099529,1000,5.573,-1.425,-1.609,109.7,yellow,260,TRUE
230,1661300728.733,5112.159616075634,1599.3529688044268,1000,6.101,-1.331,-0.087,110.8,green,260,TRUE
231,1661300729.968,5657.866341756285,2269.2629883823406,1000,2.808,-1.194,2.919,1125.9,blue,260,TRUE
232,1661300731.079,4338.212206894355,1676.1425228267133,1000,5.667,-1.428,-1.41,125.0,yellow,260,TRUE
233,1661300731.188,5058.44326426535,1563.165760199232,1000,6.1,-1.271,-0.033,140.6,green,260,TRUE
234,1661300732.406,5674.151333230104,2362.0394763323316,1000,2.824,-1.19,2.904,109.4,blue,260,TRUE
235,1661300732.5,5791.570371515162,1190.7440163961867,1000,1.947,1.331,1.706,109.5,red,260,TRUE
236,1661300732.594,4364.14811232586,1667.9880158169408,1000,5.812,-1.438,-1.11,109.4,yellow,260,TRUE
237,1661300732.687,5064.896116578473,1627.5617664084596,1000,6.062,-1.302,-0.045,125.2,green,260,TRUE
238,1661300737.312,5621.046057096567,2371.9171310181223,1000,2.894,-1.14,2.879,126.3,blue,260,TRUE
239,1661300737.438,5990.021725372694,1271.0325916159766,1000,2.464,1.362,0.98,1124.6,red,260,TRUE
240,1661300738.563,4993.3850037065695,1531.199573253073,1000,6.055,-1.318,-0.019,1126.0,green,260,TRUE
241,1661300740.704,5712.6266712613615,2291.4693876001265,1000,3.05,-0.947,2.884,1171.6,blue,260,TRUE
242,1661300741.876,5087.118908502953,2114.601049305528,1000,0.011,-1.396,-0.022,1140.6,yellow,260,TRUE
243,1661300741.876,5040.122605590146,1823.344091176215,1000,0.011,-1.396,-0.022,1140.6,green,260,TRUE
244,1661300741.876,5055.691679508908,1920.5820163567953,1000,0.011,-1.396,-0.022,1140.6,green,260,TRUE
245,1661300744.125,5700.637589004723,2169.6505213031737,1000,3.067,-0.953,2.849,124.9,blue,260,TRUE
246,1661300744.25,6266.977673614645,1317.4631696182,1000,2.439,1.34,0.848,1109.1,red,260,TRUE
247,1661300745.344,5098.325171651062,1828.361796019974,1000,5.373,-1.334,-0.314,94.1,green,260,TRUE
248,1661300746.578,5612.895010053408,2055.212707653938,1000,3.078,-0.92,2.871,1140.6,blue,260,TRUE
249,1661300747.702,4661.4227904560885,2531.6045124134753,1000,0.815,-1.539,-3.112,140.8,yellow,260,TRUE
250,1661300747.874,5676.439428448278,1663.297929234591,1000,2.961,-1.199,0.468,1078.2,green,260,TRUE
251,1661300752.311,5777.835957992435,2262.0633088153672,1000,2.862,-1.085,2.918,1077.7,blue,260,TRUE
252,1661300753.373,4530.280614765678,2667.335891742563,1000,0.842,-1.522,-0.047,109.1,yellow,260,TRUE
253,1661300753.467,5326.255190934196,1649.8668383068293,1000,5.536,-1.395,-0.165,109.4,green,260,TRUE
254,1661300754.701,5720.397357203823,2178.0703748068454,1000,2.833,-1.149,2.908,1140.6,blue,260,TRUE
255,1661300755.826,4451.503925910401,2594.1525625273766,1000,0.897,-1.522,-0.048,124.7,yellow,260,TRUE
256,1661300755.95,5024.092900827849,1517.56986621469,1000,5.516,-1.348,-0.093,1109.1,green,260,TRUE
257,1661300758.075,5750.709846336932,2437.333752632838,1000,2.717,-1.192,2.919,1155.9,blue,260,TRUE
258,1661300759.231,4147.753164628778,3063.9806050585817,1000,0.96,-1.511,-3.083,1109.3,yellow,260,TRUE
259,1661300762.575,4223.368382832069,3194.4910580753603,1000,1.078,-1.468,-3.04,1155.7,yellow,260,TRUE
260,1661300764.84,5558.883917981178,3014.8654547873075,1000,0.934,-1.35,2.654,1109.4,blue,260,TRUE
261,1661300765.934,4158.18731889479,3121.315744761199,1000,1.055,-1.492,-0.077,109.5,yellow,260,TRUE
262,1661300766.028,4343.206901365043,2052.1420373908613,1000,5.733,-1.392,-1.341,109.1,green,260,TRUE
263,1661300768.386,4126.505449823388,3003.1662750896676,1000,1.082,-1.514,-0.055,1124.8,yellow,260,TRUE
264,1661300770.636,5463.024317841087,2714.568366531038,1000,1.155,-1.262,2.777,1156.0,blue,260,TRUE
265,1661300771.776,4078.817449113155,2985.4952902863442,1000,1.057,-1.51,-0.059,140.6,yellow,260,TRUE
266,1661300773.043,5426.761991603424,2546.2746308387955,1000,3.112,-1.194,2.593,1155.7,blue,260,TRUE
267,1661300774.183,4067.867884714679,2991.897747457718,1000,1.036,-1.52,-0.049,125.2,yellow,260,TRUE
268,1661300774.309,3556.3436767038993,2576.58678608853,1000,5.718,-1.386,-1.584,1108.8,green,260,TRUE
269,1661300777.558,4127.473918716687,3036.2450122402347,1000,1.037,-1.523,-0.038,1140.3,yellow,260,TRUE
270,1661300780.937,4108.286921836382,2867.376986196998,1000,1.089,-1.55,-0.019,1143.7,yellow,260,TRUE
271,1661300783.175,6529.835976655846,1731.5697340483791,1000,1.946,1.294,1.42,125.0,red,260,TRUE
272,1661300783.3,3839.851646170251,3099.937899558152,1000,1.013,-1.52,-0.041,1094.9,yellow,260,TRUE
273,1661300785.506,4977.937995469903,1720.6545935903735,1000,3.168,-1.269,3.014,1140.3,blue,260,TRUE
274,1661300786.631,3850.548833673659,3097.7796926492665,1000,0.987,-1.513,-0.044,109.3,yellow,260,TRUE
275,1661300786.725,3667.227161614119,2763.211384184839,1000,5.745,-1.384,-1.541,126.1,green,260,TRUE
276,1661300791.339,5079.629334551748,1854.497360482877,1000,2.87,-1.244,3.13,1157.6,blue,260,TRUE
277,1661300792.48,3953.8977958767505,3112.2981110999704,1000,0.968,-1.522,-0.045,125.0,yellow,260,TRUE
278,1661300792.605,3955.103853724175,3062.6396402812975,1000,5.733,-1.384,-1.538,1095.3,green,260,TRUE
279,1661300793.763,5191.463269447032,2191.2550766052605,1000,1.595,-1.178,2.573,124.9,blue,260,TRUE
280,1661300793.888,6728.423871885636,1032.3442700441367,1000,2.229,1.277,1.218,1093.4,red,260,TRUE
281,1661300794.966,3856.6071611849093,3020.114858532047,1000,5.73,-1.383,-1.67,110.9,green,260,TRUE
282,1661300796.187,5298.841169778132,2300.2055507315927,1000,1.962,-1.239,2.729,1156.0,blue,260,TRUE
283,1661300797.328,3937.6926564933174,2955.5138997005597,1000,1.011,-1.498,-0.056,124.9,yellow,260,TRUE
284,1661300797.437,3906.482517382184,2969.573935906195,1000,5.732,-1.385,-1.588,125.3,green,260,TRUE
285,1661300798.673,5319.365777495159,2236.7138557845005,1000,2.68,-1.178,2.878,1141.4,blue,260,TRUE
286,1661300799.799,3935.400119109927,2977.199723718838,1000,0.958,-1.524,-3.096,125.0,yellow,260,TRUE
287,1661300799.924,3809.811912105154,3046.1095676955697,1000,5.729,-1.384,-1.683,1095.1,green,260,TRUE
288,1661300803.129,3865.677224916182,3042.5308958837154,1000,0.97,-1.515,-0.051,1156.0,yellow,260,TRUE
289,1661300805.396,5379.4155154287855,2236.2905739092553,1000,3.07,-1.152,2.667,1127.8,blue,260,TRUE
290,1661300806.508,3884.1461316809023,2918.015194556831,1000,1.712,-1.32,-2.342,125.0,yellow,260,TRUE
291,1661300806.633,5070.4317874533735,1006.2854239400395,1000,0.598,-1.139,0.136,1095.0,green,260,TRUE
292,1661300808.729,5370.20101964516,2358.5664825486638,1000,3.158,-0.926,2.803,1155.9,blue,260,TRUE
293,1661300809.885,3801.8086552558534,1335.3896774644493,1000,4.981,-1.338,-2.111,1096.4,yellow,260,TRUE
294,1661300812.076,5357.182077026214,2434.2200469226304,1000,2.928,-1.196,2.769,1079.0,blue,260,TRUE
295,1661300813.14,3965.2453070765227,2098.647345439298,1000,1.012,-1.334,-1.811,109.1,yellow,260,TRUE
296,1661300813.234,5064.245103175186,1143.250790178873,1000,5.658,-1.319,0.0,124.9,green,260,TRUE
297,1661300814.438,5403.579197024987,2386.311453190815,1000,3.007,-1.11,2.778,124.9,blue,260,TRUE
298,1661300814.563,2369.2774261198706,-0.9638631424136399,1000,4.785,1.348,1.31,1095.1,red,260,TRUE
299,1661300815.642,5173.2560716850085,1288.5476423148168,1000,5.091,-1.379,-0.173,109.4,green,260,TRUE
300,1661300815.939,5453.505046258055,2338.030437479431,1000,2.939,-1.082,2.883,109.4,blue,260,TRUE
301,1661300816.033,2490.245388008959,-34.93283656271894,1000,4.626,1.353,1.262,109.3,red,260,TRUE
302,1661300816.126,4022.611090858096,2344.5314402941112,1000,1.0,-1.332,-1.727,109.7,yellow,260,TRUE
303,1661300816.221,5221.9680271688685,1357.3240030605289,1000,5.101,-1.382,-0.145,125.0,green,260,TRUE
304,1661300817.564,2529.9645683955823,-97.40987220438996,1000,4.611,1.294,1.189,1126.3,red,260,TRUE
305,1661300818.675,5251.528194574022,1387.0891512781398,1000,5.288,-1.393,0.075,109.4,green,260,TRUE
306,1661300818.956,5461.753328903807,2315.729106653933,1000,2.988,-1.077,2.868,109.4,blue,260,TRUE
307,1661300819.049,2577.6303602473363,-115.21231935593498,1000,4.356,1.253,1.082,109.4,red,260,TRUE
308,1661300819.143,4067.330305081175,2445.8191198161494,1000,1.024,-1.335,-1.842,109.7,yellow,260,TRUE
309,1661300819.237,5234.748171141026,1418.8190022219233,1000,5.297,-1.384,0.111,124.9,green,260,TRUE
310,1661300819.534,5483.434128786695,2272.177983577129,1000,2.987,-1.076,2.868,125.0,blue,260,TRUE
311,1661300819.721,5302.070071199968,1544.1281021170923,1000,5.437,-1.383,0.219,109.3,green,260,TRUE
312,1661300820.002,5489.146558240521,2261.2695956880966,1000,2.992,-1.076,2.869,109.3,blue,260,TRUE
313,1661300820.096,2659.4314843163534,-103.56269657687929,1000,4.219,1.189,1.067,109.3,red,260,TRUE
314,1661300820.19,4211.258226561759,2758.0193206224576,1000,1.021,-1.333,-1.861,124.7,yellow,260,TRUE
315,1661300820.299,5360.738283630078,1607.1568666291976,1000,5.404,-1.386,0.166,109.3,green,260,TRUE
316,1661300820.613,2238.1844910058167,-55.129465097504806,1000,4.156,1.18,1.007,1126.5,blue,260,TRUE
317,1661300820.613,2448.755085227081,-79.38069341023233,1000,4.156,1.18,1.007,1126.5,red,260,TRUE
318,1661300820.613,2378.4980741474806,-71.27795427225269,1000,4.156,1.18,1.007,1126.5,red,260,TRUE
319,1661300821.724,4186.727085656859,2792.7322505797483,1000,1.038,-1.336,-1.852,109.4,yellow,260,TRUE
320,1661300821.818,5334.053539303856,1605.0389195265425,1000,4.766,-1.296,-0.286,125.0,green,260,TRUE
321,1661300823.006,4042.956270713864,982.7792368453546,1000,2.989,-1.074,2.884,109.4,blue,260,TRUE
322,1661300823.1,2445.191926030024,-61.56823035690226,1000,4.459,1.275,1.328,109.4,red,260,TRUE
323,1661300823.194,4206.632434290917,2806.5461783451287,1000,1.049,-1.341,-1.727,109.3,yellow,260,TRUE
324,1661300823.287,5092.063739182977,1620.4463817553049,1000,4.541,-1.321,-0.665,109.4,green,260,TRUE
325,1661300823.615,5615.9816733573925,2118.207823294449,1000,2.978,-1.083,2.899,1079.0,blue,260,TRUE
326,1661300824.679,4203.8847737945025,2819.862880934995,1000,1.092,-1.329,-1.609,109.4,yellow,260,TRUE
327,1661300824.773,4809.194267614562,1762.6472667950554,1000,5.643,-1.357,-0.321,125.0,green,260,TRUE
328,1661300825.963,5520.180038280553,2212.7203095209406,1000,2.963,-1.093,2.897,109.4,blue,260,TRUE
329,1661300826.057,2560.335995511858,-113.25596472672741,1000,4.836,1.344,1.472,125.0,red,260,TRUE
330,1661300826.182,4537.512157251121,1935.5495502398264,1000,6.154,-1.46,-0.058,125.0,green,260,TRUE
331,1661300826.48,5429.372268263988,2208.922976060108,1000,3.019,-1.104,2.868,109.4,blue,260,TRUE
332,1661300826.574,2613.176235180787,-199.40539559933245,1000,4.844,1.332,1.318,109.4,red,260,TRUE
333,1661300826.667,3913.6001295182623,2647.471138368395,1000,0.81,-1.377,-1.39,109.6,yellow,260,TRUE
334,1661300826.761,4210.136199694857,2001.941557054006,1000,6.224,-1.433,-0.385,109.4,green,260,TRUE
335,1661300827.027,5315.074227986422,2264.604234408566,1000,3.075,-1.074,2.91,125.0,blue,260,TRUE
336,1661300827.152,2789.467141825256,58.30371275465412,1000,4.11,1.27,1.198,1079.5,red,260,TRUE
337,1661300828.216,3904.331665952172,2158.6383886908384,1000,0.017,-1.436,-0.291,109.4,green,260,TRUE
338,1661300828.497,5315.55536343458,2159.973066460684,1000,3.066,-1.078,2.905,109.3,blue,260,TRUE
339,1661300828.59,2899.1263176039115,417.4398698206212,1000,3.426,1.359,1.418,109.4,red,260,TRUE
340,1661300828.684,3867.094014611836,2701.9665656033244,1000,1.048,-1.493,-3.07,109.3,yellow,260,TRUE
341,1661300828.778,3629.6167832661663,2291.7068202826845,1000,0.459,-1.401,0.493,109.4,green,260,TRUE
342,1661300829.059,5315.907380722077,2097.5641978198933,1000,3.031,-1.083,2.926,109.4,blue,260,TRUE
343,1661300829.153,3047.0359752848885,619.9308652667813,1000,3.56,1.245,1.215,109.3,red,260,TRUE
344,1661300829.247,3958.6662722351552,2781.8471598248466,1000,1.174,-1.513,-3.113,125.0,yellow,260,TRUE
345,1661300829.356,3623.61090913897,2298.552975017797,1000,1.026,-1.416,0.652,109.7,green,260,TRUE
346,1661300829.637,5262.536193014491,2082.2804314471246,1000,2.618,-1.038,-3.099,109.4,blue,260,TRUE
347,1661300829.731,3305.5247181278673,686.2863965188743,1000,4.19,1.36,1.621,109.4,red,260,TRUE
348,1661300829.825,4044.559896469559,2803.9082619227133,1000,1.15,-1.52,-3.117,109.2,yellow,260,TRUE
349,1661300829.918,3740.598757476757,2119.5726351622375,1000,1.175,-1.443,0.844,109.3,green,260,TRUE
350,1661300830.2,5268.130657266284,2059.4144908481667,1000,2.788,-1.096,2.994,124.8,blue,260,TRUE
351,1661300830.309,3679.2425183389505,558.4530414381146,1000,4.258,1.274,1.23,124.7,red,260,TRUE
352,1661300830.418,4071.4083026449894,2809.7105271852297,1000,1.182,-1.534,-3.117,110.9,yellow,260,TRUE
353,1661300830.513,3974.305684792136,1857.903055692714,1000,0.586,-1.217,0.024,109.3,green,260,TRUE
354,1661300830.81,5308.73805300802,2042.5051532712653,1000,2.797,-1.1,2.954,109.4,blue,260,TRUE
355,1661300830.904,3958.668293153623,541.1698544154882,1000,3.503,1.325,0.93,109.3,red,260,TRUE
356,1661300830.998,4067.835790235129,2805.907085811358,1000,1.149,-1.536,-3.114,109.4,yellow,260,TRUE
357,1661300831.091,4374.254149003375,1731.9800092940823,1000,0.605,-1.237,0.153,109.4,green,260,TRUE
358,1661300831.388,5389.300072254002,1978.242894200079,1000,2.823,-1.074,2.956,109.4,blue,260,TRUE
359,1661300831.482,4450.879907489827,589.5656598739323,1000,3.048,1.236,1.354,109.4,red,260,TRUE
360,1661300831.576,4084.3939748866246,2824.3499765366723,1000,1.142,-1.537,-3.115,109.3,yellow,260,TRUE
361,1661300831.669,4794.943860249407,1526.8972853909197,1000,0.009,-1.16,0.02,109.0,green,260,TRUE
362,1661300831.935,5444.943642888119,2040.1083787439984,1000,2.86,-0.986,2.917,109.3,blue,260,TRUE
363,1661300832.029,4918.0704518214125,540.051157963638,1000,3.049,1.326,1.081,109.4,red,260,TRUE
364,1661300832.122,4107.096096165717,2828.347267397781,1000,1.136,-1.534,-3.115,109.4,yellow,260,TRUE
365,1661300832.216,5290.896042920943,1362.1850486134535,1000,6.099,-1.226,-0.085,124.9,green,260,TRUE
366,1661300832.513,5486.813442170456,2112.658164888107,1000,3.141,-0.816,2.842,124.9,blue,260,TRUE
367,1661300832.638,5882.413329062047,867.328076117344,1000,3.239,1.258,0.957,1094.7,red,260,TRUE
368,1661300833.717,5740.169476308529,1324.3259446230934,1000,5.938,-1.237,-0.178,109.0,green,260,TRUE
369,1661300833.998,5493.714114965232,2158.9292387267,1000,3.216,-0.782,2.83,109.3,blue,260,TRUE
370,1661300834.092,5995.567720348887,1194.9997930988766,1000,2.674,1.324,1.139,110.5,red,260,TRUE
371,1661300834.185,4080.480942980757,2807.8616595100143,1000,1.131,-1.537,-3.12,110.5,yellow,260,TRUE
372,1661300834.28,6146.866087064373,1334.1169454044186,1000,5.901,-1.272,-0.128,125.0,green,260,TRUE
373,1661300834.563,5468.09576789862,2183.1593779999635,1000,3.218,-0.776,2.833,109.4,blue,260,TRUE
374,1661300834.657,6051.170669500011,1316.179955682179,1000,2.727,1.331,1.196,109.3,red,260,TRUE
375,1661300834.751,4023.262460776406,2795.6687086423512,1000,1.134,-1.537,-3.119,109.3,yellow,260,TRUE
376,1661300834.844,6463.5816425971325,1342.4757903981124,1000,5.683,-1.252,-0.083,109.4,green,260,TRUE
377,1661300835.11,5479.278935587951,2186.7645790343304,1000,3.172,-0.804,2.838,109.4,blue,260,TRUE
378,1661300835.204,6000.000882689494,1290.6765605590713,1000,2.698,1.338,1.035,124.7,red,260,TRUE
379,1661300835.313,3983.720894732672,2790.199292332292,1000,1.133,-1.537,-3.119,126.2,yellow,260,TRUE
380,1661300835.422,6586.807222080587,1276.6739681301578,1000,5.976,-1.246,0.187,110.9,green,260,TRUE
381,1661300835.705,5501.55322436245,2214.155020409129,1000,3.178,-0.796,2.843,109.3,blue,260,TRUE
382,1661300835.799,5997.4160927656785,1303.4969582253634,1000,1.913,1.299,1.641,110.5,red,260,TRUE
383,1661300835.892,3971.6943548411996,2795.4220367132216,1000,1.136,-1.536,-3.119,110.9,yellow,260,TRUE
384,1661300835.988,6616.903100864239,1210.6216413504117,1000,5.392,-1.241,-0.082,109.4,green,260,TRUE
385,1661300836.269,5459.0818011282145,2232.750994273749,1000,3.21,-0.778,2.842,124.7,blue,260,TRUE
386,1661300836.378,5879.3901406079385,1282.9915384171204,1000,1.398,1.358,1.612,109.4,red,260,TRUE
387,1661300836.472,3969.9799121622996,2798.9427655728764,1000,1.136,-1.535,-3.12,109.3,yellow,260,TRUE
388,1661300836.565,6587.129419984628,1189.358473208729,1000,5.19,-1.256,-0.143,125.0,green,260,TRUE
389,1661300837.77,5442.486654481698,2231.5530012175154,1000,3.137,-0.853,2.821,109.4,blue,260,TRUE
390,1661300837.864,5597.645975172072,1356.290325153415,1000,0.976,1.252,1.173,109.4,red,260,TRUE
391,1661300837.957,3979.0227375241716,2805.3330530856,1000,1.142,-1.539,-3.12,109.3,yellow,260,TRUE
392,1661300838.051,6493.898797527369,1154.121952148037,1000,5.259,-1.344,-0.387,109.3,green,260,TRUE
393,1661300838.348,5470.984731292428,2227.1097317337903,1000,3.123,-0.863,2.822,109.4,blue,260,TRUE
394,1661300838.442,5218.060952047612,1367.6248457077754,1000,1.229,1.246,1.136,109.3,red,260,TRUE
395,1661300838.535,3974.5591470742006,2786.081071813498,1000,1.143,-1.538,-3.119,109.3,yellow,260,TRUE
396,1661300838.629,6367.11898879923,1207.3589235802717,1000,5.39,-1.374,-0.332,109.4,green,260,TRUE
397,1661300838.941,5541.916014502974,2237.6370212967568,1000,3.113,-0.878,2.818,1095.1,blue,260,TRUE
398,1661300840.021,3990.782364189212,2764.1483630978946,1000,1.14,-1.544,-3.117,109.3,yellow,260,TRUE
399,1661300840.115,6246.998813974598,1311.5011798232279,1000,5.448,-1.487,0.028,125.0,green,260,TRUE
400,1661300840.364,5732.786043197328,2170.1195833105867,1000,3.053,-0.921,2.822,110.9,blue,260,TRUE
401,1661300840.459,4808.398795314842,1520.8274100393894,1000,3.144,1.354,1.278,109.4,red,260,TRUE
402,1661300840.553,3986.0543819175987,2750.411816257932,1000,1.059,-1.547,-3.119,109.3,yellow,260,TRUE
403,1661300840.647,6106.288431714825,1442.6866977441384,1000,5.267,-1.444,-0.141,109.4,green,260,TRUE
404,1661300840.959,5626.248980892517,2332.076623589305,1000,3.031,-0.936,2.829,1095.2,blue,260,TRUE
405,1661300842.039,3992.0398893686124,2743.24707998617,1000,1.064,-1.521,-3.096,109.3,yellow,260,TRUE
406,1661300842.133,6051.1386194464285,1548.6182529255996,1000,5.128,-1.391,-1.02,125.0,green,260,TRUE
407,1661300843.321,5625.5963653188865,2326.665373795201,1000,3.21,-0.795,2.817,109.4,blue,260,TRUE
408,1661300843.415,4485.125485990929,1764.309721354387,1000,3.339,1.254,2.157,109.4,red,260,TRUE
409,1661300843.509,3993.1454899088276,2806.4456798449755,1000,1.056,-1.518,-3.105,109.3,yellow,260,TRUE
410,1661300843.603,5945.878504543804,1607.6924482166407,1000,5.166,-1.379,-1.187,109.3,green,260,TRUE
411,1661300844.837,5579.889982428259,2488.880815372652,1000,2.962,-1.018,2.849,1126.3,blue,260,TRUE
412,1661300845.947,3986.8009318100085,2815.4065412529567,1000,1.209,-1.53,-3.103,109.4,yellow,260,TRUE
413,1661300846.041,5944.692619111814,1655.6506400870855,1000,5.216,-1.421,-0.944,124.9,green,260,TRUE
414,1661300847.23,5578.5499425687485,2459.2350942295097,1000,3.041,-0.951,2.807,109.4,blue,260,TRUE
415,1661300847.324,4088.9728676448744,1862.3246794493734,1000,3.473,1.232,1.645,124.9,red,260,TRUE
416,1661300847.433,4014.2522558950573,2826.4278697105015,1000,1.286,-1.525,-0.045,109.7,yellow,260,TRUE
417,1661300847.526,5925.806174778331,1653.9489483455734,1000,5.183,-1.381,-0.609,109.6,green,260,TRUE
418,1661300848.745,5564.474726697814,2370.082216990965,1000,3.03,-0.96,2.805,1143.5,blue,260,TRUE
419,1661300849.873,4004.1727147703946,2873.2147611248524,1000,1.34,-1.539,-3.11,125.0,yellow,260,TRUE
420,1661300849.998,5917.785273207133,1731.2211868792508,1000,5.276,-1.365,-0.329,1095.2,green,260,TRUE
421,1661300851.156,5555.91339070839,2362.2864295192367,1000,3.014,-1.002,2.784,125.0,blue,260,TRUE
422,1661300851.281,3838.479697358627,2629.682217776141,1000,3.406,1.278,1.331,1094.9,red,260,TRUE
423,1661300852.36,5895.211964164357,1724.4664188770842,1000,5.259,-1.417,-0.825,109.3,green,260,TRUE
424,1661300854.703,4026.7408219668746,2870.606119936319,1000,1.529,-1.546,3.133,124.7,yellow,260,TRUE
425,1661300854.843,5821.453872260358,1532.3311985872983,1000,5.296,-1.401,-0.85,1095.5,green,260,TRUE
426,1661300858.082,4053.918038415053,2939.5245567698134,1000,1.401,-1.546,-3.118,1126.6,yellow,260,TRUE
427,1661300860.333,5462.7050439494415,2339.935612901638,1000,2.896,-1.012,2.679,1127.9,blue,260,TRUE
428,1661300861.446,4060.6211571049776,2859.615751108218,1000,1.64,-1.491,-3.123,125.0,yellow,260,TRUE
429,1661300861.539,5789.839479980577,1439.955006356844,1000,5.448,-1.25,-0.466,125.0,green,260,TRUE
430,1661300863.884,4109.1501575191205,2914.612917452581,1000,0.906,-1.22,-2.323,1126.4,yellow,260,TRUE
431,1661300866.184,3864.6034054006586,2612.883674888987,1000,3.702,1.311,1.295,109.3,red,260,TRUE
432,1661300866.277,4078.3171754140726,2905.108763047833,1000,1.224,-1.446,-1.737,124.9,yellow,260,TRUE
433,1661300866.402,6740.595216851897,2303.5149804247585,1000,5.789,-1.237,-0.117,1095.2,green,260,TRUE
434,1661300867.576,5486.850893700426,2298.413928442286,1000,2.898,-1.073,2.718,125.0,blue,260,TRUE
435,1661300867.701,3669.3707175325176,2362.4016257093444,1000,3.559,1.3,1.097,1079.5,red,260,TRUE
436,1661300868.765,6723.993929121718,1723.6194570409082,1000,6.053,-1.37,-0.079,109.4,green,260,TRUE
437,1661300870.063,3702.73611084736,2081.710719567999,1000,3.755,1.321,1.412,109.0,red,260,TRUE
438,1661300870.156,4175.795241078565,2927.160290676175,1000,1.01,-1.356,-1.594,109.4,yellow,260,TRUE
439,1661300870.25,6847.936852862433,1403.1161927306148,1000,0.1,-1.409,0.544,109.3,green,260,TRUE
440,1661300871.473,5493.94580599492,2283.121478324941,1000,2.902,-1.069,2.7,1140.3,blue,260,TRUE
441,1661300872.598,4202.780998947965,2968.9330492030635,1000,1.002,-1.358,-1.642,110.6,yellow,260,TRUE
442,1661300872.691,6783.0353279357105,1338.480430760642,1000,5.873,-1.225,-0.134,126.8,green,260,TRUE
443,1661300873.927,5749.99599601958,2227.5219638253307,1000,2.92,-1.062,2.699,1095.2,blue,260,TRUE
444,1661300875.022,4266.161306944757,3034.4471208185078,1000,0.997,-1.365,-1.574,1096.6,yellow,260,TRUE
445,1661300877.23,5616.344533958776,2234.1296322738017,1000,2.94,-1.074,2.713,1126.2,blue,260,TRUE
446,1661300878.34,4109.2661233008985,2806.1934425991703,1000,1.427,-1.393,-1.378,124.9,yellow,260,TRUE
447,1661300878.465,7058.0024395521605,1037.8488668658931,1000,0.092,-1.228,0.201,1110.7,green,260,TRUE
448,1661300884.016,5583.5394766219115,2088.0412845504616,1000,2.977,-1.072,2.676,1112.3,blue,260,TRUE
449,1661300885.128,4272.183715067215,2929.263033436757,1000,0.013,-1.396,-1.264,1095.0,yellow,260,TRUE
450,1661300885.128,5665.367619943303,1983.31703853917,1000,0.013,-1.396,-1.264,1095.0,green,260,TRUE
451,1661300885.128,5201.374588997204,2298.899856705711,1000,0.013,-1.396,-1.264,1095.0,green,260,TRUE
452,1661300887.333,5728.036261268806,2052.7948472489584,1000,3.005,-1.064,2.681,1126.1,blue,260,TRUE
453,1661300888.444,4108.976521004626,2787.7556707269473,1000,1.307,-1.395,-1.418,124.9,yellow,260,TRUE
454,1661300888.553,5578.462231068948,2061.054643243234,1000,5.307,-1.217,-0.116,125.3,green,260,TRUE
455,1661300889.803,5757.7958087396255,2077.5665433167105,1000,3.069,-1.136,2.631,1142.1,blue,260,TRUE
456,1661300890.929,4046.6173992366116,2748.2901590705483,1000,1.32,-1.395,-1.475,125.0,yellow,260,TRUE
457,1661300891.054,6539.196022324688,1204.6467262201168,1000,5.228,-1.293,-0.143,1097.9,green,260,TRUE
458,1661300894.308,4295.833560948058,2578.4205928945657,1000,1.297,-1.373,-1.331,1142.0,yellow,260,TRUE
459,1661300896.592,5661.889639108727,2145.5606000692046,1000,3.05,-1.16,2.771,1126.7,blue,260,TRUE
460,1661300897.703,4244.940133429856,2612.2353562610865,1000,1.273,-1.368,-1.34,125.0,yellow,260,TRUE
461,1661300897.859,5313.807828337074,1602.111849752677,1000,2.739,-1.202,1.18,1079.6,green,260,TRUE
462,1661300902.317,4985.374473514101,1742.7048878783141,1000,3.126,-1.245,2.707,1095.1,blue,260,TRUE
463,1661300903.412,3968.039205526087,2740.529689024824,1000,1.301,-1.372,-1.354,1079.3,yellow,260,TRUE
464,1661300906.713,4110.186715590057,2749.0141242194895,1000,1.295,-1.372,-1.366,126.4,yellow,260,TRUE
465,1661300906.839,6169.850160628485,2522.130054609555,1000,5.995,-1.477,-0.025,1093.5,green,260,TRUE
466,1661300908.934,5177.495682797924,2539.711306886891,1000,2.745,-1.088,2.614,1157.1,blue,260,TRUE
467,1661300910.107,7087.3477875162625,881.3129130593055,1000,0.024,-1.676,0.056,1112.7,yellow,260,TRUE
468,1661300910.107,6628.03462759568,1701.8600855354512,1000,0.024,-1.676,0.056,1112.7,green,260,TRUE
469,1661300910.107,6780.764842852933,1428.4865189899747,1000,0.024,-1.676,0.056,1112.7,green,260,TRUE
470,1661300912.344,5234.412151138318,2471.0117837001803,1000,2.735,-1.14,2.606,1140.4,blue,260,TRUE
471,1661300913.469,5674.361148904929,1813.8270529232566,1000,1.274,-1.371,-1.138,125.0,yellow,260,TRUE
472,1661300913.594,7251.340633024668,1004.5602505787324,1000,5.957,-1.335,0.314,1110.3,green,260,TRUE
473,1661300916.849,4469.833932413042,3320.791494912139,1000,1.276,-1.371,-1.156,1141.9,yellow,260,TRUE
474,1661300919.101,5389.43389929536,1727.847683642347,1000,2.74,-1.139,2.694,1124.8,blue,260,TRUE
475,1661300920.226,3629.8709740727513,2353.173105873378,1000,0.964,-1.371,-1.401,1112.3,yellow,260,TRUE
476,1661300920.226,8652.165784704903,1778.2233222121952,1000,0.964,-1.371,-1.401,1112.3,green,260,TRUE
477,1661300920.226,9119.173377811436,2036.0672709095077,1000,0.964,-1.371,-1.401,1112.3,green,260,TRUE
478,1661300922.402,5311.8882476650215,1989.664624976445,1000,2.758,-1.132,2.615,109.3,blue,260,TRUE
479,1661300922.496,4392.185698502693,1967.0872056788523,1000,2.173,1.232,1.371,124.9,red,260,TRUE
480,1661300922.621,3946.0975023123165,2527.0288718657994,1000,1.107,-1.355,-1.274,1079.5,yellow,260,TRUE
481,1661300924.825,5385.293070104005,2053.3881927329235,1000,2.791,-1.173,2.62,1126.3,blue,260,TRUE
482,1661300925.935,4000.914724794862,2688.8771405166763,1000,0.872,-1.405,-1.138,109.2,yellow,260,TRUE
483,1661300926.029,8670.584180998823,1899.2914651311494,1000,6.195,-1.437,0.476,126.7,green,260,TRUE
484,1661300927.251,5353.393541235034,2006.8839780343847,1000,2.835,-1.271,2.751,109.4,blue,260,TRUE
485,1661300927.345,4862.925524605269,1716.9613614899833,1000,2.423,1.253,1.07,124.9,red,260,TRUE
486,1661300927.454,3966.2486413739553,2616.534478357247,1000,0.909,-1.402,-1.086,109.7,yellow,260,TRUE
487,1661300927.548,8360.577347528433,1731.5775016643092,1000,6.199,-1.403,0.361,109.4,green,260,TRUE
488,1661300928.769,5418.266741306761,2093.12259274365,1000,2.99,-1.212,2.886,1124.7,blue,260,TRUE
489,1661300929.878,3965.198652734911,2825.647430401409,1000,6.224,-1.441,-2.049,126.5,yellow,260,TRUE
490,1661300931.147,5308.121700014691,2120.7260661116075,1000,3.33,-1.309,2.523,1142.0,blue,260,TRUE
491,1661300932.273,4470.142222848621,3220.969949700748,1000,0.437,-1.392,-1.149,109.4,yellow,260,TRUE
492,1661300932.367,5891.991635058197,1171.4840032331895,1000,4.929,-1.331,-0.008,124.9,green,260,TRUE
493,1661300933.555,5310.81953847406,2163.216149911385,1000,2.581,-1.262,3.004,109.4,blue,260,TRUE
494,1661300933.649,4588.8301164428085,1769.2499195196112,1000,2.176,1.149,1.417,125.0,red,260,TRUE
495,1661300933.774,7034.776207332638,4816.755907712993,1000,0.765,-1.392,-1.534,1079.3,yellow,260,TRUE
496,1661300935.964,5251.185028261377,2146.137222359686,1000,1.88,-1.205,2.742,1127.9,blue,260,TRUE
497,1661300937.076,6783.116465054212,4788.217578117372,1000,0.882,-1.032,-3.006,109.3,yellow,260,TRUE
498,1661300937.17,5847.379120975516,1436.7272855516512,1000,5.282,-1.52,-0.009,124.9,green,260,TRUE
499,1661300938.359,5203.81044263075,2217.0007362093884,1000,1.827,-1.254,2.771,109.4,blue,260,TRUE
500,1661300938.453,4737.427026138944,2119.8134644759434,1000,5.14,1.318,1.3,109.3,red,260,TRUE
501,1661300938.546,6649.0853550484,4763.544454042297,1000,0.966,-1.073,-2.935,109.6,yellow,260,TRUE
502,1661300938.64,5829.454012366498,1530.2087083943704,1000,5.264,-1.53,-0.013,109.3,green,260,TRUE
503,1661300939.874,5226.470409312091,2314.377465287062,1000,1.805,-1.263,2.724,1126.3,blue,260,TRUE
504,1661300940.985,6349.398712914827,4732.107513782005,1000,2.485,-1.516,-3.12,109.4,yellow,260,TRUE
505,1661300941.079,5812.814178231396,1536.0359401273708,1000,5.179,-1.479,-0.033,126.6,green,260,TRUE
506,1661300942.269,5146.685676511206,2330.609593209865,1000,1.36,-1.287,2.902,109.4,blue,260,TRUE
507,1661300942.363,5058.96295878772,2295.800195969465,1000,6.1,1.357,0.898,125.0,red,260,TRUE
508,1661300942.488,5065.025639503138,4718.200496806253,1000,3.77,-1.405,-3.124,1093.5,yellow,260,TRUE
509,1661300943.739,5267.605029753963,2450.7901014370277,1000,1.441,-1.278,2.807,109.4,blue,260,TRUE
510,1661300943.833,5183.6568196197195,2549.399680340866,1000,5.471,1.364,1.554,109.4,red,260,TRUE
511,1661300943.926,4311.0952780288635,5123.736455632637,1000,4.812,-1.335,-1.144,109.3,yellow,260,TRUE
512,1661300944.02,5714.426759845732,1552.57765917943,1000,5.031,-1.494,-0.048,109.4,green,260,TRUE
513,1661300944.301,5271.6897220616875,2619.8768751412554,1000,1.467,-1.283,2.842,109.3,blue,260,TRUE
514,1661300944.395,4965.814813668219,2825.3597042800525,1000,5.023,1.308,1.282,109.3,red,260,TRUE
515,1661300944.489,4084.8233804160095,5576.632999096076,1000,5.544,-1.365,-1.524,126.3,yellow,260,TRUE
516,1661300944.599,5655.199486307626,1568.5890924988764,1000,4.866,-1.465,-0.104,109.3,green,260,TRUE
517,1661300944.896,5387.746367717596,2727.471957757955,1000,1.478,-1.281,2.857,110.9,blue,260,TRUE
518,1661300944.991,4667.19137385444,3202.6842806554682,1000,4.935,1.27,1.105,109.4,red,260,TRUE
519,1661300945.085,3913.6785315178877,5984.494855935049,1000,5.666,-1.414,-1.296,109.3,yellow,260,TRUE
520,1661300945.179,5589.063672718872,1649.1350498876855,1000,4.813,-1.422,-1.791,109.4,green,260,TRUE
521,1661300945.444,5563.918517496507,2788.962479581227,1000,1.477,-1.275,2.863,109.3,blue,260,TRUE
522,1661300945.538,4903.595288792573,3362.265309879347,1000,4.181,1.3,1.442,109.3,red,260,TRUE
523,1661300945.632,3786.588174003563,6316.658707803228,1000,5.634,-1.407,-1.257,109.4,yellow,260,TRUE
524,1661300945.726,5543.751579251631,1646.6631179622937,1000,4.781,-1.396,-1.881,109.3,green,260,TRUE
525,1661300945.991,5665.277094490396,2893.397557446802,1000,1.475,-1.275,2.866,124.9,blue,260,TRUE
526,1661300946.116,5079.42481010077,2916.553870539422,1000,3.88,1.331,1.098,1095.2,red,260,TRUE
527,1661300947.196,5488.95327508402,1655.6890149047874,1000,5.271,-1.41,-1.749,109.4,green,260,TRUE
528,1661300951.748,5639.678177079986,2958.1436544321646,1000,1.631,-1.277,2.778,126.2,blue,260,TRUE
529,1661300951.858,5365.814304950774,2252.9527970985423,1000,3.918,1.132,2.61,125.3,red,260,TRUE
530,1661300952.998,5407.484285340294,1628.7152979051796,1000,5.164,-1.381,-1.413,1156.0,green,260,TRUE
531,1661300955.155,5705.267380768797,2896.1950231070928,1000,1.549,-1.275,2.745,1129.5,blue,260,TRUE
532,1661300956.269,3963.29623922319,5837.321450436025,1000,2.291,-1.511,-3.086,125.0,yellow,260,TRUE
533,1661300956.394,5342.096654050425,1742.571103044911,1000,4.59,-1.437,-1.176,1110.6,green,260,TRUE
534,1661300958.52,5664.288200155454,2889.6266184296887,1000,1.312,-1.325,2.653,1157.5,blue,260,TRUE
535,1661300959.662,4078.1296464739826,5740.341141467551,1000,0.454,-1.442,-2.404,125.3,yellow,260,TRUE
536,1661300959.787,5488.89053340267,1591.4102675855772,1000,4.542,-1.467,-0.091,1095.1,green,260,TRUE
537,1661300960.976,5598.148515516889,2977.110574713237,1000,1.338,-1.361,2.649,125.0,blue,260,TRUE
538,1661300961.101,5540.171950263834,2759.4575501180966,1000,3.36,1.266,1.033,1079.5,red,260,TRUE
539,1661300962.165,5407.801291766909,1636.7564773386312,1000,4.526,-1.451,-0.658,109.2,green,260,TRUE
540,1661300962.446,5396.485829309843,2995.4833341209014,1000,1.416,-1.396,2.631,109.6,blue,260,TRUE
541,1661300962.54,5558.201526553997,2852.2010484403145,1000,3.341,1.268,1.106,125.0,red,260,TRUE
542,1661300962.649,4577.1327826868355,5629.747927330726,1000,0.952,-1.441,-2.094,126.5,yellow,260,TRUE
543,1661300962.76,5376.250528520144,1650.7852274787926,1000,4.532,-1.449,-0.649,109.3,green,260,TRUE
544,1661300965.134,5010.1235229679005,5333.151981634574,1000,0.906,-1.442,-1.707,1143.7,yellow,260,TRUE
545,1661300967.342,5278.9692393505775,2983.3671524396395,1000,1.105,-1.311,2.607,109.0,blue,260,TRUE
546,1661300967.435,5619.164539186523,2777.9563920064206,1000,3.162,1.21,1.196,125.0,red,260,TRUE
547,1661300967.56,5116.627575725543,4055.3028563843636,1000,3.055,-1.406,-1.897,1079.5,yellow,260,TRUE
548,1661300969.765,5436.701504471644,2982.791283232275,1000,1.066,-1.307,2.682,1143.7,blue,260,TRUE
549,1661300970.893,5109.876923498762,3712.3988886108473,1000,1.452,-1.331,-1.565,109.2,yellow,260,TRUE
550,1661300970.986,5371.59526931317,1653.641319293177,1000,4.434,-1.41,-0.492,124.9,green,260,TRUE
551,1661300971.3,5293.763808897627,3100.003290566352,1000,1.106,-1.322,2.664,109.7,blue,260,TRUE
552,1661300971.394,5634.1149716885375,2696.5678930037884,1000,3.278,1.223,1.289,109.4,red,260,TRUE
553,1661300971.488,5096.186723837088,3600.983216007633,1000,1.658,-1.321,-1.703,124.9,yellow,260,TRUE
554,1661300971.628,5388.638145027091,1611.3978786207026,1000,4.431,-1.409,-0.484,1063.7,green,260,TRUE
555,1661300972.77,5256.242393124175,3137.454936311702,1000,1.096,-1.311,2.69,124.9,blue,260,TRUE
556,1661300972.895,5481.737266956471,2486.2309928203526,1000,3.301,1.234,1.242,1079.4,red,260,TRUE
557,1661300973.959,5378.182931646737,1659.229040307624,1000,4.601,-1.414,-0.341,109.4,green,260,TRUE
558,1661300974.302,4817.274745100698,3044.806015699326,1000,1.043,-1.286,2.797,1063.9,blue,260,TRUE
559,1661300975.351,5141.645611703543,3592.7577488157413,1000,0.873,-1.301,-1.82,109.4,yellow,260,TRUE
560,1661300975.444,5375.03139939244,1677.9954656035163,1000,4.727,-1.481,-0.065,124.9,green,260,TRUE
561,1661300976.742,5497.059059380572,2452.2317390700737,1000,3.3,1.239,1.277,109.4,red,260,TRUE
562,1661300976.836,5156.266275839662,3640.383487392329,1000,1.024,-1.326,-1.946,125.3,yellow,260,TRUE
563,1661300976.961,5814.677562544966,1548.9165153897402,1000,4.984,-1.23,-0.016,1079.4,green,260,TRUE
564,1661300978.119,4925.512867333799,2926.7024864548785,1000,2.307,-1.355,2.271,124.9,blue,260,TRUE
565,1661300978.228,5462.595040588242,2412.746315287705,1000,4.773,1.381,1.259,125.0,red,260,TRUE
566,1661300978.353,5352.663643900222,3561.2205484768697,1000,0.85,-1.276,-2.105,1079.8,yellow,260,TRUE
567,1661300979.636,4913.153520312298,2607.614179854977,1000,0.02,1.117,1.163,1110.6,blue,260,TRUE
568,1661300979.636,5325.00620799832,2461.3960751712066,1000,0.02,1.117,1.163,1110.6,red,260,TRUE
569,1661300979.636,5242.67852143351,2490.641882085621,1000,0.02,1.117,1.163,1110.6,red,260,TRUE
570,1661300980.731,5301.07227549502,3518.4455887444838,1000,0.676,-1.178,-2.271,109.4,yellow,260,TRUE
571,1661300980.824,5692.790393995534,1563.53228227706,1000,4.902,-1.337,-0.033,124.9,green,260,TRUE
572,1661300982.03,5183.407260563614,2503.3881759519445,1000,2.026,-1.299,2.701,109.4,blue,260,TRUE
573,1661300982.124,5225.6951334928435,2428.2128852830865,1000,4.854,1.234,1.667,125.0,red,260,TRUE
574,1661300982.233,5266.234341197269,3507.557127195037,1000,0.694,-1.215,-2.22,109.7,yellow,260,TRUE
575,1661300982.327,5783.4206210583325,1579.2611080463946,1000,5.193,-1.352,0.437,109.3,green,260,TRUE
576,1661300982.608,5194.285551592563,2544.408140255722,1000,2.035,-1.322,2.726,109.4,blue,260,TRUE
577,1661300982.702,5149.477573215452,2414.231907853993,1000,5.461,1.321,1.826,109.4,red,260,TRUE
578,1661300982.796,5240.8661736394915,3559.77123833218,1000,1.299,-1.353,-2.008,109.7,yellow,260,TRUE
579,1661300982.89,5766.581823722139,1606.8056045806525,1000,5.049,-1.467,-0.007,109.3,green,260,TRUE
580,1661300983.28,5243.737693541128,3574.095298266402,1000,1.705,-1.358,-1.787,109.5,yellow,260,TRUE
581,1661300983.374,5829.9212154492,1564.787883887653,1000,4.937,-1.444,-1.047,109.3,green,260,TRUE
582,1661300983.655,8335.825292279562,1532.423442051382,1000,2.373,-1.364,2.455,109.3,blue,260,TRUE
583,1661300983.749,4761.561355197798,2555.240604009734,1000,5.68,1.343,1.714,124.7,red,260,TRUE
584,1661300983.858,5258.614228303127,3555.109038778923,1000,1.633,-1.395,-2.027,109.4,yellow,260,TRUE
585,1661300983.952,5853.37066011273,1543.2425458184296,1000,4.74,-1.325,-1.613,109.4,green,260,TRUE
586,1661300984.233,6579.758266515263,2130.46238176114,1000,2.748,-1.331,2.367,109.3,blue,260,TRUE
587,1661300984.327,4697.803279754267,2440.3829061628576,1000,6.271,1.385,1.286,109.4,red,260,TRUE
588,1661300984.42,5263.919427622384,3533.5437494678263,1000,1.71,-1.407,-2.115,109.3,yellow,260,TRUE
589,1661300984.514,5879.0481405129785,1585.7003763159403,1000,4.885,-1.301,-1.791,109.4,green,260,TRUE
590,1661300984.795,6194.2802819762355,2195.235683538238,1000,2.566,-1.347,2.472,109.4,blue,260,TRUE
591,1661300984.889,4660.464788864099,2403.385836031734,1000,6.282,1.401,1.192,109.3,red,260,TRUE
592,1661300984.983,5256.686542434686,3486.0581670387423,1000,1.725,-1.409,-1.868,109.3,yellow,260,TRUE
593,1661300985.076,5966.496016120117,1589.8922988622608,1000,4.945,-1.306,-1.919,109.4,green,260,TRUE
594,1661300985.373,5903.902309825015,2318.525191836163,1000,2.567,-1.356,2.483,124.9,blue,260,TRUE
595,1661300985.467,4619.617242130494,2439.7404567220833,1000,0.128,1.385,0.95,109.3,red,260,TRUE
596,1661300985.561,5265.359314858174,3464.1830196882124,1000,1.869,-1.386,-1.523,124.9,yellow,260,TRUE
597,1661300985.686,6056.975896302257,1871.6184694314607,1000,4.992,-1.316,-2.035,1081.1,green,260,TRUE
