,timestamp,x,y,z,yaw,roll,pitch,latency,student,session,success
0,1661318188.096,2757.5000687154516,-1383.2345080249404,1000,5.756,-1.164,0.165,1127.7,green,263,TRUE
1,1661318189.224,2368.1167600392105,3340.710222517024,1000,4.094,-1.379,-0.192,124.7,blue,263,TRUE
2,1661318189.349,2603.9112779800394,4033.177166910319,1000,0.149,1.336,0.999,1094.9,red,263,TRUE
3,1661318190.428,2784.5576757782,-1541.733216880125,1000,6.135,-1.198,0.053,109.4,green,263,TRUE
4,1661318191.633,2701.4270416365107,4072.3745551063034,1000,0.046,1.34,0.864,125.0,red,263,TRUE
5,1661318191.758,3209.239632438757,-1281.0176295240208,1000,5.26,-1.496,0.048,1110.8,yellow,263,TRUE
6,1661318195.011,2869.276758099822,3712.7842792791544,1000,6.232,1.33,0.927,1126.0,red,263,TRUE
7,1661318196.122,2879.724100634367,-1438.692405743345,1000,5.829,-1.175,0.156,124.7,green,263,TRUE
8,1661318198.374,2844.5220251057685,3773.6661676306376,1000,0.021,1.331,0.946,109.7,red,263,TRUE
9,1661318198.468,3406.464809694108,-1359.4238251489878,1000,4.865,-1.491,3.134,125.3,yellow,263,TRUE
10,1661318198.859,2610.2411673479264,4175.2765517922535,1000,0.021,1.117,0.935,1110.6,blue,263,TRUE
11,1661318198.859,2797.6978732616703,3854.003114594878,1000,0.021,1.117,0.935,1110.6,red,263,TRUE
12,1661318198.859,2766.535815844085,3907.3975917085877,1000,0.021,1.117,0.935,1110.6,red,263,TRUE
13,1661318199.954,3426.898499385597,-1435.1690666614477,1000,4.519,-1.524,-3.135,109.4,yellow,263,TRUE
14,1661318200.047,2827.228626585195,-1519.2366061919706,1000,5.802,-1.117,0.123,124.9,green,263,TRUE
15,1661318200.344,2556.033341000567,3640.6018635619707,1000,4.027,-1.246,-0.327,109.4,blue,263,TRUE
16,1661318200.438,2791.316700601806,3879.9052584109863,1000,6.115,1.33,1.067,109.4,red,263,TRUE
17,1661318200.532,3413.2795802850464,-1501.595737057709,1000,4.525,-1.523,-3.137,109.3,yellow,263,TRUE
18,1661318200.625,2633.4855004355536,-1510.1323692891735,1000,5.803,-1.138,0.201,125.0,green,263,TRUE
19,1661318201.859,2587.721452315279,3649.5017354335882,1000,3.941,-1.383,-0.543,109.4,blue,263,TRUE
20,1661318201.953,2779.6309329489027,3857.881963324022,1000,6.128,1.33,1.011,125.0,red,263,TRUE
21,1661318202.078,3315.7019625578414,-1758.6195428089611,1000,4.743,-1.545,3.125,1079.4,yellow,263,TRUE
22,1661318203.345,2534.526270361045,3563.128758187235,1000,3.951,-1.391,-0.547,111.3,blue,263,TRUE
23,1661318203.44,2696.7013204235495,4025.810970912303,1000,6.135,1.332,1.004,109.7,red,263,TRUE
24,1661318203.534,3407.695529939313,-1605.878800235495,1000,4.725,-1.561,0.008,109.3,yellow,263,TRUE
25,1661318203.628,2708.953139237656,-1468.859234861442,1000,5.859,-1.174,0.205,126.4,green,263,TRUE
26,1661318204.879,2557.3837340955515,3597.0127523621354,1000,3.964,-1.383,-0.503,109.3,blue,263,TRUE
27,1661318204.973,2691.2498070704314,4024.214801697728,1000,6.279,1.329,0.892,126.4,red,263,TRUE
28,1661318205.099,3475.123290386425,-1475.3243753358897,1000,4.684,-1.53,0.0,1093.5,yellow,263,TRUE
29,1661318207.303,2490.95856236812,3641.475461382946,1000,3.998,-1.354,-0.411,1128.0,blue,263,TRUE
30,1661318208.416,3413.6563938693766,-1567.148877381976,1000,4.727,-1.52,0.025,125.0,yellow,263,TRUE
31,1661318208.541,2894.632101502547,-1511.4191687885607,1000,0.011,-1.396,0.131,1096.4,green,263,TRUE
32,1661318209.7,2494.438706231918,3483.712222206179,1000,4.015,-1.359,-0.411,124.9,blue,263,TRUE
33,1661318209.809,2716.5196059866716,3983.044459615309,1000,6.245,1.318,0.963,125.3,red,263,TRUE
34,1661318209.949,5277.3798984949835,-2050.6523775721635,1000,5.821,-1.137,0.145,1094.9,yellow,263,TRUE
35,1661318209.949,2207.6113451624087,-962.3509330832969,1000,5.821,-1.137,0.145,1094.9,green,263,TRUE
36,1661318209.949,1978.0643986834632,-779.0752613247923,1000,5.821,-1.137,0.145,1094.9,green,263,TRUE
37,1661318213.295,1985.8987746748567,3066.0460168942086,1000,4.531,-1.512,-0.052,1144.9,yellow,263,TRUE
38,1661318215.504,2506.542186190874,3508.0405653195485,1000,4.001,-1.407,-0.553,109.6,blue,263,TRUE
39,1661318215.598,2750.8860704802896,3948.7971510971315,1000,6.163,1.311,0.924,125.0,red,263,TRUE
40,1661318215.707,2432.6502266452967,1499.4862769562385,1000,4.524,-1.532,0.003,109.6,yellow,263,TRUE
41,1661318215.801,2217.911923341394,-947.3841056333652,1000,5.856,-1.124,0.146,124.9,green,263,TRUE
42,1661318218.178,2406.5747217954477,-1110.0479914838331,1000,5.875,-1.133,0.151,1143.3,green,263,TRUE
43,1661318219.448,2285.999779918438,726.7417321509811,1000,4.313,-1.522,-0.047,109.4,yellow,263,TRUE
44,1661318219.542,2457.60816083778,-1131.3626719609967,1000,5.973,-1.158,0.213,93.7,green,263,TRUE
45,1661318220.76,11165.315408938117,3044.7350684081507,1000,4.045,-1.42,-0.479,1126.3,blue,263,TRUE
46,1661318221.871,2503.315203819618,263.35702305881836,1000,4.607,-1.564,-3.135,125.0,yellow,263,TRUE
47,1661318222.183,6815.544407145481,3151.9807336756394,1000,4.052,-1.415,-0.446,109.3,blue,263,TRUE
48,1661318222.277,2709.14226977612,3983.0723652572783,1000,6.031,1.324,1.104,109.4,red,263,TRUE
49,1661318222.371,2663.6883866647095,-21.43179697681228,1000,5.103,-1.467,0.091,109.5,yellow,263,TRUE
50,1661318222.465,2743.3835321242414,-1597.395907861657,1000,5.817,-1.167,0.117,124.9,green,263,TRUE
51,1661318223.702,5286.804289484971,3154.2639508360403,1000,4.055,-1.416,-0.453,1157.5,blue,263,TRUE
52,1661318231.501,2937.947431351179,3736.2266720530793,1000,6.223,1.307,0.833,1126.6,red,263,TRUE
53,1661318234.754,4599.374119292438,3210.6687002302524,1000,4.068,-1.421,-0.432,124.9,blue,263,TRUE
54,1661318234.895,3575.068420980161,-1637.815426517421,1000,5.135,-1.475,0.076,1095.2,red,263,TRUE
55,1661318234.895,2379.951849286695,47.39165610529142,1000,5.135,-1.475,0.076,1095.2,yellow,263,TRUE
56,1661318234.895,3193.5157691953896,-1589.3004280337627,1000,5.135,-1.475,0.076,1095.2,yellow,263,TRUE
57,1661318235.974,2835.3519389184858,-1572.830507142972,1000,5.883,-1.116,0.131,124.9,green,263,TRUE
58,1661318237.225,4196.941486804766,3291.057412918058,1000,4.28,-1.293,-0.068,1141.7,blue,263,TRUE
59,1661318238.352,3243.720244520149,-1605.7930489924186,1000,5.069,-1.48,0.087,126.7,yellow,263,TRUE
60,1661318238.681,3947.123088175033,3279.7700340303377,1000,4.411,-1.288,-0.023,109.4,blue,263,TRUE
61,1661318238.775,3154.6415132762295,1090.0060479157692,1000,0.149,1.299,0.083,109.4,red,263,TRUE
62,1661318238.869,3533.998845084137,-1621.742690231985,1000,5.103,-1.463,0.107,125.0,yellow,263,TRUE
63,1661318238.994,5169.692648245043,7599.595064490613,1000,0.044,-0.53,0.317,1124.7,green,263,TRUE
64,1661318240.181,2559.0023246739825,3306.2815524012153,1000,4.374,-1.322,-0.082,109.4,blue,263,TRUE
65,1661318240.275,3001.490782171991,2002.9028883919966,1000,0.156,1.248,0.14,109.3,red,263,TRUE
66,1661318240.368,3565.6822854567677,-1617.5234779583263,1000,5.112,-1.46,0.11,125.8,yellow,263,TRUE
67,1661318240.494,6058.173692831408,7422.43947363928,1000,0.009,-0.559,0.32,1125.0,green,263,TRUE
68,1661318241.697,2607.144075111734,3310.617617997477,1000,4.408,-1.31,-0.069,125.2,blue,263,TRUE
69,1661318241.822,2821.6657296432804,3874.0868169736023,1000,0.314,1.222,0.11,1095.0,red,263,TRUE
70,1661318242.902,4561.330092040463,2945.1699945816263,1000,5.982,-1.138,0.153,109.4,green,263,TRUE
71,1661318244.184,2774.0625146293514,3881.980667146652,1000,0.07,1.264,0.094,109.4,red,263,TRUE
72,1661318244.278,3530.805214295125,-1646.099388570591,1000,5.131,-1.433,1.272,124.9,yellow,263,TRUE
73,1661318245.513,2497.1627891440235,3234.3050593783987,1000,4.248,-1.299,-0.355,1141.9,blue,263,TRUE
74,1661318246.64,3513.6813867180663,-1628.3297193655308,1000,4.928,-1.47,0.076,125.0,yellow,263,TRUE
75,1661318246.765,3027.6154579482486,-1509.4095338956588,1000,5.943,-1.142,0.147,1079.6,green,263,TRUE
76,1661318247.922,2485.5186112094802,3124.165066995056,1000,4.23,-1.293,-0.343,124.9,blue,263,TRUE
77,1661318248.031,2654.1240398988975,3752.3434018454154,1000,6.194,1.312,0.129,109.8,red,263,TRUE
78,1661318248.125,3490.7135787948846,-1630.1864816556206,1000,5.097,-1.484,0.083,109.3,yellow,263,TRUE
79,1661318248.219,3188.000949086497,-1410.7249217931053,1000,5.934,-1.173,0.146,109.7,green,263,TRUE
80,1661318248.486,2519.451014191,3020.0443698422746,1000,4.237,-1.294,-0.344,109.4,blue,263,TRUE
81,1661318248.58,2591.5557139468365,3690.1339724615627,1000,6.194,1.309,0.125,109.4,red,263,TRUE
82,1661318248.674,3456.0688396952683,-1610.2432225290738,1000,4.923,-1.504,3.077,109.4,yellow,263,TRUE
83,1661318248.767,3151.8078899107154,-1422.2216484998235,1000,5.913,-1.155,0.124,109.3,green,263,TRUE
84,1661318250.001,2463.656891031215,3082.096451254345,1000,4.238,-1.277,-0.363,1140.4,blue,263,TRUE
85,1661318251.126,3425.8549712693766,-1588.4220284108226,1000,5.008,-1.487,0.083,125.0,yellow,263,TRUE
86,1661318252.362,2418.2770405599254,3085.0333440449326,1000,4.238,-1.305,-0.353,109.4,blue,263,TRUE
87,1661318252.456,2563.636161277955,3645.2938986419385,1000,6.198,1.304,0.125,125.0,red,263,TRUE
88,1661318252.581,3349.0551226821985,-1645.0728784892938,1000,5.001,-1.482,3.053,1080.3,yellow,263,TRUE
89,1661318253.848,2397.5074657424907,3070.5217028073585,1000,4.242,-1.305,-0.357,109.7,blue,263,TRUE
90,1661318253.942,2614.3236029413924,3698.018061032059,1000,0.333,1.221,0.109,109.7,red,263,TRUE
91,1661318254.036,3412.964571179319,-1704.1019878107331,1000,5.199,-1.453,3.035,109.3,yellow,263,TRUE
92,1661318254.129,2854.6462284393956,-1633.409603340624,1000,5.922,-1.127,0.145,109.4,green,263,TRUE
93,1661318254.412,2580.4750872680997,3161.9052994914805,1000,4.243,-1.302,-0.358,109.4,blue,263,TRUE
94,1661318254.506,2615.598344398684,3711.959197616918,1000,0.122,1.248,0.179,109.3,red,263,TRUE
95,1661318254.599,3422.403101459642,-1718.0231912134866,1000,5.186,-1.49,3.061,125.0,yellow,263,TRUE
96,1661318254.912,2602.165674786891,3244.9499113351353,1000,4.248,-1.298,-0.339,109.4,blue,263,TRUE
97,1661318255.006,2564.507693477219,3718.9898695015195,1000,0.153,1.241,0.182,109.3,red,263,TRUE
98,1661318255.099,3472.0855274879245,-1653.4396811016425,1000,4.837,-1.553,0.005,109.4,yellow,263,TRUE
99,1661318255.193,2875.366581837144,-1370.8524035462376,1000,5.877,-1.132,0.168,109.0,green,263,TRUE
100,1661318255.474,2563.6713060696748,3273.1909376895205,1000,4.244,-1.362,-0.285,109.4,blue,263,TRUE
101,1661318255.568,2629.238763077416,3808.7488224622393,1000,0.215,1.259,0.168,125.0,red,263,TRUE
102,1661318256.694,4443.239649650316,-356.1075481580153,1000,5.877,-1.149,0.156,1142.1,green,263,TRUE
103,1661318257.914,2951.034035915247,3484.7642088002517,1000,5.116,-1.253,-0.254,1081.1,blue,263,TRUE
104,1661318258.98,3412.3487650268726,-1660.9394699739883,1000,5.195,-1.377,0.115,125.0,yellow,263,TRUE
105,1661318261.231,2858.86258140423,3801.313626098836,1000,5.179,-1.191,-0.175,109.2,blue,263,TRUE
106,1661318261.325,2640.1595956683045,4043.6561634168015,1000,1.828,1.384,0.664,124.9,red,263,TRUE
107,1661318261.45,3503.243387753844,-1424.4212654670055,1000,4.928,-1.421,-0.129,1095.0,yellow,263,TRUE
108,1661318261.45,4333.022082274671,-779.2437128740312,1000,4.928,-1.421,-0.129,1095.0,green,263,TRUE
109,1661318261.45,4125.624408002296,-940.4756446140537,1000,4.928,-1.421,-0.129,1095.0,green,263,TRUE
110,1661318263.671,1050.8848081834435,4214.351956163556,1000,5.175,-1.202,-0.277,1157.8,blue,263,TRUE
111,1661318271.472,2621.2145334278434,4753.081456137453,1000,0.393,1.216,0.695,1126.3,red,263,TRUE
112,1661318272.583,3890.567585351713,-1022.4937197290137,1000,5.914,-1.155,0.117,124.9,green,263,TRUE
113,1661318273.773,1299.2143041282065,4989.466628093046,1000,4.7,-1.151,-0.406,109.4,blue,263,TRUE
114,1661318273.867,2584.095849844722,5336.229756691196,1000,0.365,1.223,0.675,125.0,red,263,TRUE
115,1661318273.992,3354.367227036489,-1610.3306048666848,1000,4.873,-1.48,-0.081,1079.1,yellow,263,TRUE
116,1661318276.213,2273.178691991225,7417.455400516836,1000,4.719,-1.151,-0.395,1110.3,blue,263,TRUE
117,1661318277.306,3449.962807679961,-1750.211415818152,1000,5.195,-1.427,-0.551,110.7,yellow,263,TRUE
118,1661318277.417,2780.132356275939,-1303.0788258611717,1000,5.921,-1.251,0.175,1095.1,green,263,TRUE
119,1661318279.514,817.8190422850947,6269.993166810067,1000,4.718,-1.157,-0.41,1126.1,blue,263,TRUE
120,1661318280.624,3531.3056663694715,-1710.5980972924783,1000,5.269,-1.392,-0.397,125.3,yellow,263,TRUE
121,1661318280.749,7396.329653401563,5467.496813782826,1000,6.273,-0.768,0.365,1126.4,green,263,TRUE
122,1661318282.891,-126.9902483020428,6007.483309564382,1000,4.751,-1.144,-0.41,1110.6,blue,263,TRUE
123,1661318283.986,3533.1537189665464,-1712.8312771114856,1000,5.021,-1.422,-0.747,126.1,yellow,263,TRUE
124,1661318285.253,241.4906523465196,6024.990117504495,1000,4.76,-1.145,-0.404,1110.4,blue,263,TRUE
125,1661318286.348,3472.482238141347,-1720.8624011762197,1000,5.027,-1.421,-0.754,109.3,yellow,263,TRUE
126,1661318286.441,3723.9291186281725,-961.0790999413973,1000,5.738,-1.166,0.064,93.7,green,263,TRUE
127,1661318287.645,582.9127435585484,6197.910236256363,1000,4.775,-1.154,-0.396,1145.0,blue,263,TRUE
128,1661318288.775,3503.341397673963,-1718.9499891406092,1000,5.025,-1.422,-0.806,124.9,yellow,263,TRUE
129,1661318288.947,2729.4921662009483,-1860.2706710996297,1000,5.737,-1.177,0.051,1079.6,green,263,TRUE
130,1661318291.12,3668.132470625802,-1750.3855283794499,1000,5.046,-1.425,-0.802,1124.7,yellow,263,TRUE
131,1661318293.433,2557.212171474836,5914.482233584745,1000,0.311,1.23,0.828,110.5,red,263,TRUE
132,1661318293.528,3609.05749379037,-1712.0315335151552,1000,4.922,-1.474,-0.089,109.3,yellow,263,TRUE
133,1661318293.621,2729.1622694858984,-1643.3632707018721,1000,5.875,-1.238,0.081,110.5,green,263,TRUE
134,1661318294.841,898.2550158229542,6489.604318796414,1000,4.809,-1.19,-0.48,1141.8,blue,263,TRUE
135,1661318295.968,3574.5074849862995,-1687.039792127148,1000,5.138,-1.464,-0.067,109.4,yellow,263,TRUE
136,1661318296.061,2581.5004386758706,-1503.518006267853,1000,5.816,-1.103,0.112,109.3,green,263,TRUE
137,1661318297.234,926.6019827255964,6434.4825117126275,1000,4.826,-1.178,-0.457,94.0,blue,263,TRUE
138,1661318297.313,2551.0055518535432,6541.5902791464505,1000,0.317,1.215,0.783,124.7,red,263,TRUE
139,1661318297.406,3555.770970637346,-1640.4362872812214,1000,5.336,-1.455,-0.048,125.0,yellow,263,TRUE
140,1661318297.703,1443.3913010854096,6825.551681169106,1000,4.832,-1.18,-0.459,110.6,blue,263,TRUE
141,1661318297.797,2520.1729307264436,7141.746707904925,1000,0.317,1.213,0.782,126.5,red,263,TRUE
142,1661318298.925,5008.7829669948605,1876.332819351854,1000,5.808,-1.126,0.128,1171.7,green,263,TRUE
143,1661318301.113,2075.017274975763,7074.869802205866,1000,4.574,-1.297,-0.376,1126.8,blue,263,TRUE
144,1661318302.224,3618.7044893841667,-1606.5259043565056,1000,5.234,-1.512,0.015,109.7,yellow,263,TRUE
145,1661318302.318,4093.761986703956,138.48551665349623,1000,5.815,-1.121,0.106,124.9,green,263,TRUE
146,1661318303.508,2276.3035832356877,7218.535905101632,1000,4.592,-1.304,-0.335,93.8,blue,263,TRUE
147,1661318303.586,2537.982343072677,7592.692360534466,1000,0.433,1.237,0.767,125.3,red,263,TRUE
148,1661318303.711,3589.014956612637,-1808.377544852807,1000,5.595,-1.488,0.021,1095.1,yellow,263,TRUE
149,1661318309.296,2344.8087970075135,7167.772248987375,1000,4.645,-1.294,-0.315,93.3,blue,263,TRUE
150,1661318309.374,2577.042029163235,7560.78265579632,1000,0.394,1.229,0.807,125.0,red,263,TRUE
151,1661318309.483,3571.5371301111636,-1738.3442597164176,1000,5.559,-1.396,0.695,125.0,yellow,263,TRUE
152,1661318309.577,3558.522950244971,-319.59670919764943,1000,5.832,-1.09,0.091,125.0,green,263,TRUE
153,1661318309.874,2281.259153251975,7022.513139131493,1000,4.706,-1.254,-0.29,109.3,blue,263,TRUE
154,1661318309.968,2522.976964354732,7628.909675297632,1000,0.161,1.234,0.783,125.0,red,263,TRUE
155,1661318311.108,3303.7874222027026,-539.8923515885506,1000,5.826,-1.101,0.1,1126.4,green,263,TRUE
156,1661318312.343,2319.5074592431806,6936.835445481449,1000,4.641,-1.228,-0.247,1079.5,blue,263,TRUE
157,1661318316.674,2450.250705439317,7607.285754347949,1000,0.305,1.226,0.846,1142.0,red,263,TRUE
158,1661318317.816,2814.745878625671,-1402.6695510482966,1000,5.789,-1.137,0.172,1096.2,green,263,TRUE
159,1661318318.912,2343.6740948949105,8053.167556191291,1000,4.566,-1.304,-0.425,93.7,blue,263,TRUE
160,1661318318.99,2473.1254845357694,7604.736810165678,1000,0.305,1.222,0.822,124.9,red,263,TRUE
161,1661318322.336,2298.801691178732,7635.301847859245,1000,0.314,1.218,0.817,1155.9,red,263,TRUE
162,1661318325.666,1853.401524327475,6915.811341611585,1000,4.6,-1.295,-0.434,1079.8,blue,263,TRUE
163,1661318326.73,3132.3995048511947,-1907.3368446817522,1000,6.162,-1.542,0.004,109.7,yellow,263,TRUE
164,1661318332.331,1917.1586391288006,6651.717606415527,1000,4.579,-1.317,-0.479,1094.9,blue,263,TRUE
165,1661318333.425,3426.7189836698926,-1399.4245707432317,1000,5.678,-1.451,0.972,1095.0,yellow,263,TRUE
166,1661318335.6,2042.9984956471337,6709.848459739794,1000,4.602,-1.308,-0.458,109.3,blue,263,TRUE
167,1661318335.694,2299.680013774798,7628.328364854772,1000,0.374,1.223,0.804,125.0,red,263,TRUE
168,1661318335.819,3604.369374557317,-1339.2481999409968,1000,5.475,-1.512,0.025,1079.5,yellow,263,TRUE
169,1661318337.07,1958.1012546388183,6668.373993691338,1000,4.605,-1.318,-0.472,94.1,blue,263,TRUE
170,1661318337.148,2283.7506140541955,7657.538773559994,1000,0.384,1.223,0.789,126.2,red,263,TRUE
171,1661318338.274,3940.5944711424695,1.0947757899185717,1000,5.693,-1.162,0.131,1126.5,green,263,TRUE
172,1661318339.463,2022.2402972131795,6658.979693901215,1000,4.624,-1.306,-0.451,125.0,blue,263,TRUE
173,1661318339.588,2267.9101029616363,8030.882618012917,1000,0.432,1.216,0.767,1079.4,red,263,TRUE
174,1661318340.652,3570.435967873422,-453.6293550424089,1000,5.69,-1.143,0.127,93.6,green,263,TRUE
175,1661318341.858,1942.055609885912,6678.846312608024,1000,4.633,-1.305,-0.44,1126.2,blue,263,TRUE
176,1661318343.986,3402.675189871828,-708.3706620612595,1000,5.739,-1.152,0.141,1173.0,green,263,TRUE
177,1661318345.252,2414.8496201603416,7897.678239278088,1000,0.406,1.201,0.772,125.0,red,263,TRUE
178,1661318348.616,2383.413500952721,7854.34157083882,1000,0.425,1.215,0.764,1126.4,red,263,TRUE
179,1661318349.727,3125.0287686641973,-880.4008390210447,1000,5.887,-1.209,0.276,140.5,green,263,TRUE
180,1661318350.931,2412.712722134145,6893.845964614117,1000,5.457,-1.24,-0.233,109.4,blue,263,TRUE
181,1661318351.025,2403.9464899074314,7849.690317686968,1000,0.396,1.23,0.824,124.9,red,263,TRUE
182,1661318351.134,3442.431957187381,-1500.6289388265325,1000,5.476,-1.5,3.072,109.7,yellow,263,TRUE
183,1661318353.385,2362.2898074318273,7003.8690202135185,1000,5.127,-1.285,-0.446,125.0,blue,263,TRUE
184,1661318353.541,2268.3922857798516,7659.417950608396,1000,0.362,1.227,0.84,1079.2,red,263,TRUE
185,1661318356.842,3497.419188083087,-1712.4406919611886,1000,5.048,-1.484,0.024,124.9,yellow,263,TRUE
186,1661318356.982,2939.678732864108,-1531.8178323006628,1000,5.738,-1.144,0.159,1079.9,green,263,TRUE
187,1661318360.204,3150.6291222857094,-1424.7535844382874,1000,5.322,-1.334,-0.109,1079.1,yellow,263,TRUE
188,1661318365.787,3878.072160876935,6583.152123489264,1000,1.319,-1.253,0.07,1141.8,blue,263,TRUE
189,1661318369.134,4569.018744804527,6814.293156282631,1000,1.263,-1.251,-0.136,1126.3,blue,263,TRUE
190,1661318370.245,3197.512492018296,-1332.4990572242627,1000,5.317,-1.316,-0.145,109.4,yellow,263,TRUE
191,1661318373.638,4293.085900592725,-734.0281992816999,1000,5.406,-1.289,-0.075,1141.9,yellow,263,TRUE
192,1661318375.844,4332.518759409058,6764.116647858569,1000,1.302,-1.201,-0.302,109.3,blue,263,TRUE
193,1661318375.938,3144.6280898967707,7515.724338648339,1000,3.882,1.388,0.011,124.7,red,263,TRUE
194,1661318376.047,3977.3541919300146,-992.0495696229746,1000,5.366,-1.348,-0.021,109.7,yellow,263,TRUE
195,1661318376.141,2807.3870775257133,-1288.3988386803849,1000,5.901,-1.167,0.171,109.3,green,263,TRUE
196,1661318377.361,4325.958596663185,6833.438596346831,1000,1.275,-1.244,-0.211,1126.2,blue,263,TRUE
197,1661318378.471,3811.4292838446713,-1076.9916600870538,1000,5.342,-1.337,-0.08,111.0,yellow,263,TRUE
198,1661318378.566,2833.6207708254906,-1265.7195295633296,1000,5.875,-1.155,0.176,125.3,green,263,TRUE
199,1661318379.771,4305.9048567313785,6859.210354658545,1000,1.314,-1.233,-0.197,109.4,blue,263,TRUE
200,1661318379.865,3519.9062028522035,7382.879717936133,1000,3.961,1.407,0.257,124.9,red,263,TRUE
201,1661318379.974,3641.7747489582516,-1178.478956075081,1000,5.396,-1.35,-0.036,109.4,yellow,263,TRUE
202,1661318380.068,2771.238553030624,-1280.608570722178,1000,5.862,-1.165,0.169,109.4,green,263,TRUE
203,1661318381.302,4349.699564016244,6859.960796743576,1000,1.322,-1.228,-0.191,1126.1,blue,263,TRUE
204,1661318382.412,3579.579487614679,-1217.6122149543155,1000,5.22,-1.384,0.451,125.0,yellow,263,TRUE
205,1661318382.537,2603.2552828584226,-1323.3368252862658,1000,5.869,-1.145,0.163,1110.7,green,263,TRUE
206,1661318384.663,4269.301519254573,6789.489267109919,1000,1.335,-1.23,-0.18,1126.2,blue,263,TRUE
207,1661318385.774,3526.37163498417,-1271.367570433353,1000,5.103,-1.393,0.276,109.6,yellow,263,TRUE
208,1661318385.883,3036.8425927094986,-1432.771094734048,1000,5.93,-1.165,0.147,1110.7,green,263,TRUE
209,1661318387.995,3999.9872734390287,6719.111130472879,1000,1.36,-1.246,-0.182,1143.5,blue,263,TRUE
210,1661318389.107,3192.0134034941425,-1495.7789953190547,1000,5.13,-1.419,0.181,125.1,yellow,263,TRUE
211,1661318391.372,3959.1255603605023,6726.23298428874,1000,1.369,-1.235,-0.146,125.0,blue,263,TRUE
212,1661318391.529,3211.8016542670007,-1918.5839552354466,1000,5.15,-1.416,0.196,1063.7,yellow,263,TRUE
213,1661318393.703,3794.020564047692,6723.243619645463,1000,1.366,-1.237,-0.153,1126.1,blue,263,TRUE
214,1661318394.814,3018.5549828861454,-1771.745516157293,1000,5.121,-1.419,0.183,109.3,yellow,263,TRUE
215,1661318394.923,2685.210588671171,-1779.1685737121,1000,5.912,-1.121,0.137,1095.0,green,263,TRUE
216,1661318397.033,3646.8958488136445,6683.20855881964,1000,1.358,-1.23,-0.17,1141.9,blue,263,TRUE
217,1661318398.159,2955.2320445989485,-1727.6526387066722,1000,5.112,-1.406,0.153,109.7,yellow,263,TRUE
218,1661318398.253,2606.134419047963,-1649.3385712844015,1000,5.887,-1.108,0.125,109.7,green,263,TRUE
219,1661318399.473,3450.484256409329,6660.441858731516,1000,1.449,-1.19,-0.172,1111.0,blue,263,TRUE
220,1661318400.568,3024.330784043108,-1656.2336327043213,1000,5.663,-1.455,0.098,125.0,yellow,263,TRUE
221,1661318400.693,2997.66517199861,-1575.9987309225246,1000,5.883,-1.127,0.143,1095.0,green,263,TRUE
222,1661318402.79,3554.483043932744,6670.076770535398,1000,1.457,-1.214,-0.16,1141.8,blue,263,TRUE
223,1661318403.916,3118.0384379455422,-1604.5474999312414,1000,5.565,-1.383,-0.154,125.0,yellow,263,TRUE
224,1661318404.01,2888.391759993564,-1485.5809528405018,1000,6.026,-1.185,0.109,95.2,green,263,TRUE
225,1661318408.578,3650.389590290031,6697.55404489058,1000,1.472,-1.21,-0.146,125.4,blue,263,TRUE
226,1661318408.703,4923.024519327085,6456.719853444511,1000,0.029,31.276,30.839,1095.0,red,263,TRUE
227,1661318408.703,3418.7762925073257,-260.9963961380645,1000,0.029,31.276,30.839,1095.0,yellow,263,TRUE
228,1661318408.703,3703.8959446041167,1134.8719963766093,1000,0.029,31.276,30.839,1095.0,yellow,263,TRUE
229,1661318409.767,2858.67261198738,-1440.5924098592038,1000,5.917,-1.129,0.127,125.0,green,263,TRUE
230,1661318411.017,3767.837878380531,6667.1513310999,1000,1.512,-1.206,-0.166,1140.3,blue,263,TRUE
231,1661318412.142,3823.550173102463,1156.96704642582,1000,5.653,-1.492,0.053,126.5,yellow,263,TRUE
232,1661318412.268,3025.9621363468495,-1673.6686040664802,1000,5.919,-1.126,0.121,1094.7,green,263,TRUE
233,1661318415.473,3938.859940853748,1181.9645859077261,1000,6.004,-1.503,0.063,1143.9,yellow,263,TRUE
234,1661318417.695,3802.3672411342504,6637.410297657363,1000,1.5,-1.23,-0.192,110.9,blue,263,TRUE
235,1661318417.79,4489.562166549771,6604.813813649266,1000,3.905,1.409,0.031,109.4,red,263,TRUE
236,1661318417.884,4082.56521372918,1132.7631564464998,1000,6.189,-1.476,0.079,110.8,yellow,263,TRUE
237,1661318417.979,3000.8984472428538,-1665.493430485446,1000,5.928,-1.114,0.106,109.3,green,263,TRUE
238,1661318422.559,3888.456475330895,6673.768033998943,1000,1.504,-1.221,-0.176,125.3,blue,263,TRUE
239,1661318422.716,10207.519158564119,-3324.555351121546,1000,3.917,1.362,-0.022,93.7,red,263,TRUE
240,1661318422.716,3527.4373099403297,1248.8465960674378,1000,3.917,1.362,-0.022,93.7,green,263,TRUE
241,1661318422.716,3794.9135960565645,2707.2649200683863,1000,3.917,1.362,-0.022,93.7,green,263,TRUE
242,1661318425.03,3819.140206220787,-1447.2941863625501,1000,5.761,-1.514,0.055,1156.0,yellow,263,TRUE
243,1661318428.451,4150.272646144225,-1778.6433317397543,1000,5.58,-1.494,0.028,1140.1,yellow,263,TRUE
244,1661318430.717,4045.124853613275,6758.429027565883,1000,1.584,-1.218,-0.168,1140.3,blue,263,TRUE
245,1661318431.841,3964.149681194214,-1682.4709196780952,1000,5.615,-1.515,0.029,124.7,yellow,263,TRUE
246,1661318431.966,5127.777985128509,6241.878592702816,1000,0.01,-1.396,0.616,1140.6,green,263,TRUE
247,1661318437.543,3802.0919964842424,6679.877032250978,1000,1.564,-1.247,-0.205,1093.6,blue,263,TRUE
248,1661318438.621,3873.8119410899444,-1648.612223484366,1000,5.373,-1.539,0.026,109.6,yellow,263,TRUE
249,1661318438.714,3645.7148921469075,3521.375367730302,1000,6.098,-1.185,0.052,94.1,green,263,TRUE
250,1661318439.933,3646.7670904327383,6661.796475064105,1000,1.506,-1.284,-0.32,1140.4,blue,263,TRUE
251,1661318441.058,3808.467986406883,-1612.1036522943125,1000,5.43,-1.539,3.111,125.1,yellow,263,TRUE
252,1661318443.432,3709.859848975059,-1552.303401565411,1000,5.495,-1.536,0.033,1171.8,yellow,263,TRUE
253,1661318445.744,3632.7422026344816,6677.508507205916,1000,1.539,-1.24,-0.254,1140.4,blue,263,TRUE
254,1661318446.869,3633.428592156813,-1543.3142369126392,1000,5.673,-1.39,0.67,125.0,yellow,263,TRUE
255,1661318446.962,3446.4107565288923,-1423.8331217498326,1000,5.673,-1.39,0.67,1062.2,yellow,263,TRUE
256,1661318453.603,6819.480579078296,-714.568133606303,1000,4.999,1.321,0.567,1156.0,red,263,TRUE
257,1661318456.899,4030.0471466396357,1991.2494466470728,1000,1.734,-1.172,-0.322,109.3,blue,263,TRUE
258,1661318456.993,5846.592924268401,57.00994156174844,1000,3.227,1.278,0.549,109.5,red,263,TRUE
259,1661318457.086,3432.235845788658,-1467.06664334359,1000,5.633,-1.464,-0.035,125.0,yellow,263,TRUE
260,1661318457.18,2721.595159064248,-1476.829289728563,1000,6.096,-1.17,0.111,140.6,green,263,TRUE
261,1661318458.461,4218.909278578614,2062.001909432293,1000,1.802,-1.162,-0.263,1140.2,blue,263,TRUE
262,1661318459.586,3438.811185698068,-1468.6761234867708,1000,5.498,-1.506,0.022,109.3,yellow,263,TRUE
263,1661318459.664,2796.2195726327304,-1457.9437663132944,1000,6.079,-1.144,0.13,124.9,green,263,TRUE
264,1661318464.288,4201.03674174728,2017.5474363729445,1000,1.979,-1.206,-0.263,109.3,blue,263,TRUE
265,1661318464.382,5382.027444971714,440.47165967547,1000,3.491,1.266,0.997,140.4,red,263,TRUE
266,1661318465.537,2706.1645904583343,-1492.1805464829933,1000,6.077,-1.15,0.135,1156.0,green,263,TRUE
267,1661318471.083,4039.7895240408307,2008.81130650886,1000,1.847,-1.167,-0.303,124.9,blue,263,TRUE
268,1661318471.208,3791.2966571853135,1826.049573868688,1000,3.444,1.268,1.421,1109.3,red,263,TRUE
269,1661318472.302,2735.941014440469,-1545.5390102846836,1000,5.622,-1.188,0.075,109.3,green,263,TRUE
270,1661318476.854,3395.325969615642,2216.4415860825457,1000,3.376,1.239,1.443,1126.3,blue,263,TRUE
271,1661318476.854,3593.236605237191,2021.2568417663783,1000,3.376,1.239,1.443,1126.3,red,263,TRUE
272,1661318476.854,3527.224543990766,2086.3263292333945,1000,3.376,1.239,1.443,1126.3,red,263,TRUE
273,1661318477.964,3468.4496478334568,-1493.7234637908261,1000,6.278,-1.467,0.097,109.3,yellow,263,TRUE
274,1661318480.186,3413.014685844658,2063.0193363831186,1000,1.865,-1.176,-0.292,124.9,blue,263,TRUE
275,1661318480.311,3936.0189124208164,1880.78356687707,1000,3.464,1.249,1.323,1095.0,red,263,TRUE
276,1661318483.564,4210.935123423871,2168.5995204081755,1000,0.011,1.117,1.328,1142.0,blue,263,TRUE
277,1661318483.564,4073.443257127405,2024.9887136279615,1000,0.011,1.117,1.328,1142.0,red,263,TRUE
278,1661318483.564,4119.291975651863,2073.1273908611006,1000,0.011,1.117,1.328,1142.0,red,263,TRUE
279,1661318484.706,3825.6040335949406,-1749.5427259452829,1000,6.223,-1.426,0.519,1095.1,yellow,263,TRUE
280,1661318486.88,4222.383968630569,2064.9789318494877,1000,1.908,-1.17,-0.247,94.1,blue,263,TRUE
281,1661318486.959,4103.775578832083,2003.3122528707852,1000,3.462,1.253,1.394,109.0,red,263,TRUE
282,1661318487.052,3768.4118945512346,-1676.9495913940093,1000,5.918,-1.49,0.073,109.7,yellow,263,TRUE
283,1661318487.146,2728.409480467635,-1538.517674518708,1000,5.859,-1.143,0.148,111.3,green,263,TRUE
284,1661318491.717,4233.0858389293635,2043.9434770845983,1000,1.909,-1.165,-0.252,109.3,blue,263,TRUE
285,1661318491.811,4058.4708437129434,1962.9259882211547,1000,3.466,1.241,1.322,124.9,red,263,TRUE
286,1661318491.904,3644.11091434728,-1620.4230525164576,1000,5.926,-1.5,0.021,124.9,yellow,263,TRUE
287,1661318492.014,2762.753298191729,-1538.1681451188088,1000,5.689,-1.194,0.153,109.3,green,263,TRUE
288,1661318493.234,4127.233922618114,1936.6358939556408,1000,1.912,-1.166,-0.243,1110.7,blue,263,TRUE
289,1661318494.329,3601.2234000599046,-1634.6677557748146,1000,5.727,-1.434,1.738,109.3,yellow,263,TRUE
290,1661318494.422,2840.6325005016174,-1507.7205035815539,1000,5.916,-1.172,0.143,125.3,green,263,TRUE
291,1661318495.658,4171.770822016346,2045.673176569093,1000,1.917,-1.166,-0.248,1128.0,blue,263,TRUE
292,1661318496.77,3707.9206153897176,-1651.312113525025,1000,5.784,-1.506,0.012,94.1,yellow,263,TRUE
293,1661318496.849,2766.784201108166,-1476.9459146622155,1000,5.901,-1.154,0.149,124.9,green,263,TRUE
294,1661318501.492,4127.695889326171,2046.366979825335,1000,1.922,-1.168,-0.256,125.0,blue,263,TRUE
295,1661318501.602,4039.7029724243125,1911.9277882997294,1000,3.462,1.199,0.987,140.9,red,263,TRUE
296,1661318502.744,2808.2554163279206,-1407.9705315543854,1000,5.898,-1.145,0.149,1126.4,green,263,TRUE
297,1661318504.886,4077.833562882068,2032.1165135896572,1000,1.896,-1.156,-0.304,1173.0,blue,263,TRUE
298,1661318506.027,3625.0308294377974,-1647.589327756186,1000,4.902,-1.527,-0.035,109.6,yellow,263,TRUE
299,1661318506.121,2811.2257845579156,-1361.3472060718912,1000,5.901,-1.14,0.145,109.5,green,263,TRUE
300,1661318507.343,4079.648859168863,2077.880056358568,1000,1.895,-1.157,-0.313,1141.9,blue,263,TRUE
301,1661318508.469,3533.9962662951425,-1628.9487382054833,1000,4.915,-1.515,-0.035,125.0,yellow,263,TRUE
302,1661318508.578,2853.5290460967785,-1343.9357838797437,1000,5.902,-1.144,0.145,125.3,green,263,TRUE
303,1661318509.814,3954.6559175314155,2142.3666281977294,1000,1.917,-1.172,-0.308,1143.6,blue,263,TRUE
304,1661318510.942,3484.259547080485,-1611.4073910675627,1000,4.919,-1.518,-0.036,124.9,yellow,263,TRUE
305,1661318511.067,2810.6482352126827,-1470.4757307544407,1000,5.896,-1.137,0.133,1110.7,green,263,TRUE
306,1661318513.193,4084.311662888575,2376.0202244194006,1000,1.931,-1.173,-0.286,1124.8,blue,263,TRUE
307,1661318514.302,3516.2031953115206,-1628.9857535599003,1000,4.919,-1.514,-0.039,109.4,yellow,263,TRUE
308,1661318514.395,2705.4890228068753,-1503.8649957215139,1000,5.893,-1.141,0.134,110.8,green,263,TRUE
309,1661318515.57,4045.8482403834655,2311.1414661136428,1000,1.95,-1.166,-0.265,109.4,blue,263,TRUE
310,1661318515.663,3989.2801326258427,1829.50673192841,1000,3.484,1.174,0.877,125.0,red,263,TRUE
311,1661318515.757,3538.1922772652233,-1623.6637885370837,1000,4.924,-1.513,-0.04,126.3,yellow,263,TRUE
312,1661318515.868,2674.4979703821573,-1499.650648026438,1000,5.872,-1.146,0.139,109.3,green,263,TRUE
313,1661318517.102,4085.0863107192877,2268.302157961027,1000,2.051,-1.251,-0.235,1125.9,blue,263,TRUE
314,1661318518.212,3437.0735700975656,-1647.9672372774191,1000,4.92,-1.512,-0.045,93.7,yellow,263,TRUE
315,1661318518.29,2675.2611879910296,-1617.5181157162308,1000,5.868,-1.114,0.123,109.3,green,263,TRUE
316,1661318519.463,4138.169263303787,2336.0934931988845,1000,2.136,-1.11,-0.166,109.4,blue,263,TRUE
317,1661318519.557,3961.7116320786754,1756.6681681113612,1000,3.491,1.209,1.126,125.0,red,263,TRUE
318,1661318519.666,3463.344812479705,-1648.1583264021085,1000,4.979,-1.512,-0.034,109.6,yellow,263,TRUE
319,1661318519.744,2663.6948808489515,-1586.3816897139056,1000,5.872,-1.122,0.109,109.4,green,263,TRUE
320,1661318520.98,4091.232425228469,2365.6325187505213,1000,2.091,-1.067,-0.22,1156.0,blue,263,TRUE
321,1661318522.12,3522.661390430065,-1656.645788637257,1000,5.421,-1.532,0.013,124.7,yellow,263,TRUE
322,1661318522.245,-3847.296732825286,-672.2061440924722,1000,5.87,-1.113,0.116,1095.4,green,263,TRUE
323,1661318524.356,4119.171539843942,2479.6748963052833,1000,2.13,-1.05,-0.195,1143.5,blue,263,TRUE
324,1661318531.162,4514.022571948304,1533.034128922298,1000,3.512,1.246,1.201,1095.4,red,263,TRUE
325,1661318532.226,-518.4989206373637,-1046.6171318701226,1000,5.902,-1.112,0.122,109.4,green,263,TRUE
326,1661318532.476,4074.4400395278803,2382.452819928338,1000,2.131,-1.068,-0.214,109.3,blue,263,TRUE
327,1661318532.569,4195.702743580283,1353.4685697282775,1000,3.5,1.239,1.162,109.3,red,263,TRUE
328,1661318532.663,3555.583303919402,-1671.2345567181007,1000,5.361,-1.515,-0.003,109.4,yellow,263,TRUE
329,1661318532.757,1361.0513086626945,-82.82018408280503,1000,5.904,-1.113,0.121,93.7,green,263,TRUE
330,1661318533.975,4196.053503096936,1401.0120958504049,1000,3.506,1.257,1.321,1126.5,red,263,TRUE
331,1661318535.086,2407.1031939374557,148.54528920314888,1000,5.902,-1.108,0.123,109.0,green,263,TRUE
332,1661318535.257,4069.748810654701,2430.800551692793,1000,2.173,-1.047,-0.224,125.2,blue,263,TRUE
333,1661318535.367,4149.928343654045,1445.0650496911032,1000,3.471,1.257,1.393,125.0,red,263,TRUE
334,1661318537.73,4145.862833862241,1459.5504656280996,1000,3.446,1.261,1.482,125.4,red,263,TRUE
335,1661318537.855,3661.1851414657876,-1481.1174776550877,1000,5.385,-1.51,0.0,1093.4,yellow,263,TRUE
336,1661318539.184,3660.3310201497407,-1543.6591614703357,1000,5.375,-1.493,-0.003,140.7,yellow,263,TRUE
337,1661318539.294,3013.9416271564296,288.5686307848947,1000,5.883,-1.115,0.115,109.3,green,263,TRUE
338,1661318539.512,4152.355828708843,2242.9494679099475,1000,2.111,-1.109,-0.2,109.4,blue,263,TRUE
339,1661318539.606,4126.466537200966,1751.2752129948312,1000,3.483,1.261,1.487,109.4,red,263,TRUE
340,1661318539.7,3624.0548427486665,-1563.76546869093,1000,5.367,-1.502,-0.005,109.3,yellow,263,TRUE
341,1661318539.794,2978.0470988176726,-5.878291799535759,1000,5.882,-1.116,0.116,109.3,green,263,TRUE
342,1661318539.998,4105.568126200615,2148.9726809121084,1000,2.043,-1.156,-0.201,109.7,blue,263,TRUE
343,1661318540.092,4056.0251922930756,1800.8219517738817,1000,3.479,1.258,1.468,109.4,red,263,TRUE
344,1661318540.186,3618.9921569913713,-1579.2219901894423,1000,5.384,-1.518,-0.001,125.0,yellow,263,TRUE
345,1661318542.452,4091.311521875885,2189.3637286141884,1000,2.265,-1.058,-0.136,109.1,blue,263,TRUE
346,1661318542.546,4197.4396825399535,1635.3796912414966,1000,3.504,1.256,1.311,125.3,red,263,TRUE
347,1661318545.939,3739.5860355849877,866.8141855565292,1000,3.515,1.288,1.349,1156.0,red,263,TRUE
348,1661318548.237,4048.8315866718235,2209.5839046314622,1000,2.307,-1.022,-0.223,1141.9,blue,263,TRUE
349,1661318552.646,3743.556457632919,1066.327914054855,1000,3.257,1.365,1.289,1173.1,red,263,TRUE
350,1661318553.82,2976.834786847348,-1550.8777322280025,1000,5.773,-1.163,0.122,1095.0,green,263,TRUE
351,1661318555.917,5238.278109710322,2215.1095370776557,1000,1.956,-1.21,-0.239,1141.9,blue,263,TRUE
352,1661318557.059,3653.4426823531007,-1533.2097439027796,1000,5.356,-1.513,-0.012,1094.9,yellow,263,TRUE
353,1661318559.232,5050.464520452478,2224.1601479784013,1000,2.27,-1.139,-0.069,109.3,blue,263,TRUE
354,1661318559.326,3829.3918238136157,1180.0476989479564,1000,3.302,1.334,1.261,124.9,red,263,TRUE
355,1661318561.657,5111.239554851047,2073.8560743027906,1000,2.603,-1.289,0.163,1126.8,blue,263,TRUE
356,1661318562.768,3588.891325596789,-1530.0126719613284,1000,5.33,-1.516,-0.022,125.0,yellow,263,TRUE
357,1661318562.893,2819.548309577374,-1541.625114287529,1000,5.715,-1.178,0.139,1094.8,green,263,TRUE
358,1661318568.367,5065.955293791202,1979.4425301637496,1000,0.945,-1.169,-0.196,1142.0,blue,263,TRUE
359,1661318569.478,3325.7731866939184,-1564.6938205638517,1000,4.778,-1.338,0.614,125.0,yellow,263,TRUE
360,1661318569.603,2724.395630070798,-1861.1738042087381,1000,5.721,-1.209,0.125,1096.7,green,263,TRUE
361,1661318572.841,3212.6213146845735,-1503.7423427324065,1000,4.878,-1.354,0.583,1156.0,yellow,263,TRUE
362,1661318575.095,3730.1550471433757,1562.3977801338629,1000,0.201,-1.247,-0.597,1095.0,blue,263,TRUE
363,1661318576.19,4043.2669351334985,-2173.3390307641503,1000,4.866,-1.362,0.576,1079.3,yellow,263,TRUE
364,1661318578.394,3350.65932814089,1272.2047402824771,1000,0.051,-1.129,-0.261,1140.4,blue,263,TRUE
365,1661318579.519,3441.9132908997017,-1958.9724415208766,1000,4.609,-1.439,0.62,109.3,yellow,263,TRUE
366,1661318579.643,2557.6293539772128,-1355.6234011938884,1000,6.015,-1.232,0.081,1079.8,green,263,TRUE
367,1661318582.834,3413.908866373927,-1827.697614063456,1000,5.001,-1.475,0.079,125.0,yellow,263,TRUE
368,1661318582.959,2752.0581052479183,-1423.128139528353,1000,6.025,-1.199,0.049,1095.1,green,263,TRUE
369,1661318588.4,4569.568169316229,5679.503297496473,1000,1.805,-1.175,-0.322,109.3,blue,263,TRUE
370,1661318588.494,4130.564266644434,1172.1896552324931,1000,2.377,1.368,0.945,125.1,red,263,TRUE
371,1661318588.604,3429.1281119241257,-1754.4844030904983,1000,5.493,-1.454,0.067,125.3,yellow,263,TRUE
372,1661318589.855,4324.365418386019,5795.496719975032,1000,1.803,-1.164,-0.31,1144.8,blue,263,TRUE
373,1661318590.984,3410.941443369058,-1724.4745941019871,1000,5.298,-1.424,0.444,125.0,yellow,263,TRUE
374,1661318591.109,5696.8444649996,933.2055244755883,1000,5.895,-1.18,0.129,1110.6,green,263,TRUE
375,1661318592.267,4067.252540349518,5847.848486280672,1000,0.831,-1.179,-0.182,93.7,blue,263,TRUE
376,1661318592.345,4438.129787544547,1145.6481156797677,1000,2.345,1.38,1.046,109.3,red,263,TRUE
377,1661318592.439,3404.1620312891887,-1712.951740430581,1000,5.318,-1.441,0.464,109.4,yellow,263,TRUE
378,1661318592.532,5733.995916506097,914.7742730098635,1000,5.897,-1.165,0.047,93.8,green,263,TRUE
379,1661318593.766,4062.5186873580938,6121.643329169203,1000,2.125,-1.367,0.087,1155.9,blue,263,TRUE
380,1661318594.907,3306.5789803761204,-1621.9959371698424,1000,5.397,-1.442,0.567,110.9,yellow,263,TRUE
381,1661318595.002,4762.524602189639,110.31325885133963,1000,5.883,-1.169,0.077,125.3,green,263,TRUE
382,1661318596.206,3984.360146195214,6291.393237569925,1000,2.188,-1.406,-0.029,110.9,blue,263,TRUE
383,1661318596.302,4699.7078274401365,1218.7281756350087,1000,3.107,1.428,-1.874,109.3,red,263,TRUE
384,1661318596.395,3479.866480033794,-1609.0978515768631,1000,5.887,-1.43,0.803,109.4,yellow,263,TRUE
385,1661318596.489,4250.581157041866,-276.8627029352092,1000,5.845,-1.196,0.091,109.4,green,263,TRUE
386,1661318597.695,3922.651807622887,6445.232104405041,1000,2.184,-1.415,-0.023,1109.2,blue,263,TRUE
387,1661318598.789,3513.878151889585,-1591.2154473145292,1000,5.828,-1.418,0.676,125.0,yellow,263,TRUE
388,1661318600.057,4814.50579402483,6536.84770287164,1000,2.206,-1.38,-0.007,1140.4,blue,263,TRUE
389,1661318601.182,3473.539781426038,-1543.4619677932014,1000,5.805,-1.401,0.673,124.9,yellow,263,TRUE
390,1661318601.322,1840.2500743433159,-1653.6898295233455,1000,5.873,-1.187,0.134,1079.7,green,263,TRUE
391,1661318603.417,4789.768639870687,6700.6585788610455,1000,2.519,-1.323,-0.015,1141.8,blue,263,TRUE
392,1661318604.543,3453.1330835944123,-1475.2526071922168,1000,5.806,-1.408,0.64,125.3,yellow,263,TRUE
393,1661318604.652,1982.2448771066634,-1628.5492932061197,1000,5.874,-1.196,0.121,125.3,green,263,TRUE
394,1661318605.89,4820.430010091074,6869.5529983535735,1000,2.255,-1.256,-0.231,1141.7,blue,263,TRUE
395,1661318607.016,3542.09468611179,-1482.760930765399,1000,5.761,-1.409,0.645,109.4,yellow,263,TRUE
396,1661318607.11,2186.916331895815,-1546.0474632624682,1000,5.833,-1.191,0.107,126.6,green,263,TRUE
397,1661318608.33,4803.858108799767,6877.788007958439,1000,2.656,-1.242,-0.086,109.1,blue,263,TRUE
398,1661318608.424,5168.061763271379,1674.652788853742,1000,1.085,1.302,0.613,126.1,red,263,TRUE
399,1661318608.55,3547.9151993191863,-1799.8542955703763,1000,5.355,-1.453,0.05,1093.8,yellow,263,TRUE
400,1661318610.77,4803.694617830438,6820.64560753147,1000,2.285,-1.298,-0.163,1110.9,blue,263,TRUE
401,1661318611.865,2694.935262648194,-1589.586759829117,1000,5.863,-1.474,0.076,125.0,yellow,263,TRUE
402,1661318611.99,2939.1625824497496,-1683.774562827192,1000,5.096,-1.328,-0.112,1095.0,green,263,TRUE
403,1661318614.1,4828.637245144432,6730.957009385347,1000,2.292,-1.261,-0.079,1110.7,blue,263,TRUE
404,1661318615.195,2519.2640974831374,-1361.4402283906918,1000,5.162,-1.535,0.009,109.6,yellow,263,TRUE
405,1661318615.289,4298.0806805118,-479.3020937944836,1000,4.628,-1.367,0.124,95.3,green,263,TRUE
406,1661318616.495,3803.7644240784953,6832.5825825066595,1000,2.335,-1.288,-0.029,1110.4,blue,263,TRUE
407,1661318617.59,2437.6124064654528,-1248.127574335052,1000,5.228,-1.56,-0.008,140.6,yellow,263,TRUE
408,1661318619.842,3763.8242814700393,6811.449191786002,1000,2.202,-1.293,-0.156,93.8,blue,263,TRUE
409,1661318619.92,5110.074563899185,1732.544054961394,1000,1.809,1.332,0.519,126.2,red,263,TRUE
410,1661318620.046,1823.2088384481137,-646.8496431765773,1000,5.04,-1.532,-0.033,1079.5,yellow,263,TRUE
411,1661318622.237,3803.7015306504404,6793.9473927184,1000,2.187,-1.227,-0.267,1140.3,blue,263,TRUE
412,1661318623.361,1970.4669092589616,-788.6904865241265,1000,5.208,-1.502,3.073,109.4,yellow,263,TRUE
413,1661318623.455,4846.677388791652,-109.39593782503668,1000,4.226,-1.431,-0.516,95.2,green,263,TRUE
414,1661318624.675,3897.5961510280954,6779.803301273901,1000,2.229,-1.296,-0.264,1141.7,blue,263,TRUE
415,1661318625.801,2058.2308846632145,-826.2151846607321,1000,5.311,-1.479,0.0,125.0,yellow,263,TRUE
416,1661318628.04,3998.897804491075,6788.940834012922,1000,2.273,-1.283,-0.358,125.0,blue,263,TRUE
417,1661318628.18,2740.4169495460997,3159.113377675513,1000,0.682,1.396,0.352,1079.8,red,263,TRUE
418,1661318629.229,5053.848726831032,487.5359840104917,1000,4.201,-1.221,0.142,93.8,green,263,TRUE
419,1661318630.433,3985.8623073358353,6823.102605484278,1000,2.705,-1.253,-0.08,1124.8,blue,263,TRUE
420,1661318631.542,2110.896953510525,-864.8201810667733,1000,4.957,-1.424,-0.514,93.7,yellow,263,TRUE
421,1661318633.748,4015.667322912926,6798.721710105719,1000,2.633,-1.169,-0.095,125.0,blue,263,TRUE
422,1661318636.11,4127.926630310037,6904.8734441886045,1000,2.891,-1.212,-0.029,1126.4,blue,263,TRUE
423,1661318637.221,2291.4598332319774,-1022.3708691877308,1000,4.914,-1.429,-0.608,109.3,yellow,263,TRUE
424,1661318637.345,5676.471592606641,1288.4827859026059,1000,4.728,-1.287,0.075,1093.8,green,263,TRUE
425,1661318638.486,4164.756798279836,6871.1108801313485,1000,2.057,-1.182,-0.49,111.1,blue,263,TRUE
426,1661318638.581,2607.4441960595886,2990.390830380764,1000,1.009,1.328,0.642,109.3,red,263,TRUE
427,1661318638.675,2314.659896472386,-995.1939415098468,1000,4.933,-1.426,-0.674,93.8,yellow,263,TRUE
428,1661318638.753,5622.0258509629,1423.3696991587926,1000,4.799,-1.238,0.074,93.8,green,263,TRUE
429,1661318643.38,2680.3431546565425,2851.28170692402,1000,0.023,1.117,0.497,1126.3,blue,263,TRUE
430,1661318643.38,2643.9737020298944,2920.7506882349408,1000,0.023,1.117,0.497,1126.3,red,263,TRUE
431,1661318643.38,2655.986019957678,2897.3319969500335,1000,0.023,1.117,0.497,1126.3,red,263,TRUE
432,1661318644.506,2195.256737876715,-1035.6636576148803,1000,4.861,-1.415,-0.535,1082.5,yellow,263,TRUE
433,1661318647.839,2241.831452093862,-1030.5896532432553,1000,4.842,-1.42,-0.696,109.3,yellow,263,TRUE
434,1661318650.201,902.7304227758035,1598.1007270788402,1000,5.231,-1.545,0.011,1157.5,yellow,263,TRUE
435,1661318652.438,2555.75981831089,3875.4399078298,1000,5.301,-1.194,0.043,109.3,blue,263,TRUE
436,1661318652.531,2660.727837175479,2945.818843201932,1000,1.093,1.31,0.406,125.3,red,263,TRUE
437,1661318652.657,3148.544630243191,-799.931938646347,1000,5.287,-1.477,0.077,1065.4,yellow,263,TRUE
438,1661318654.847,2676.068301083782,3609.8301356727407,1000,5.492,-1.227,0.154,1126.4,blue,263,TRUE
439,1661318655.958,2423.0215905700093,-1056.5579624673182,1000,5.036,-1.386,0.658,125.0,yellow,263,TRUE
440,1661318656.083,1961.495263635904,-1474.7723869011904,1000,5.073,-1.211,0.171,1095.0,green,263,TRUE
441,1661318659.319,2239.8872938568375,-1123.9739728756097,1000,5.032,-1.365,0.574,1159.2,yellow,263,TRUE
442,1661318661.587,2749.0066980969773,3561.794109179291,1000,5.313,-1.2,0.04,126.4,blue,263,TRUE
443,1661318661.713,2603.380965057864,3367.014713204979,1000,1.9,1.333,0.211,1078.2,red,263,TRUE
444,1661318662.776,1934.4923113610835,-1530.1862224983324,1000,5.093,-1.206,0.197,93.7,green,263,TRUE
445,1661318667.312,2624.348708156391,3442.33522284963,1000,5.303,-1.221,-0.014,124.9,blue,263,TRUE
446,1661318667.437,2342.757358464432,2850.087617888274,1000,1.414,1.479,3.078,1109.1,red,263,TRUE
447,1661318668.531,1907.7013813242993,-1536.6361143264814,1000,5.904,-1.321,0.216,109.1,green,263,TRUE
448,1661318669.782,2523.3930426834913,2794.32016192122,1000,5.43,-1.217,-0.007,1110.7,blue,263,TRUE
449,1661318670.877,2314.0464834720106,-1108.2038429193535,1000,5.023,-1.319,0.367,109.4,yellow,263,TRUE
450,1661318670.97,1880.1320102836498,-1551.859960484457,1000,5.223,-1.21,0.166,109.6,green,263,TRUE
451,1661318672.144,2492.049385559903,2908.3344996056708,1000,5.456,-1.21,-0.023,109.4,blue,263,TRUE
452,1661318672.238,2570.1690294800046,3046.798359764168,1000,1.536,1.496,0.072,109.3,red,263,TRUE
453,1661318672.332,2171.342834037241,-1123.6924291711218,1000,4.71,-1.466,0.031,124.9,yellow,263,TRUE
454,1661318674.569,2469.111901022423,2789.3915892457185,1000,5.262,-1.208,-0.088,125.0,blue,263,TRUE
455,1661318674.694,2772.932237745103,3444.360849667954,1000,1.772,1.354,0.712,1096.5,red,263,TRUE
456,1661318681.279,2414.148678235141,2820.973576198469,1000,5.336,-1.293,0.024,140.6,blue,263,TRUE
457,1661318681.435,2220.300792099713,-1137.6125961233975,1000,4.961,-1.362,-0.32,109.7,yellow,263,TRUE
458,1661318683.702,2746.6014704984354,2838.1507710212536,1000,2.469,-1.208,-0.195,1142.0,blue,263,TRUE
459,1661318684.844,2536.0486653139355,-1192.9560546384744,1000,4.916,-1.345,-0.333,1081.0,yellow,263,TRUE
460,1661318687.098,3825.1413295853768,2928.7253050896584,1000,4.398,1.366,0.699,109.4,red,263,TRUE
461,1661318687.192,2543.3953141198244,-1202.4930132902323,1000,4.924,-1.347,-0.336,125.0,yellow,263,TRUE
462,1661318689.445,3104.4231466142596,2822.101404568479,1000,2.32,-1.223,-0.476,124.9,blue,263,TRUE
463,1661318689.585,3843.5560179887257,2943.1428179567715,1000,4.425,1.361,0.706,1065.7,red,263,TRUE
464,1661318690.635,1917.7303100050642,-1579.0567999819104,1000,4.805,-1.201,0.13,109.4,green,263,TRUE
465,1661318690.854,3397.7433593207243,3254.5280749217086,1000,3.312,-1.24,-0.083,109.3,blue,263,TRUE
466,1661318690.947,3849.1903309263253,2831.7777824622353,1000,4.431,1.37,0.713,109.3,red,263,TRUE
467,1661318691.041,2554.4440313003884,-1185.4063568463919,1000,4.963,-1.349,-0.36,109.4,yellow,263,TRUE
468,1661318691.338,3678.1004838934914,3178.139503362203,1000,3.514,-1.237,0.002,109.3,blue,263,TRUE
469,1661318691.432,3840.000991826746,2857.853326959614,1000,4.43,1.373,0.726,109.3,red,263,TRUE
470,1661318691.525,2545.1544227200047,-1191.7768817657827,1000,4.956,-1.353,-0.368,94.1,yellow,263,TRUE
471,1661318691.604,5784.745267930505,1099.008787074528,1000,4.836,-1.202,0.146,110.7,green,263,TRUE
472,1661318691.902,3960.6879021330274,3127.436731907784,1000,2.969,-1.309,-0.397,109.4,blue,263,TRUE
473,1661318691.996,3853.8011924469806,2874.2313768945146,1000,4.428,1.374,0.731,109.4,red,263,TRUE
474,1661318692.089,2541.8202658431264,-1200.950012026497,1000,4.946,-1.356,-0.372,93.7,yellow,263,TRUE
475,1661318692.167,3918.6124758996475,-275.73770740440364,1000,4.839,-1.211,0.147,109.4,green,263,TRUE
476,1661318692.449,4362.74708222862,3062.4373878108368,1000,2.943,-1.372,-0.578,109.3,blue,263,TRUE
477,1661318692.542,3878.8959360040817,2876.0811544680537,1000,4.425,1.366,0.695,109.3,red,263,TRUE
478,1661318692.636,2548.479935572797,-1200.7772142925971,1000,4.935,-1.347,-0.35,93.7,yellow,263,TRUE
479,1661318692.714,3297.255551779777,-732.9436233925526,1000,4.829,-1.197,0.142,125.0,green,263,TRUE
480,1661318693.011,4274.066722497384,2881.8505088825805,1000,3.33,-1.369,-0.022,110.9,blue,263,TRUE
481,1661318693.106,3873.9295626143285,2892.808119982927,1000,4.428,1.366,0.696,109.4,red,263,TRUE
482,1661318693.2,2555.999210805571,-1192.2806854338794,1000,4.944,-1.341,-0.353,93.7,yellow,263,TRUE
483,1661318693.278,2982.268326955906,-961.9352164022258,1000,4.836,-1.19,0.143,109.4,green,263,TRUE
484,1661318693.559,4249.12764472373,2824.5756222924847,1000,2.979,-1.249,-0.471,109.3,blue,263,TRUE
485,1661318693.653,3901.2450110609807,2876.642202057655,1000,4.43,1.371,0.712,109.3,red,263,TRUE
486,1661318693.747,1622.1186873903378,-1130.8696336635346,1000,4.953,-1.338,-0.368,109.3,yellow,263,TRUE
487,1661318693.84,2830.2593517820346,-1134.4439522402918,1000,4.811,-1.174,0.147,93.5,green,263,TRUE
488,1661318695.059,4352.649418733795,2816.4679428893724,1000,2.892,-1.206,-0.497,1143.9,blue,263,TRUE
489,1661318696.187,1605.844820500012,-1136.057669770051,1000,4.932,-1.345,-0.4,93.8,yellow,263,TRUE
490,1661318696.265,2695.6163873064634,-1223.0723868707457,1000,4.813,-1.175,0.137,124.9,green,263,TRUE
491,1661318697.454,4270.670991643903,2897.1840277915685,1000,3.743,-1.281,0.027,109.4,blue,263,TRUE
492,1661318697.547,3913.278097250666,2922.441665862764,1000,4.852,1.32,0.537,125.0,red,263,TRUE
493,1661318697.641,1615.160972501156,-1140.053125878383,1000,4.936,-1.346,-0.388,109.3,yellow,263,TRUE
494,1661318697.735,2077.2609121412056,-1702.2353865076602,1000,4.827,-1.174,0.143,124.9,green,263,TRUE
495,1661318698.032,4163.814320348021,2913.6552855859795,1000,2.956,-1.332,0.211,109.3,blue,263,TRUE
496,1661318698.125,3928.2791556087136,2919.780872928555,1000,4.974,1.448,0.637,109.4,red,263,TRUE
497,1661318698.219,1619.2447408045755,-1129.4529690355814,1000,4.931,-1.342,-0.38,93.7,yellow,263,TRUE
498,1661318698.297,2080.8357688390174,-1715.351103549743,1000,4.812,-1.173,0.142,124.9,green,263,TRUE
499,1661318699.502,3807.364340450756,2578.3343917566017,1000,2.526,-1.212,-0.181,109.3,blue,263,TRUE
500,1661318699.595,3986.200025926282,2881.4598478444445,1000,4.896,1.36,0.284,125.0,red,263,TRUE
501,1661318699.72,2538.733359341032,-1232.336737525846,1000,4.939,-1.344,-0.391,1080.9,yellow,263,TRUE
502,1661318700.973,3515.541887490986,2112.963837435592,1000,3.278,-1.316,0.044,109.0,blue,263,TRUE
503,1661318701.067,4025.9509753448715,2874.8712201307517,1000,4.876,1.338,0.26,109.4,red,263,TRUE
504,1661318701.161,1935.2829046214902,-1415.776357798265,1000,4.937,-1.346,-0.387,110.9,yellow,263,TRUE
505,1661318701.256,2052.3467359890815,-1748.021802239138,1000,4.751,-1.175,0.13,93.8,green,263,TRUE
506,1661318701.459,3221.86166230973,1644.5839127716538,1000,3.096,-1.289,-0.17,93.6,blue,263,TRUE
507,1661318701.537,4086.2610957786565,2862.8949710022152,1000,4.869,1.347,0.273,109.4,red,263,TRUE
508,1661318701.631,394.68261194531397,-1314.9905758878795,1000,4.938,-1.347,-0.391,109.3,yellow,263,TRUE
509,1661318701.724,2011.1015786035935,-1770.1351463799474,1000,4.778,-1.184,0.118,109.3,green,263,TRUE
510,1661318702.006,2902.016201948018,1160.7440759197216,1000,2.985,-1.251,-0.219,109.3,blue,263,TRUE
511,1661318702.099,4112.74557173222,2874.546669897278,1000,4.871,1.353,0.287,125.0,red,263,TRUE
512,1661318702.224,-2877.661252622112,-974.7639564433072,1000,4.943,-1.344,-0.388,1079.2,yellow,263,TRUE
513,1661318703.46,2776.206579282074,520.8254774722145,1000,2.855,-1.176,-0.146,109.3,blue,263,TRUE
514,1661318703.553,4154.8826812215875,2857.5779718165536,1000,4.861,1.352,0.274,109.4,red,263,TRUE
515,1661318703.647,31.948262328144438,-988.3218748140769,1000,4.939,-1.34,-0.376,93.4,yellow,263,TRUE
516,1661318703.725,1939.2445006165126,-1772.4603670687711,1000,4.76,-1.245,0.108,109.3,green,263,TRUE
517,1661318704.006,2646.082460117044,-9.81662254689139,1000,2.884,-1.17,-0.165,109.4,blue,263,TRUE
518,1661318704.1,4204.914244286673,2852.990277279195,1000,4.855,1.35,0.268,109.4,red,263,TRUE
519,1661318704.194,986.7007543728579,-1002.9460215505939,1000,4.947,-1.342,-0.391,93.7,yellow,263,TRUE
520,1661318704.272,1922.06185249862,-1790.043369901089,1000,4.867,-1.285,0.051,93.7,green,263,TRUE
521,1661318704.538,2633.800546421218,-237.89136228726014,1000,2.897,-1.186,-0.19,109.4,blue,263,TRUE
522,1661318704.631,4196.173073398846,2880.977280837828,1000,4.859,1.353,0.274,109.3,red,263,TRUE
523,1661318704.725,1060.185367636328,-1157.5423459825333,1000,4.95,-1.341,-0.391,109.4,yellow,263,TRUE
524,1661318704.819,1888.771136974941,-1784.5013600906623,1000,4.997,-1.282,0.072,109.3,green,263,TRUE
525,1661318705.1,2619.1868077499207,-222.97061162269384,1000,2.898,-1.19,-0.209,110.5,blue,263,TRUE
526,1661318705.195,4187.898603139374,2856.730446805175,1000,4.644,1.361,0.788,109.3,red,263,TRUE
527,1661318705.288,1352.899600194712,-1169.0443109533178,1000,4.952,-1.337,-0.375,93.7,yellow,263,TRUE
528,1661318705.367,2509.1923191850688,-1292.5385856388268,1000,4.964,-1.269,0.111,93.8,green,263,TRUE
529,1661318706.587,2637.1955599794314,-306.29605931966256,1000,2.976,-1.18,-0.193,1126.3,blue,263,TRUE
530,1661318707.697,1633.1982753490981,-1134.100056209906,1000,4.991,-1.334,-0.337,93.6,yellow,263,TRUE
531,1661318707.775,3154.4374828228624,-778.1730748814934,1000,4.979,-1.233,0.085,109.4,green,263,TRUE
532,1661318708.948,2664.941466873578,-343.97812739448636,1000,2.915,-1.18,-0.24,109.4,blue,263,TRUE
533,1661318709.042,4228.5743577534,2943.796903382605,1000,3.794,1.324,0.769,109.4,red,263,TRUE
534,1661318709.136,2588.776478890689,-1148.6601961405177,1000,4.973,-1.335,-0.35,94.0,yellow,263,TRUE
535,1661318709.214,3822.6693138199785,-268.54543198792567,1000,4.976,-1.236,0.083,93.8,green,263,TRUE
536,1661318709.481,2669.1672170213837,-356.6160292216767,1000,2.916,-1.178,-0.233,109.3,blue,263,TRUE
537,1661318709.575,4217.678297395035,2995.3353350470265,1000,3.401,1.318,1.084,109.4,red,263,TRUE
538,1661318709.669,2604.169826377837,-1144.8777650416853,1000,4.958,-1.338,-0.363,93.6,yellow,263,TRUE
539,1661318709.747,3830.764770321981,-246.6115669243752,1000,5.001,-1.236,0.106,109.4,green,263,TRUE
540,1661318711.06,4272.922891827948,3104.0346449048975,1000,3.992,1.319,0.855,1126.4,red,263,TRUE
541,1661318712.171,3817.6476175358507,-244.99994524112785,1000,4.963,-1.221,0.103,109.4,green,263,TRUE
542,1661318713.358,2668.028362410687,-337.5577712146718,1000,2.981,-1.188,-0.221,109.3,blue,263,TRUE
543,1661318713.452,4260.744621627472,3241.6460383930093,1000,3.698,1.282,0.902,111.0,red,263,TRUE
544,1661318713.547,2516.09711432065,-1189.0011403137169,1000,4.973,-1.349,-0.376,109.3,yellow,263,TRUE
545,1661318713.641,4468.873415420708,256.22726213317435,1000,4.967,-1.214,0.074,93.8,green,263,TRUE
546,1661318713.922,2672.0627758301976,-323.23464594576154,1000,2.977,-1.189,-0.23,109.4,blue,263,TRUE
547,1661318714.016,4288.097423885272,3337.743397137497,1000,3.655,1.311,0.846,109.4,red,263,TRUE
548,1661318714.11,2783.1539226598907,-1094.155537272182,1000,4.973,-1.348,-0.373,93.7,yellow,263,TRUE
549,1661318714.188,4468.499709364812,261.908904146815,1000,4.845,-1.217,0.009,93.7,green,263,TRUE
550,1661318714.484,4757.392730624128,3687.362757285992,1000,0.015,1.117,0.688,1096.9,blue,263,TRUE
551,1661318714.484,4386.254482018545,3502.420019387051,1000,0.015,1.117,0.688,1096.9,red,263,TRUE
552,1661318714.484,4436.645345554308,3545.852621802826,1000,0.015,1.117,0.688,1096.9,red,263,TRUE
553,1661318715.566,2776.1987236644604,-1107.312173112433,1000,4.975,-1.344,-0.364,93.7,yellow,263,TRUE
554,1661318715.644,4481.38024854277,300.5168660308919,1000,4.572,-1.176,0.137,109.3,green,263,TRUE
555,1661318716.817,3643.784781336768,1774.0208105348377,1000,3.024,-1.187,-0.206,93.7,blue,263,TRUE
556,1661318716.895,4433.791095043973,3537.6756275421376,1000,4.637,1.335,0.625,125.1,red,263,TRUE
557,1661318717.02,-2777.34566411413,-1069.15310176875,1000,4.979,-1.338,-0.359,1064.7,yellow,263,TRUE
558,1661318718.256,3309.58396833406,1120.200910664886,1000,3.021,-1.187,-0.194,109.3,blue,263,TRUE
559,1661318718.35,4358.769472894684,3460.088237486611,1000,4.631,1.313,0.377,109.3,red,263,TRUE
560,1661318718.444,-2784.9104570836002,-1051.8986446086903,1000,4.979,-1.334,-0.364,94.1,yellow,263,TRUE
561,1661318718.522,4484.727861658533,339.1873542796866,1000,4.563,-1.156,0.118,124.9,green,263,TRUE
562,1661318723.151,3148.4880389195014,778.224298114069,1000,2.803,-1.235,-0.184,140.6,blue,263,TRUE
563,1661318723.292,4176.636173729202,2878.1732659420986,1000,4.745,1.312,0.335,1108.8,red,263,TRUE
564,1661318724.369,4484.634733003747,341.1284667830385,1000,4.579,-1.176,0.146,93.6,green,263,TRUE
565,1661318725.65,4244.983747622669,3004.1353202122427,1000,4.71,1.304,0.427,109.3,red,263,TRUE
566,1661318725.744,-1217.1334337154542,-1147.2691974440668,1000,5.286,-1.361,-0.235,109.1,yellow,263,TRUE
567,1661318727.993,3059.4052374599764,859.005143089842,1000,5.473,-1.199,-0.349,109.4,blue,263,TRUE
568,1661318728.087,4211.997867496256,2966.26650324507,1000,4.706,1.287,0.355,109.4,red,263,TRUE
569,1661318728.181,447.10730725596864,-485.1010538917087,1000,5.287,-1.367,-0.239,124.8,yellow,263,TRUE
570,1661318730.462,3080.4716364115684,1253.624371970006,1000,5.851,-1.186,-0.091,109.4,blue,263,TRUE
571,1661318730.555,4215.941060740786,2897.332947092744,1000,4.887,1.23,0.327,109.3,red,263,TRUE
572,1661318730.649,870.6775729178742,-598.019290906454,1000,5.253,-1.368,-0.256,109.4,yellow,263,TRUE
573,1661318730.743,5148.140309856087,877.5863451974374,1000,4.531,-1.187,0.103,93.4,green,263,TRUE
574,1661318731.024,2791.6444896572852,1247.2702088872243,1000,0.011,-1.208,-0.08,109.2,blue,263,TRUE
575,1661318731.118,4195.939668779533,2864.733787999545,1000,5.181,1.208,0.392,109.4,red,263,TRUE
576,1661318731.212,1162.8551810573788,-675.5652385572093,1000,5.233,-1.365,-0.268,109.1,yellow,263,TRUE
577,1661318731.289,5163.520629165268,923.8827228547992,1000,4.531,-1.187,0.103,125.0,green,263,TRUE
578,1661318731.587,2899.5061589922498,1855.085853478965,1000,0.12,-1.224,-0.231,124.8,blue,263,TRUE
579,1661318731.696,4182.876706879207,2878.974222073072,1000,5.268,1.202,0.46,109.6,red,263,TRUE
580,1661318731.79,2051.945263001269,-682.0671392653895,1000,5.176,-1.362,-0.298,93.8,yellow,263,TRUE
581,1661318731.868,5181.869555436265,950.3462974133112,1000,4.531,-1.19,0.109,109.4,green,263,TRUE
582,1661318732.149,2998.017996534228,2489.2618683851465,1000,6.006,-1.229,-0.539,109.4,blue,263,TRUE
583,1661318732.243,4161.23187467577,2851.3126758503386,1000,4.972,1.237,0.528,109.1,red,263,TRUE
584,1661318732.336,2937.8522775789884,-693.8160027087375,1000,5.161,-1.367,-0.298,93.5,yellow,263,TRUE
585,1661318732.414,4431.023106658627,493.7502600144273,1000,4.53,-1.186,0.11,109.6,green,263,TRUE
586,1661318733.617,2992.7616812222527,3399.007884078403,1000,5.144,-1.107,-0.251,109.3,blue,263,TRUE
587,1661318733.711,4126.524041906209,2824.8697051587947,1000,4.712,1.34,0.466,124.8,red,263,TRUE
588,1661318733.82,3042.4826725411785,-654.8247811698701,1000,5.159,-1.364,-0.291,109.5,yellow,263,TRUE
589,1661318733.93,1945.7953217730553,-2096.80128209228,1000,4.532,-1.189,0.117,1109.2,green,263,TRUE
590,1661318735.132,1891.4180319334957,6474.908542938547,1000,4.92,-1.156,-0.182,1081.0,blue,263,TRUE
591,1661318736.198,2546.4584697992145,-1095.196723714828,1000,5.15,-1.382,-0.315,109.1,yellow,263,TRUE
592,1661318736.276,1884.0354205853791,-1945.9807881799006,1000,4.526,-1.187,0.116,156.2,green,263,TRUE
593,1661318736.604,1282.7770345154122,6379.541314756061,1000,4.279,-1.164,-0.194,109.6,blue,263,TRUE
