,timestamp,x,y,z,yaw,roll,pitch,latency,student,session,success
0,1661322008.284,1520.055196078045,-281.6880357348688,1000,2.416,1.413,2.458,1124.7,red,264,TRUE
1,1661322009.378,4461.558858407406,-2390.6581046028364,1000,4.888,-0.872,-0.04,140.3,green,264,TRUE
2,1661322010.551,1676.8052708879284,550.1317085564901,1000,5.524,-1.508,-3.124,1143.1,blue,264,TRUE
3,1661322011.678,3002.6952322058073,-2594.4177054259562,1000,0.013,-0.545,-0.124,125.0,yellow,264,TRUE
4,1661322011.772,3986.8953666187113,-2450.446678740694,1000,5.013,-0.83,0.021,156.2,green,264,TRUE
5,1661322012.961,1859.1138728955743,1138.1532309860916,1000,4.542,-1.506,-3.077,1110.7,blue,264,TRUE
6,1661322014.056,3035.707445229175,-2643.387303700219,1000,0.015,-0.556,-0.142,125.3,yellow,264,TRUE
7,1661322014.243,3782.502317257217,-2355.796773226621,1000,5.611,-1.16,-0.014,1061.9,green,264,TRUE
8,1661322015.29,2044.5577642662347,1473.2048256494143,1000,4.009,-1.504,-3.091,109.3,blue,264,TRUE
9,1661322015.383,2198.062007994141,1129.6502140547334,1000,2.373,1.421,1.851,109.3,red,264,TRUE
10,1661322015.477,2991.7792326159997,-2630.024636665827,1000,0.016,-0.544,-0.141,125.2,yellow,264,TRUE
11,1661322015.665,3390.267085743354,-2409.0939719354797,1000,4.924,-0.891,0.061,1049.9,green,264,TRUE
12,1661322016.699,2336.6622054952336,2069.1496371663916,1000,4.144,-1.486,-3.086,109.4,blue,264,TRUE
13,1661322016.793,2364.059697697012,1724.2812220972555,1000,1.895,1.444,2.194,125.0,red,264,TRUE
14,1661322016.918,2845.0206145512398,-2566.8387358069053,1000,0.017,-0.52,-0.131,1141.8,yellow,264,TRUE
15,1661322019.106,2647.015670398008,2688.9700696244295,1000,3.77,-1.491,-3.086,1140.6,blue,264,TRUE
16,1661322020.231,2849.78500415115,-2552.046723656441,1000,0.029,-0.519,-0.133,125.0,yellow,264,TRUE
17,1661322020.418,3328.3783528877584,-2505.88624061686,1000,4.849,-0.904,-0.049,1049.7,green,264,TRUE
18,1661322021.453,2503.7281649018323,3214.163836261049,1000,3.365,-1.481,-0.079,109.4,blue,264,TRUE
19,1661322021.546,2512.6949604056113,2187.076818088783,1000,0.997,1.397,2.135,124.7,red,264,TRUE
20,1661322021.671,3049.897824839176,-2428.9819257953254,1000,0.034,-0.523,-0.141,1111.0,yellow,264,TRUE
21,1661322023.831,2055.709509994983,3484.7380922882353,1000,2.295,-1.461,-3.033,1171.8,blue,264,TRUE
22,1661322028.299,2614.33529511242,2462.600270878548,1000,1.104,1.481,3.053,1141.7,red,264,TRUE
23,1661322029.425,3244.8954832509226,-2396.21052121765,1000,4.875,-0.879,-0.047,187.4,green,264,TRUE
24,1661322030.659,1941.4559941182551,3459.2452270821905,1000,1.754,-1.515,3.12,1156.2,blue,264,TRUE
25,1661322031.8,3258.508965905766,-2595.596964075019,1000,0.072,-0.556,-0.151,109.4,yellow,264,TRUE
26,1661322031.894,3294.571235781159,-2424.4116749850436,1000,4.884,-0.852,-0.027,172.1,green,264,TRUE
27,1661322035.549,1834.1107198225145,3516.8979464259573,1000,1.516,-1.502,-3.073,125.1,blue,264,TRUE
28,1661322035.674,2620.6575127149945,2823.1708973237587,1000,0.352,1.403,1.779,1093.5,red,264,TRUE
29,1661322036.752,3310.900500692714,-2413.1899921320874,1000,4.897,-0.861,-0.023,156.0,green,264,TRUE
30,1661322036.971,1816.8444070067505,3668.6370065266437,1000,1.505,-1.503,-3.075,124.8,blue,264,TRUE
31,1661322037.111,3317.1796945463643,-2607.460835384461,1000,0.091,-0.604,-0.148,124.9,yellow,264,TRUE
32,1661322037.22,3318.8834082237436,-2409.126875156661,1000,4.897,-0.86,-0.023,93.8,green,264,TRUE
33,1661322037.314,1723.728766754911,3702.9754322949957,1000,1.473,-1.506,-3.079,109.2,blue,264,TRUE
34,1661322037.408,3212.8724331064004,3755.6592401167313,1000,0.011,1.427,1.544,125.1,red,264,TRUE
35,1661322038.548,3285.191975600359,-2422.5407290778435,1000,4.898,-0.861,-0.023,1187.1,green,264,TRUE
36,1661322039.767,2643.123168428439,3941.7814856309824,1000,1.445,-1.504,-3.076,1109.0,blue,264,TRUE
37,1661322040.86,3202.9105995135365,-2571.794642472612,1000,0.086,-0.587,-0.14,109.6,yellow,264,TRUE
38,1661322040.954,3297.5643468046187,-2403.6023791623816,1000,4.897,-0.852,-0.027,172.1,green,264,TRUE
39,1661322041.204,2444.640857640168,3788.926555762943,1000,1.452,-1.504,-3.076,109.4,blue,264,TRUE
40,1661322041.298,2913.279289614465,3403.1392102343434,1000,5.576,1.39,1.578,109.5,red,264,TRUE
41,1661322041.391,3177.744425043885,-2565.0296981873753,1000,0.085,-0.589,-0.14,125.0,yellow,264,TRUE
42,1661322041.485,3340.546319846466,-2417.448713641465,1000,4.9,-0.854,-0.027,109.3,green,264,TRUE
43,1661322041.594,2423.2866584968274,3749.187151946377,1000,1.45,-1.501,-3.073,109.5,blue,264,TRUE
44,1661322041.688,2975.099698862663,3454.65074522249,1000,5.54,1.386,1.612,109.2,red,264,TRUE
45,1661322041.782,3162.402146957955,-2563.524622039976,1000,0.085,-0.663,-0.127,124.8,yellow,264,TRUE
46,1661322041.922,2652.8347884893587,3487.772596704347,1000,1.444,-1.499,-3.072,125.0,green,264,TRUE
47,1661322041.922,2480.452874650165,3683.768214546919,1000,1.444,-1.499,-3.072,125.0,blue,264,TRUE
48,1661322042.032,2785.5375756419385,3328.4989586885613,1000,5.553,1.386,1.617,125.1,red,264,TRUE
49,1661322048.905,2612.6902878346896,3366.127415116426,1000,5.838,1.422,1.8,1141.8,red,264,TRUE
50,1661322050.031,3046.4078020214,538.6583175791538,1000,4.903,-0.85,-0.024,171.8,green,264,TRUE
51,1661322051.328,2640.103979291663,3373.9369402352677,1000,5.593,1.364,1.373,109.3,red,264,TRUE
52,1661322051.422,3149.2153215600156,-2412.105061777434,1000,0.293,-1.398,-1.153,124.8,yellow,264,TRUE
53,1661322052.656,2217.7891182501744,3650.342740797303,1000,1.745,-1.064,-2.507,125.0,blue,264,TRUE
54,1661322052.781,2672.017561321795,3303.5113685828032,1000,5.421,1.365,1.389,1124.7,red,264,TRUE
55,1661322055.062,2079.8445503847142,3592.6285977686516,1000,1.794,-1.007,-2.56,124.8,blue,264,TRUE
56,1661322055.171,2732.797015169367,3284.976980640141,1000,5.341,1.368,1.382,109.7,red,264,TRUE
57,1661322062.013,2637.50152697187,3309.450386845337,1000,6.089,1.357,1.5,1155.9,red,264,TRUE
58,1661322064.278,2231.6622966040886,3369.9151484818562,1000,1.919,-1.51,3.111,140.6,blue,264,TRUE
59,1661322064.418,2913.009376076159,3347.1796568028094,1000,5.993,1.367,1.46,1093.5,red,264,TRUE
60,1661322066.652,2689.667199585018,2998.6169269839284,1000,0.043,-1.484,-3.103,140.9,blue,264,TRUE
61,1661322066.793,2916.8639871019395,3653.9057981478354,1000,1.189,1.549,3.121,1108.8,red,264,TRUE
62,1661322069.12,5368.023731326019,1498.178624616811,1000,5.181,-1.277,-2.5,1095.0,blue,264,TRUE
63,1661322073.543,2630.1158104241526,3164.155882503714,1000,0.12,1.372,2.304,1142.3,red,264,TRUE
64,1661322075.843,5422.935543186561,1336.2834943404628,1000,5.345,-1.298,-2.77,109.3,blue,264,TRUE
65,1661322075.937,2696.639017447731,3274.7673466541964,1000,0.323,1.407,1.662,125.0,red,264,TRUE
66,1661322079.329,2655.373036874651,3694.3135671617238,1000,1.957,1.403,1.789,1141.8,red,264,TRUE
67,1661322080.455,3288.6378555257015,-189.49177746635914,1000,4.047,-1.39,-0.332,156.6,green,264,TRUE
68,1661322081.644,5489.321534029489,1453.0180234802676,1000,4.596,-1.356,-3.078,1159.1,blue,264,TRUE
69,1661322083.82,3268.6294507392413,-634.8590298222696,1000,4.983,-1.29,-0.085,1126.8,green,264,TRUE
70,1661322087.119,2838.7230315825154,-2472.894968814613,1000,5.126,-0.553,-0.166,1127.8,yellow,264,TRUE
71,1661322089.28,3671.8553550808797,2869.7021052525697,1000,2.641,-1.501,-3.081,1127.7,blue,264,TRUE
72,1661322090.392,3099.4638468758603,-2621.962212902872,1000,5.12,-0.562,-0.177,140.6,yellow,264,TRUE
73,1661322091.705,3478.834540815867,2895.7534968000755,1000,4.461,-1.417,-2.978,124.9,blue,264,TRUE
74,1661322091.846,4556.56350711083,1359.1545106649662,1000,2.199,1.359,1.811,1096.9,red,264,TRUE
75,1661322094.084,4659.50558432289,3225.037688441581,1000,1.69,-1.461,-3.034,1108.9,blue,264,TRUE
76,1661322095.178,3070.291492383454,-2572.226823890016,1000,5.112,-0.563,-0.179,124.9,yellow,264,TRUE
77,1661322096.398,4090.0334153891454,2566.829513243698,1000,2.274,-1.513,0.056,124.9,blue,264,TRUE
78,1661322096.507,4571.7746326431825,1406.8749890777435,1000,2.247,1.365,1.748,125.2,red,264,TRUE
79,1661322096.647,3074.6783757869634,-2511.0675036975676,1000,5.111,-0.56,-0.176,1096.2,yellow,264,TRUE
80,1661322097.806,4134.790357975507,2002.951024502511,1000,0.357,-1.422,-2.734,109.4,blue,264,TRUE
81,1661322097.9,4275.966297611812,1485.714751349844,1000,2.061,1.328,2.229,109.4,red,264,TRUE
82,1661322097.994,3076.421304898977,-2493.728417079933,1000,5.106,-0.565,-0.179,124.9,yellow,264,TRUE
83,1661322098.15,4859.353132500895,1059.5372159844426,1000,0.424,-1.514,-3.11,110.9,green,264,TRUE
84,1661322098.15,4315.921009115951,1767.069081664457,1000,0.424,-1.514,-3.11,110.9,blue,264,TRUE
85,1661322098.245,4082.5868268365966,1702.4164051911537,1000,2.106,1.442,-0.82,109.3,red,264,TRUE
86,1661322098.339,3022.7833824864883,-2502.7679554646097,1000,5.106,-0.565,-0.179,109.4,yellow,264,TRUE
87,1661322098.432,3133.8207357096535,-484.47878317952905,1000,4.837,-1.372,-0.704,78.4,green,264,TRUE
88,1661322098.542,4457.314510515968,1655.654907869568,1000,0.132,-1.508,0.062,125.0,blue,264,TRUE
89,1661322098.651,3945.877590590574,1937.3585086320836,1000,2.002,1.384,1.176,109.3,red,264,TRUE
90,1661322098.745,2989.6378810574993,-2494.4268832728267,1000,5.105,-0.564,-0.18,109.3,yellow,264,TRUE
91,1661322098.839,2563.9095343215754,-966.6333745046577,1000,5.304,-1.405,-0.524,109.1,green,264,TRUE
92,1661322098.948,4623.5842833931965,1564.5832038492752,1000,0.033,-1.48,3.051,125.3,blue,264,TRUE
93,1661322099.057,3790.4228372384496,2108.101906003875,1000,1.93,1.331,0.896,125.1,red,264,TRUE
94,1661322099.166,2985.7571123162147,-2491.315828337903,1000,5.104,-0.574,-0.183,125.3,yellow,264,TRUE
95,1661322100.449,4771.01452173886,1292.5373255774816,1000,5.872,-1.451,2.759,124.9,blue,264,TRUE
96,1661322100.574,2666.1259870291096,4754.429044127685,1000,2.25,1.392,0.446,1110.4,red,264,TRUE
97,1661322102.875,2856.166525383758,4830.966891018864,1000,0.022,31.276,17.993,1126.2,red,264,TRUE
98,1661322106.251,2671.2571256307615,6145.842118437118,1000,0.744,1.42,1.28,126.2,red,264,TRUE
99,1661322107.582,5487.786467661074,1391.131446573857,1000,4.886,-1.402,-2.739,125.1,blue,264,TRUE
100,1661322107.707,2724.153737650363,7454.030901321529,1000,0.687,1.4,1.334,1109.1,red,264,TRUE
101,1661322110.037,2664.5308919316135,7289.726617340628,1000,0.649,1.394,1.666,1110.6,red,264,TRUE
102,1661322112.305,2195.9296907242433,4946.479811944868,1000,4.794,-1.491,3.119,109.0,blue,264,TRUE
103,1661322112.399,2537.963214623506,7317.925128681419,1000,0.422,1.384,1.345,109.3,red,264,TRUE
104,1661322112.492,2841.811501699218,-2559.7894440611894,1000,5.115,-1.141,-0.277,126.2,yellow,264,TRUE
105,1661322113.714,2130.9772888923876,4983.099463536917,1000,3.061,-1.367,-2.262,125.0,blue,264,TRUE
106,1661322113.839,2675.1805255824406,7829.075528210811,1000,0.333,1.384,1.595,1096.3,red,264,TRUE
107,1661322116.154,3284.27688211414,2419.7010527181674,1000,2.039,-1.506,-3.085,1126.2,blue,264,TRUE
108,1661322116.154,2979.7856505152704,5124.406693229916,1000,2.039,-1.506,-3.085,1126.2,red,264,TRUE
109,1661322116.154,3081.309132158021,4222.855136068422,1000,2.039,-1.506,-3.085,1126.2,red,264,TRUE
110,1661322117.264,2835.528886516424,-2542.1719279036224,1000,5.093,-1.061,-0.196,125.3,yellow,264,TRUE
111,1661322117.358,3023.3530426634543,257.30891323213564,1000,5.164,-1.289,-0.189,140.6,green,264,TRUE
112,1661322117.561,3169.0914844406134,2131.138459301515,1000,1.309,-1.45,1.646,110.7,blue,264,TRUE
113,1661322117.656,2977.0924268082927,4992.4866836182255,1000,0.153,1.383,1.594,125.1,red,264,TRUE
114,1661322117.766,2833.5766889374227,-2534.920187893247,1000,5.092,-1.048,-0.185,109.3,yellow,264,TRUE
115,1661322117.86,2546.1706974018407,-119.78057923937354,1000,5.193,-1.29,-0.183,78.0,green,264,TRUE
116,1661322117.969,2875.3835979285245,7096.303732515616,1000,0.1,1.382,1.563,1095.1,blue,264,TRUE
117,1661322117.969,2956.9471960832743,5413.432285981867,1000,0.1,1.382,1.563,1095.1,red,264,TRUE
118,1661322117.969,2943.4973598873453,5694.038696385939,1000,0.1,1.382,1.563,1095.1,red,264,TRUE
119,1661322119.048,2815.4031151869694,-2546.2748666711777,1000,5.085,-1.048,-0.204,125.2,yellow,264,TRUE
120,1661322120.345,4406.356777660267,4512.659092059206,1000,6.156,-1.213,2.646,125.0,blue,264,TRUE
121,1661322120.47,-819.904185907862,4211.344581645631,1000,6.101,1.379,1.513,1095.0,red,264,TRUE
122,1661322121.534,2220.0097135385327,-365.76042579172696,1000,5.204,-1.281,-0.179,140.5,green,264,TRUE
123,1661322121.737,4874.420496615617,3483.832538322982,1000,6.282,-1.189,2.604,109.4,blue,264,TRUE
124,1661322121.83,751.7261910872799,5915.707955747832,1000,6.081,1.4,1.189,109.3,red,264,TRUE
125,1661322121.924,2851.960940702196,-2538.603968747012,1000,5.101,-1.009,-0.185,124.8,yellow,264,TRUE
126,1661322123.207,5115.890877699215,3052.937122201306,1000,0.101,-1.211,2.583,124.6,blue,264,TRUE
127,1661322123.331,2577.945342032594,7186.340730387602,1000,5.976,1.382,1.968,1079.6,red,264,TRUE
128,1661322124.395,2136.0193936030832,94.99615441704229,1000,5.222,-1.286,-0.172,142.1,green,264,TRUE
129,1661322124.6,5236.717090213126,2762.033403686117,1000,5.863,-1.365,2.98,125.0,blue,264,TRUE
130,1661322124.709,2530.324781568487,7201.751687445723,1000,6.163,1.409,1.741,125.0,red,264,TRUE
131,1661322124.819,2820.916590647042,-2544.9816886106037,1000,5.084,-1.017,-0.13,124.9,yellow,264,TRUE
132,1661322126.131,5383.139477934977,2587.912040893978,1000,5.257,-1.129,-2.689,125.0,blue,264,TRUE
133,1661322126.256,2942.9745536926944,-2551.5301861777903,1000,0.013,31.276,34.19,1126.4,red,264,TRUE
134,1661322126.256,2837.731594088535,-2543.5908071184804,1000,0.013,31.276,34.19,1126.4,yellow,264,TRUE
135,1661322126.256,2856.7673330726416,-2548.0892896251485,1000,0.013,31.276,34.19,1126.4,yellow,264,TRUE
136,1661322128.557,2163.401778491436,7054.7481644592235,1000,6.254,1.41,0.855,1126.2,blue,264,TRUE
137,1661322128.557,2553.365236214415,2251.886269103524,1000,6.254,1.41,0.855,1126.2,red,264,TRUE
138,1661322128.557,2423.2335724359414,3852.9085835176807,1000,6.254,1.41,0.855,1126.2,red,264,TRUE
139,1661322131.92,3396.644703457212,6635.843576470929,1000,3.731,1.405,0.646,1096.8,red,264,TRUE
140,1661322134.237,4958.55093241285,1530.4936941312753,1000,0.411,-1.541,0.021,1079.5,blue,264,TRUE
141,1661322135.3,2808.931522481402,-2554.9815094062237,1000,5.027,-1.029,-0.157,124.9,yellow,264,TRUE
142,1661322136.583,5344.679432904446,1705.8687497324847,1000,6.078,-1.362,2.808,125.0,blue,264,TRUE
143,1661322136.692,3577.419390060986,6486.303253277005,1000,4.205,1.428,0.86,109.7,red,264,TRUE
144,1661322136.786,2794.083431990565,-2551.3418472910575,1000,5.024,-1.013,-0.136,109.3,yellow,264,TRUE
145,1661322138.069,5460.656973382805,1750.6068991274378,1000,5.943,-1.366,2.789,109.2,blue,264,TRUE
146,1661322138.162,3650.366966613299,6405.546928551448,1000,4.082,1.44,0.747,125.2,red,264,TRUE
147,1661322140.524,3690.444691152398,6357.659934803418,1000,4.128,1.445,0.601,124.9,red,264,TRUE
148,1661322140.633,2743.374589350131,-2558.486690865418,1000,5.022,-1.023,-0.146,125.4,yellow,264,TRUE
149,1661322141.916,5534.412666443094,1723.6110278660021,1000,5.95,-1.455,-3.139,124.9,blue,264,TRUE
150,1661322142.041,4019.493117333319,6529.0565935585955,1000,4.133,1.443,0.566,1094.9,red,264,TRUE
151,1661322144.293,4742.588607744891,1136.563465464655,1000,3.738,-1.309,-2.461,1079.5,blue,264,TRUE
152,1661322145.357,2749.3089055874043,-2548.529206318493,1000,4.994,-1.004,-0.101,124.7,yellow,264,TRUE
153,1661322146.61,4204.065072197343,2322.288322563843,1000,6.079,-1.482,-0.079,124.9,blue,264,TRUE
154,1661322146.735,3267.50874553661,-2710.158406890033,1000,4.999,-1.02,-0.109,1127.9,red,264,TRUE
155,1661322146.735,2803.6480168404687,-2574.987579934242,1000,4.999,-1.02,-0.109,1127.9,yellow,264,TRUE
156,1661322146.735,2857.7971280244024,-2601.4347938217184,1000,4.999,-1.02,-0.109,1127.9,yellow,264,TRUE
157,1661322149.003,5527.314803164326,3207.697722357826,1000,1.451,-1.392,2.522,1079.4,blue,264,TRUE
158,1661322150.067,2899.631045749185,-2609.6977982069334,1000,4.987,-1.035,-0.139,124.9,yellow,264,TRUE
159,1661322151.301,5866.477008624757,3056.8207283428146,1000,1.54,-1.501,-3.085,126.6,blue,264,TRUE
160,1661322151.412,3595.3867704491668,1866.8996999333722,1000,4.039,1.458,0.053,125.3,red,264,TRUE
161,1661322154.805,3664.0237362440025,3360.981314830297,1000,3.99,1.374,0.14,125.3,red,264,TRUE
162,1661322156.228,6554.913248866928,2538.5117193822757,1000,2.118,-1.532,3.103,1110.6,blue,264,TRUE
163,1661322158.574,6283.926755426028,2629.632841509221,1000,3.144,-1.541,-3.132,109.3,blue,264,TRUE
164,1661322158.668,3727.4723275535985,4110.824457493044,1000,3.977,1.4,0.152,124.9,red,264,TRUE
165,1661322160.076,5849.0009604302495,2478.7649948124504,1000,2.845,-1.476,3.071,1079.6,blue,264,TRUE
166,1661322161.139,2914.9958805494243,-2593.9032525680996,1000,4.924,-0.627,-0.165,156.5,yellow,264,TRUE
167,1661322161.467,5727.862498601504,2499.7857604229475,1000,3.246,-1.533,3.109,125.0,blue,264,TRUE
168,1661322161.577,3745.68481258289,4543.474559081678,1000,3.943,1.402,0.112,109.4,red,264,TRUE
169,1661322161.671,3023.065017153073,-2615.900589368956,1000,4.924,-0.624,-0.165,93.7,yellow,264,TRUE
170,1661322161.858,5604.66332930879,2666.364948064572,1000,3.627,-1.518,3.136,124.9,blue,264,TRUE
171,1661322161.967,3759.0765527005983,4842.577213425718,1000,3.948,1.402,0.12,124.9,red,264,TRUE
172,1661322163.376,3385.58121148724,2511.622315441984,1000,3.016,-1.517,0.048,1079.5,blue,264,TRUE
173,1661322164.44,3094.0820818120646,-2636.038527168499,1000,4.919,-0.625,-0.161,125.1,yellow,264,TRUE
174,1661322164.55,2930.663627282193,219.57222991133278,1000,4.307,-1.398,-0.443,171.8,green,264,TRUE
175,1661322164.815,3739.798333762654,1964.1917172668475,1000,1.254,-1.376,2.658,109.4,blue,264,TRUE
176,1661322164.909,3840.7439114999884,6324.15153564575,1000,4.007,1.4,0.149,126.5,red,264,TRUE
177,1661322165.02,3092.749609410895,-2626.261322163672,1000,4.917,-0.623,-0.157,125.0,yellow,264,TRUE
178,1661322166.285,4446.128474827878,1653.5196107878885,1000,0.203,-1.515,-3.117,126.6,blue,264,TRUE
179,1661322166.412,3847.4155603412423,6306.643811243972,1000,3.964,1.386,0.13,1109.0,red,264,TRUE
180,1661322168.678,4924.166852901987,1574.1324083429172,1000,5.745,-1.499,-3.088,125.3,blue,264,TRUE
181,1661322168.803,3844.072931511156,6377.561308774239,1000,3.973,1.396,0.129,1110.7,red,264,TRUE
182,1661322171.103,5572.414275678698,1882.6779936205487,1000,5.412,-1.436,-2.901,1081.0,blue,264,TRUE
183,1661322172.168,3091.8365368739674,-2618.2628020242764,1000,4.9,-0.615,-0.158,125.0,yellow,264,TRUE
184,1661322173.45,5493.353186077442,1698.006500268115,1000,5.18,-1.332,-2.462,110.9,blue,264,TRUE
185,1661322173.546,3866.6737979145423,6383.812357141153,1000,3.97,1.414,0.194,109.3,red,264,TRUE
186,1661322173.639,3113.92059500988,-2612.5051898686593,1000,4.893,-0.624,-0.158,125.0,yellow,264,TRUE
187,1661322174.875,5511.430412127629,1691.9788508457275,1000,5.322,-1.422,-2.662,124.9,blue,264,TRUE
188,1661322175.0,3919.0886476146698,6320.129154131783,1000,3.977,1.42,0.188,1095.1,red,264,TRUE
189,1661322177.268,5618.517350200032,1548.1824127168607,1000,0.625,-1.55,-3.133,109.3,blue,264,TRUE
190,1661322177.362,3942.481354938169,6375.465950723274,1000,3.975,1.421,0.212,125.0,red,264,TRUE
191,1661322179.74,3955.919738854495,6393.323185691724,1000,3.985,1.414,0.176,140.6,red,264,TRUE
192,1661322179.849,3114.9741230364693,-2637.519652936337,1000,4.879,-1.103,-0.131,140.7,yellow,264,TRUE
193,1661322181.192,5639.949697486779,1451.6381121716427,1000,4.667,-1.516,3.115,109.4,blue,264,TRUE
194,1661322181.286,3917.4239882203888,6372.685374933007,1000,4.04,1.401,0.199,110.8,red,264,TRUE
195,1661322181.381,3035.0206659905252,-2619.4239634114692,1000,4.892,-1.151,-0.116,124.9,yellow,264,TRUE
196,1661322182.648,5587.668396413924,1492.888468326272,1000,5.634,-1.462,3.043,126.5,blue,264,TRUE
197,1661322182.759,3911.4609722314626,6373.449417192171,1000,4.047,1.401,0.177,109.6,red,264,TRUE
198,1661322182.853,3009.6320229024636,-2609.4066819807954,1000,4.887,-1.166,-0.154,109.4,yellow,264,TRUE
199,1661322182.947,3301.770690360679,207.285225931739,1000,5.229,-1.434,-0.741,93.7,green,264,TRUE
200,1661322183.103,5569.399402176899,1482.932988512722,1000,5.774,-1.443,2.023,109.3,blue,264,TRUE
201,1661322183.197,3899.940157053817,6355.629059197051,1000,4.046,1.398,0.179,109.4,red,264,TRUE
202,1661322183.29,2927.3160388460383,-2605.7951543201657,1000,4.881,-1.156,-0.146,109.4,yellow,264,TRUE
203,1661322183.384,3158.5951976604047,-774.5054369394617,1000,5.113,-1.422,-0.735,93.7,green,264,TRUE
204,1661322183.493,5558.00740446342,1486.6734527506667,1000,5.788,-1.424,2.429,124.9,blue,264,TRUE
205,1661322183.602,3890.8092039446988,6374.461191204359,1000,4.047,1.398,0.183,125.1,red,264,TRUE
206,1661322183.712,2875.67633507684,-2592.065239479233,1000,4.877,-1.142,-0.13,125.0,yellow,264,TRUE
207,1661322184.995,5566.304894570715,1444.152641544267,1000,5.239,-1.429,-2.904,125.0,blue,264,TRUE
208,1661322185.12,3886.5403492583046,6277.53428591634,1000,3.999,1.426,0.166,1110.7,red,264,TRUE
209,1661322187.403,5525.31941830031,1502.4086224673358,1000,5.384,-1.334,-2.736,125.0,blue,264,TRUE
210,1661322187.528,2340.0243773785087,-2164.7993728946813,1000,4.833,-0.677,-0.055,1096.7,red,264,TRUE
211,1661322187.528,4259.526579134803,-2511.4151461644383,1000,4.833,-0.677,-0.055,1096.7,yellow,264,TRUE
212,1661322187.528,5672.967707809269,-2422.256474942656,1000,4.833,-0.677,-0.055,1096.7,yellow,264,TRUE
213,1661322188.609,3676.109759798173,-935.162624074536,1000,5.114,-0.755,0.065,156.2,green,264,TRUE
214,1661322188.844,5507.542075878117,1528.8968464053733,1000,5.508,-1.222,-2.976,109.4,blue,264,TRUE
215,1661322188.938,3034.495428611684,2096.996577433341,1000,4.015,1.422,0.108,109.3,red,264,TRUE
216,1661322189.031,5703.068632209023,-2432.3654709965617,1000,4.83,-0.653,-0.05,109.4,yellow,264,TRUE
217,1661322189.125,4175.500434444312,-1050.401469908685,1000,5.094,-0.87,0.121,93.7,green,264,TRUE
218,1661322189.234,5566.866146176205,1524.5858178487294,1000,5.553,-1.237,-3.027,109.7,blue,264,TRUE
219,1661322189.328,3254.728554989962,3517.710487278156,1000,4.015,1.422,0.103,124.9,red,264,TRUE
220,1661322193.878,4143.058772034596,-2135.5201584400456,1000,4.951,-0.681,0.008,1141.8,green,264,TRUE
221,1661322196.051,5707.293698318226,1428.6693212497937,1000,5.466,-1.414,-1.931,1126.6,blue,264,TRUE
222,1661322197.161,5708.036355316618,-2437.893698478882,1000,4.934,-0.496,-0.055,125.2,yellow,264,TRUE
223,1661322198.382,5716.776383373526,1451.2456607395773,1000,5.752,-1.463,3.047,1157.4,blue,264,TRUE
224,1661322206.202,3455.0447428069738,3664.4902875408425,1000,6.158,1.373,0.048,1142.1,red,264,TRUE
225,1661322207.531,5731.855904089002,1513.1328937435792,1000,5.99,-1.444,2.905,109.7,blue,264,TRUE
226,1661322207.625,3455.4408209540406,3497.1104113855376,1000,6.17,1.364,0.072,110.8,red,264,TRUE
227,1661322207.72,5749.720182597429,-2428.978764924145,1000,4.898,-0.585,-0.053,125.0,yellow,264,TRUE
228,1661322207.829,4357.94975265816,-2345.0941864661745,1000,5.011,-0.624,0.067,93.8,green,264,TRUE
229,1661322208.032,5777.917947305047,1535.5163668231035,1000,0.067,-1.506,3.087,109.7,blue,264,TRUE
230,1661322208.126,3452.6772975348426,3361.8193693282933,1000,5.49,1.345,0.677,109.4,red,264,TRUE
231,1661322208.22,5734.632974658319,-2424.191875380152,1000,4.893,-0.58,-0.059,109.3,yellow,264,TRUE
232,1661322208.313,4164.674904059992,-2432.6354811683796,1000,5.001,-0.633,0.053,93.8,green,264,TRUE
233,1661322209.44,5983.512175357901,1644.4158162040897,1000,0.044,-1.538,0.003,1141.8,blue,264,TRUE
234,1661322211.583,4275.879156540932,-2208.368207727091,1000,4.979,-0.64,0.041,1173.2,green,264,TRUE
235,1661322213.757,5996.469502940655,1555.9045446250784,1000,5.018,-1.475,3.052,1171.7,blue,264,TRUE
236,1661322218.152,2374.3499522959264,4049.519553851278,1000,3.708,1.371,0.352,1142.0,red,264,TRUE
237,1661322220.389,6258.719375915355,1541.5780613909385,1000,5.924,-1.417,3.126,1126.2,blue,264,TRUE
238,1661322221.499,4403.239387000281,-2527.9307710854014,1000,4.876,-0.625,-0.071,125.0,yellow,264,TRUE
239,1661322221.687,3732.581023871197,-2456.384959446336,1000,4.986,-0.632,0.057,1049.7,green,264,TRUE
240,1661322222.721,6494.277331986188,1432.0661110191134,1000,5.349,-1.421,-2.387,109.4,blue,264,TRUE
241,1661322222.814,2413.1402875567187,3326.400827623084,1000,4.072,1.406,0.851,125.1,red,264,TRUE
242,1661322222.939,5145.205308202011,-2477.1842417816456,1000,4.987,-0.626,0.059,1127.7,yellow,264,TRUE
243,1661322222.939,4436.295208522871,-2467.414372537174,1000,4.987,-0.626,0.059,1127.7,green,264,TRUE
244,1661322222.939,4671.0259290270105,-2470.9330404516772,1000,4.987,-0.626,0.059,1127.7,green,264,TRUE
245,1661322224.239,5739.354950631926,1864.376147959022,1000,4.523,-1.553,-3.125,1079.5,blue,264,TRUE
246,1661322225.303,4003.2928377197304,-2539.854271321068,1000,4.609,-1.434,-1.734,109.3,yellow,264,TRUE
247,1661322225.396,4320.186118964586,-2489.4949491649754,1000,4.994,-0.641,0.061,156.3,green,264,TRUE
248,1661322226.585,5868.217802968264,1756.715346687829,1000,4.758,-1.427,-2.123,1141.6,blue,264,TRUE
249,1661322230.993,2458.6523663780886,2589.715380229294,1000,3.986,1.412,0.352,1157.5,red,264,TRUE
250,1661322233.371,8894.50912818434,1672.8995050374704,1000,5.389,-1.205,-3.038,1109.0,blue,264,TRUE
251,1661322233.371,8893.903561510275,1672.6407117757897,1000,5.389,-1.205,-3.038,1219.7,red,264,TRUE
252,1661322236.746,6416.891684134356,1897.4703982277192,1000,4.032,1.454,0.045,1142.0,red,264,TRUE
253,1661322239.046,5472.588207254324,1732.9177246375493,1000,4.565,1.441,1.01,93.7,red,264,TRUE
254,1661322239.124,3637.4456130501108,-2535.465930989138,1000,4.84,-1.182,-0.083,125.0,yellow,264,TRUE
255,1661322240.391,6331.655878145527,4246.3303773930475,1000,0.968,-1.497,0.0,109.1,blue,264,TRUE
256,1661322240.484,5301.70924840071,1568.2404092180739,1000,3.999,1.361,-0.344,109.3,red,264,TRUE
257,1661322240.578,3489.789334102524,-2589.925960033091,1000,4.84,-1.181,-0.084,125.0,yellow,264,TRUE
258,1661322241.829,6399.543568875295,3988.0934770754566,1000,0.837,-1.475,-0.068,125.0,blue,264,TRUE
259,1661322241.938,5400.502626507775,1499.674538651172,1000,3.24,1.492,0.075,109.3,red,264,TRUE
260,1661322242.032,3349.7397795412567,-2568.6288679808144,1000,4.84,-1.179,-0.085,125.0,yellow,264,TRUE
261,1661322243.285,6431.349695737704,3892.3610398131,1000,1.119,-1.53,3.141,124.9,blue,264,TRUE
262,1661322243.41,4064.5825450116345,-2333.847513216464,1000,4.837,-1.165,-0.08,1110.8,red,264,TRUE
263,1661322243.41,3468.8493170830225,-2529.459065661307,1000,4.837,-1.165,-0.08,1110.8,yellow,264,TRUE
264,1661322243.41,3288.7024541124156,-2505.5273827193555,1000,4.837,-1.165,-0.08,1110.8,yellow,264,TRUE
265,1661322245.709,6326.460431513996,3803.157238646874,1000,1.538,-1.501,-0.063,125.0,blue,264,TRUE
266,1661322245.834,5857.620281281782,1439.0422359976712,1000,2.997,1.406,0.395,1079.8,red,264,TRUE
267,1661322246.898,4466.666779881576,-2529.0464509967996,1000,5.023,-0.645,0.062,140.6,green,264,TRUE
268,1661322247.18,6320.955611348432,3629.4420903575024,1000,1.672,-1.523,-0.05,109.0,blue,264,TRUE
269,1661322247.273,5803.08192246059,1282.4362426603407,1000,3.091,1.437,0.143,125.0,red,264,TRUE
270,1661322250.557,6335.842447126648,3356.239005999911,1000,2.234,-1.541,3.12,1156.0,blue,264,TRUE
271,1661322254.997,5683.802052297858,1261.7771274471543,1000,2.374,1.49,3.063,1140.4,red,264,TRUE
272,1661322257.232,6334.141707179761,2959.2714685305677,1000,2.169,-1.5,3.117,1144.7,blue,264,TRUE
273,1661322258.361,3277.582222021114,-2506.0653799728575,1000,4.804,-1.048,-0.095,125.2,yellow,264,TRUE
274,1661322260.737,3308.5869049082908,-2533.6124676832683,1000,4.776,-1.094,-0.146,1188.8,yellow,264,TRUE
275,1661322262.082,5750.1325849745635,941.1503666797925,1000,2.137,1.37,0.512,1124.6,blue,264,TRUE
276,1661322262.082,5700.322365928336,1181.6467346855918,1000,2.137,1.37,0.512,1124.6,red,264,TRUE
277,1661322262.082,5710.180133625683,1133.586315531505,1000,2.137,1.37,0.512,1124.6,red,264,TRUE
278,1661322263.191,3296.248224343491,-2497.951991531184,1000,4.767,-1.028,-0.136,126.5,yellow,264,TRUE
279,1661322264.489,5857.79286569744,1699.655353443417,1000,3.132,-1.42,1.946,124.9,blue,264,TRUE
280,1661322264.614,5427.127285419361,1075.2514220775042,1000,2.615,1.413,0.689,1109.1,red,264,TRUE
281,1661322266.881,5895.8106154683,1876.2049236933938,1000,3.149,-1.408,2.013,125.0,blue,264,TRUE
282,1661322267.006,5717.067247850727,1266.8268006732058,1000,3.063,1.33,0.949,1079.4,red,264,TRUE
283,1661322268.07,3513.8603993976317,-2392.187269437284,1000,5.044,-0.612,0.087,140.6,green,264,TRUE
284,1661322273.672,5741.916479792866,1331.887703728953,1000,2.342,1.502,3.081,1142.0,red,264,TRUE
285,1661322276.017,5864.723831778471,3464.105342825681,1000,0.212,-1.401,2.986,1081.0,blue,264,TRUE
286,1661322277.082,3311.723078318934,-2504.426797118513,1000,4.721,-0.911,-0.053,109.4,yellow,264,TRUE
287,1661322277.176,3659.0183704785495,-2485.356148367725,1000,5.039,-0.607,0.072,156.3,green,264,TRUE
288,1661322277.394,5937.937331893431,3126.5397683408587,1000,1.052,-1.517,3.107,109.4,blue,264,TRUE
289,1661322277.488,5832.75723598553,1326.8714652058218,1000,2.235,1.472,3.066,109.4,red,264,TRUE
290,1661322277.582,3115.295164277453,-2535.7772674344596,1000,4.724,-0.922,-0.049,124.9,yellow,264,TRUE
291,1661322277.738,6010.345905960657,3009.6525146161316,1000,1.355,-1.49,3.067,93.7,blue,264,TRUE
292,1661322277.816,5925.089068520706,1351.4091919120042,1000,2.206,1.463,3.06,125.0,red,264,TRUE
293,1661322280.192,5978.074300643554,1431.7817654534767,1000,2.308,1.499,0.069,124.9,red,264,TRUE
294,1661322281.333,3899.3078097521593,-2749.0643469487263,1000,5.039,-0.622,0.071,1173.1,green,264,TRUE
295,1661322282.506,6087.809267079115,2946.364593876301,1000,0.952,-1.374,-2.424,124.9,blue,264,TRUE
296,1661322282.631,7086.176513081318,962.0354191025165,1000,3.071,1.338,0.685,1096.4,red,264,TRUE
297,1661322283.696,3663.6408274912365,-2679.7007538313555,1000,4.999,-0.611,0.1,140.7,green,264,TRUE
298,1661322283.899,6048.869256741147,2866.3255396225695,1000,1.246,-1.358,2.675,124.9,blue,264,TRUE
299,1661322284.024,7402.6010008519215,995.3322046275265,1000,2.733,1.336,0.087,1095.0,red,264,TRUE
300,1661322285.103,3670.2116001320373,-2615.869136051318,1000,5.0,-0.604,0.096,156.0,green,264,TRUE
301,1661322285.322,6055.96179963269,2866.0850707984478,1000,0.47,-1.477,-3.079,109.4,blue,264,TRUE
302,1661322285.416,7297.347322989432,968.6014175021562,1000,2.906,1.377,-0.002,125.0,red,264,TRUE
303,1661322287.776,7345.218368149291,1100.4242642417678,1000,3.049,1.44,-0.738,124.9,red,264,TRUE
304,1661322290.153,5837.695856118929,1219.2127894544958,1000,1.064,1.409,0.003,1079.3,red,264,TRUE
305,1661322291.217,3605.7714884793113,-2586.9857651940956,1000,4.994,-0.585,0.082,156.3,green,264,TRUE
306,1661322291.482,6095.488523482282,2776.0492291915566,1000,0.747,-1.249,2.451,109.3,blue,264,TRUE
307,1661322291.576,5232.263841951935,1296.8050568292197,1000,0.6,1.436,0.286,125.0,red,264,TRUE
308,1661322294.99,4957.834868651068,1429.739725484428,1000,3.408,1.42,0.994,1141.8,red,264,TRUE
309,1661322296.1,3634.152508814882,-2578.336609772875,1000,5.005,-0.562,0.092,156.3,green,264,TRUE
310,1661322296.35,6074.78331150327,2764.130901202679,1000,1.076,-1.496,3.11,109.3,blue,264,TRUE
311,1661322296.444,4926.266077868838,1393.4970140631226,1000,3.169,1.419,1.03,125.0,red,264,TRUE
312,1661322296.538,2934.0160195692592,-2616.014462341445,1000,4.676,-0.861,-0.027,109.4,yellow,264,TRUE
313,1661322296.631,3654.3788524026063,-2563.426465090832,1000,5.005,-0.555,0.096,93.7,green,264,TRUE
314,1661322300.167,6085.919228274157,2679.4387191602304,1000,1.975,-1.501,3.09,109.3,blue,264,TRUE
315,1661322300.26,4942.683514852344,1803.022389841283,1000,4.36,1.259,1.062,125.0,red,264,TRUE
316,1661322307.094,4641.2975807064095,1833.0386163397704,1000,5.224,1.383,0.011,1157.9,red,264,TRUE
317,1661322309.457,5779.841050232734,1281.4254612423617,1000,0.011,1.396,0.259,1140.3,blue,264,TRUE
318,1661322309.457,4631.633498913709,1843.4846462865362,1000,0.011,1.396,0.259,1140.3,red,264,TRUE
319,1661322309.457,4823.7668955359895,1827.9794504153258,1000,0.011,1.396,0.259,1140.3,red,264,TRUE
320,1661322312.866,6113.496302383128,1353.5604808539597,1000,2.501,1.446,2.219,1128.0,red,264,TRUE
321,1661322314.119,5951.892491085344,1611.8672013406808,1000,2.476,-1.417,2.691,125.0,blue,264,TRUE
322,1661322314.244,6055.227049756531,1484.6710336178267,1000,2.431,1.419,2.307,1110.8,red,264,TRUE
323,1661322316.481,5842.403817439918,2018.31428378322,1000,2.223,-1.353,2.832,1156.0,blue,264,TRUE
324,1661322319.815,5836.01357320333,2064.1472601059045,1000,1.706,-1.331,-2.801,1141.9,blue,264,TRUE
325,1661322325.601,5853.7964699468275,2075.560008485213,1000,2.218,-1.222,2.952,109.1,blue,264,TRUE
326,1661322325.694,5710.400510078011,1676.9050970032345,1000,2.557,1.431,0.332,125.0,red,264,TRUE
327,1661322327.055,5792.183443696718,2083.8751938258015,1000,2.208,-1.173,2.992,109.3,blue,264,TRUE
328,1661322327.149,5686.017164396078,1387.226548107843,1000,3.467,1.433,0.697,125.1,red,264,TRUE
329,1661322332.866,5428.018277800163,1729.3065048563174,1000,2.08,-1.273,3.111,1140.3,blue,264,TRUE
330,1661322336.256,5525.273860624038,1953.9280861928464,1000,2.042,-1.445,-3.003,1171.6,blue,264,TRUE
331,1661322339.677,5726.127493287943,2007.9297576703186,1000,2.094,-1.348,-2.968,1156.1,blue,264,TRUE
332,1661322342.099,5720.83716858632,2075.921979962508,1000,2.146,-1.288,3.094,109.0,blue,264,TRUE
333,1661322342.192,5194.987690784887,1340.2157767761648,1000,4.609,1.381,1.325,124.8,red,264,TRUE
334,1661322344.535,5738.642898322882,2207.082750409474,1000,2.114,-1.311,-3.041,1141.5,blue,264,TRUE
335,1661322345.646,2949.3971919043574,-2610.569223524091,1000,4.661,-0.892,-0.038,156.5,yellow,264,TRUE
336,1661322346.927,5794.021624457767,2283.0176829182365,1000,2.125,-1.272,-3.138,1155.8,blue,264,TRUE
337,1661322349.348,5507.893885569652,1840.3073280585445,1000,0.012,1.396,1.485,1140.2,blue,264,TRUE
338,1661322349.348,5257.565417617985,1440.2965733702263,1000,0.012,1.396,1.485,1140.2,red,264,TRUE
339,1661322349.348,5299.272243988241,1506.8499074886138,1000,0.012,1.396,1.485,1140.2,red,264,TRUE
340,1661322351.519,3544.533834001384,-2487.9680511259585,1000,5.116,-0.425,0.032,1157.7,green,264,TRUE
341,1661322353.692,5642.656040619961,2233.6094279498425,1000,2.063,-1.314,-3.055,1155.7,blue,264,TRUE
342,1661322358.144,2715.0588175298485,-361.6522437329881,1000,5.431,1.359,1.174,1109.1,red,264,TRUE
343,1661322360.362,5633.93675689508,2258.0667233994095,1000,1.767,-1.358,-2.755,125.3,blue,264,TRUE
344,1661322360.488,2766.3082595918463,-521.1735805127097,1000,5.404,1.357,1.214,1109.1,red,264,TRUE
345,1661322362.721,5791.538629434615,2299.3353152113864,1000,1.983,-1.25,-2.999,1124.8,blue,264,TRUE
346,1661322367.111,2750.577041998798,-560.1966144870821,1000,5.584,1.443,1.18,140.3,red,264,TRUE
347,1661322370.549,2538.2895823188724,61.84915963220111,1000,4.158,1.393,1.642,1124.8,red,264,TRUE
348,1661322371.768,5641.944168328833,2111.8878952420537,1000,2.186,-1.325,2.919,109.4,blue,264,TRUE
349,1661322371.862,2552.525997901398,24.879891936712774,1000,4.227,1.391,1.398,125.1,red,264,TRUE
350,1661322373.252,5616.453998574885,2188.2091442261553,1000,2.045,-1.409,2.643,109.3,blue,264,TRUE
351,1661322373.346,2609.1090261576674,40.484970191425255,1000,4.332,1.403,1.254,140.4,red,264,TRUE
352,1661322374.767,2592.7464262737767,53.16716123983461,1000,5.556,1.352,1.056,125.0,red,264,TRUE
353,1661322376.175,5310.481578695633,2527.8463796039036,1000,2.067,-1.381,-3.101,126.7,blue,264,TRUE
354,1661322376.301,2668.5081481523675,-665.2119131984189,1000,5.766,1.395,1.011,1124.8,red,264,TRUE
355,1661322377.614,5385.8732854574155,2352.999108507027,1000,2.303,-1.404,2.849,110.9,blue,264,TRUE
356,1661322377.709,2713.592123531127,-229.78975687069152,1000,4.168,1.358,1.694,125.1,red,264,TRUE
357,1661322380.041,5313.5800166514155,2251.42538771358,1000,2.16,-1.383,3.078,1141.9,blue,264,TRUE
358,1661322385.859,5353.285381557222,2292.1482970442476,1000,2.177,-1.368,-2.958,125.3,blue,264,TRUE
359,1661322385.985,4098.873879778216,3014.516269226202,1000,4.175,1.448,0.129,1155.9,red,264,TRUE
360,1661322388.267,5030.006013350285,2290.1937755864997,1000,2.15,-1.352,-3.085,1142.0,blue,264,TRUE
361,1661322394.053,5185.296937685315,2363.4898900331586,1000,1.253,-1.523,3.125,110.9,blue,264,TRUE
362,1661322394.148,4305.721663231303,2998.7744472388185,1000,4.087,1.396,0.22,125.3,red,264,TRUE
363,1661322396.465,5197.575535624905,2282.7200222556735,1000,2.093,-1.452,3.109,1142.0,blue,264,TRUE
364,1661322398.843,5231.6600493381575,2313.3674074855107,1000,2.17,-1.469,3.115,109.3,blue,264,TRUE
365,1661322398.937,4343.419030305721,2981.039992200951,1000,4.1,1.381,0.168,125.0,red,264,TRUE
366,1661322400.359,5322.9192986242115,2337.5407493025027,1000,2.098,-1.455,3.126,109.5,blue,264,TRUE
367,1661322400.453,4385.63473623829,2940.5047560165794,1000,4.088,1.393,0.201,109.5,red,264,TRUE
368,1661322400.547,2915.106386141643,-2563.6977052165207,1000,4.681,-1.048,-0.074,93.5,yellow,264,TRUE
369,1661322400.798,5360.153757426799,2305.089094355378,1000,2.106,-1.453,3.126,125.3,blue,264,TRUE
370,1661322400.892,4403.414670636104,2925.6052798272126,1000,4.091,1.386,0.185,109.3,red,264,TRUE
371,1661322400.986,2885.7696628259146,-2553.0974653175563,1000,4.683,-1.025,-0.072,109.1,yellow,264,TRUE
372,1661322401.205,5678.353494269727,2289.4666568633984,1000,2.1,-1.451,3.127,109.4,blue,264,TRUE
373,1661322401.299,4406.851504510642,2917.363197296041,1000,4.094,1.391,0.191,109.0,red,264,TRUE
374,1661322401.392,2879.3353882122624,-2549.0188979510663,1000,4.684,-1.021,-0.075,156.2,yellow,264,TRUE
375,1661322401.673,5632.837596731851,2205.728924477414,1000,2.113,-1.456,3.124,109.3,blue,264,TRUE
376,1661322401.767,4453.171926228777,2904.6531612739013,1000,4.098,1.391,0.191,109.4,red,264,TRUE
377,1661322401.861,2875.9743316024756,-2549.344968923144,1000,4.684,-1.025,-0.076,93.8,yellow,264,TRUE
378,1661322402.111,5684.950947668753,2216.4320198146,1000,2.118,-1.469,3.122,111.0,blue,264,TRUE
379,1661322402.206,4454.055680711891,2864.2050815958287,1000,4.102,1.391,0.194,109.3,red,264,TRUE
380,1661322402.3,2847.1742808112226,-2491.9575485916776,1000,4.686,-1.034,-0.075,93.7,yellow,264,TRUE
381,1661322402.519,5690.047459237109,2159.4259916791266,1000,2.115,-1.476,3.123,124.7,blue,264,TRUE
382,1661322402.628,4482.217713721339,2822.8839969212095,1000,4.104,1.391,0.196,109.4,red,264,TRUE
383,1661322402.722,2834.695831924248,-2478.6724507352696,1000,4.687,-1.04,-0.075,156.2,yellow,264,TRUE
384,1661322402.972,5686.62408114126,2128.9184131403176,1000,2.11,-1.47,3.124,109.3,blue,264,TRUE
385,1661322403.065,4461.450559951747,2831.0915658792583,1000,4.107,1.394,0.204,109.5,red,264,TRUE
386,1661322403.159,2840.241020615009,-2499.497268188435,1000,4.686,-1.042,-0.076,93.7,yellow,264,TRUE
387,1661322403.362,5693.027620850559,2125.0296146407795,1000,2.1,-1.464,3.124,125.0,blue,264,TRUE
388,1661322403.471,4443.267270967517,2825.8590904080606,1000,4.177,1.391,0.172,125.0,red,264,TRUE
389,1661322403.581,2848.694656764487,-2505.2439262134535,1000,4.684,-1.037,-0.075,93.7,yellow,264,TRUE
390,1661322403.831,5692.082953240857,2118.6525080143247,1000,2.065,-1.458,3.127,109.4,blue,264,TRUE
391,1661322403.924,4395.554039703409,2808.4645518910497,1000,4.358,1.406,0.227,109.4,red,264,TRUE
392,1661322404.018,2858.895897553974,-2506.6578162886103,1000,4.687,-1.02,-0.044,93.6,yellow,264,TRUE
393,1661322404.206,5681.3625687673475,2097.923093911448,1000,2.078,-1.461,3.125,109.3,blue,264,TRUE
394,1661322404.299,4348.396591678899,2777.840067271424,1000,4.407,1.426,0.338,124.7,red,264,TRUE
395,1661322404.612,5681.589269989195,2087.746382621034,1000,2.077,-1.464,3.125,110.8,blue,264,TRUE
396,1661322404.707,4284.869988437728,2750.2819234524272,1000,4.369,1.424,0.83,109.3,red,264,TRUE
397,1661322404.801,2716.4050836674946,-2443.6656868296564,1000,4.68,-0.995,-0.046,93.7,yellow,264,TRUE
398,1661322405.004,5672.070438918362,2080.6268295468776,1000,2.076,-1.466,3.126,109.4,blue,264,TRUE
399,1661322405.097,4233.31272841782,2763.349751552683,1000,4.418,1.418,0.328,109.1,red,264,TRUE
400,1661322405.191,2818.624822832969,-2541.141562289698,1000,4.68,-0.996,-0.051,93.7,yellow,264,TRUE
401,1661322408.756,5669.349182585683,2067.1502299103163,1000,2.044,-1.467,3.13,125.0,blue,264,TRUE
402,1661322408.881,3218.744681091667,-2773.6818653846876,1000,4.676,-1.019,-0.065,1157.5,red,264,TRUE
403,1661322408.881,2976.928849513199,-2613.880531624251,1000,4.676,-1.019,-0.065,1157.5,yellow,264,TRUE
404,1661322408.881,3053.6408057342633,-2649.1924764492587,1000,4.676,-1.019,-0.065,1157.5,yellow,264,TRUE
405,1661322410.195,5652.623710414321,2045.933595683761,1000,2.305,-1.481,3.082,109.3,blue,264,TRUE
406,1661322410.289,3944.0648955031866,-150.5557184763677,1000,4.302,1.403,0.391,111.0,red,264,TRUE
407,1661322410.384,3011.8261545006317,-2624.432935440357,1000,4.674,-1.035,-0.071,93.8,yellow,264,TRUE
408,1661322410.618,5630.686043139191,2092.7879192593487,1000,2.117,-1.485,3.107,109.5,blue,264,TRUE
409,1661322410.712,3950.1746107926506,837.3140522986682,1000,4.347,1.41,0.371,109.2,red,264,TRUE
410,1661322410.806,2984.0247127943585,-2606.1559183308837,1000,4.675,-1.036,-0.072,93.8,yellow,264,TRUE
411,1661322413.088,2925.955064479498,-2589.7922029659944,1000,4.672,-1.021,-0.08,1187.2,yellow,264,TRUE
412,1661322415.372,4074.370708192131,1300.8050485378776,1000,4.306,1.392,0.34,109.0,red,264,TRUE
413,1661322415.465,2901.941159204835,-2561.0361434902857,1000,4.67,-1.032,-0.084,156.2,yellow,264,TRUE
414,1661322415.778,5636.403558016642,2069.844544482826,1000,2.152,-1.34,2.881,110.5,blue,264,TRUE
415,1661322415.872,4166.365733226675,1599.7389418077357,1000,4.304,1.393,0.335,109.3,red,264,TRUE
416,1661322415.966,2778.6795751520344,-2492.5354191717697,1000,4.67,-1.031,-0.084,93.8,yellow,264,TRUE
417,1661322416.185,5605.378619405157,2077.973344333071,1000,2.107,-1.342,2.966,109.4,blue,264,TRUE
418,1661322416.279,4229.936718986012,1756.3001175376492,1000,4.304,1.393,0.336,109.4,red,264,TRUE
419,1661322416.373,2702.2345027592914,-2444.931128911876,1000,4.67,-1.03,-0.084,93.8,yellow,264,TRUE
420,1661322419.953,5840.897426919126,1997.330411152435,1000,2.125,-1.328,2.953,1093.5,blue,264,TRUE
421,1661322421.031,2696.4124682704137,-2438.7266833297062,1000,4.667,-1.045,-0.087,156.2,yellow,264,TRUE
422,1661322421.345,5864.386587757317,2094.253528403453,1000,2.165,-1.316,2.874,109.4,blue,264,TRUE
423,1661322421.439,4415.563053727954,2678.510810266823,1000,4.266,1.394,0.325,109.4,red,264,TRUE
424,1661322421.532,2701.680210795923,-2439.8559881526016,1000,4.677,-1.048,-0.08,109.3,yellow,264,TRUE
425,1661322421.751,5971.223849217087,2113.905281243221,1000,2.146,-1.319,2.893,109.3,blue,264,TRUE
426,1661322421.845,4363.713617195058,2739.220844311552,1000,4.268,1.392,0.324,109.4,red,264,TRUE
427,1661322421.939,2787.9892191796075,-2473.3662738396447,1000,4.674,-1.034,-0.07,93.7,yellow,264,TRUE
428,1661322423.065,5912.388281645115,2235.78171778679,1000,2.139,-1.374,2.879,1110.6,blue,264,TRUE
429,1661322424.16,2837.3795491837877,-2506.37859196748,1000,4.699,-1.036,0.052,156.3,yellow,264,TRUE
430,1661322426.536,2889.876899311861,-2527.4188686652865,1000,4.661,-1.148,0.002,1158.6,yellow,264,TRUE
431,1661322428.742,5838.361742432549,2237.531185935365,1000,2.154,-1.341,2.886,1143.6,blue,264,TRUE
432,1661322429.87,2904.917595935875,-2544.5289852677906,1000,4.667,-1.131,-0.009,156.2,yellow,264,TRUE
433,1661322430.229,5500.001859006472,2201.274530135395,1000,2.141,-1.372,2.872,1079.4,blue,264,TRUE
434,1661322431.293,2941.978855602845,-2563.6805794181532,1000,4.671,-1.152,-0.012,140.6,yellow,264,TRUE
435,1661322432.529,5566.942533773632,2247.3232282872605,1000,1.812,-1.548,3.134,125.1,blue,264,TRUE
436,1661322432.654,3058.506697967474,-2189.757855997419,1000,4.574,-1.393,-2.615,1095.1,red,264,TRUE
437,1661322432.654,2972.153560917903,-2508.3528910958985,1000,4.574,-1.393,-2.615,1095.1,yellow,264,TRUE
438,1661322432.654,3000.855223434852,-2448.936565161451,1000,4.574,-1.393,-2.615,1095.1,yellow,264,TRUE
439,1661322433.733,3477.250571884833,-2353.7788792311767,1000,4.335,-1.324,-0.221,140.6,green,264,TRUE
440,1661322433.905,5772.22546547823,2270.204645633815,1000,2.078,-1.534,0.034,140.6,blue,264,TRUE
441,1661322434.046,2490.442979780568,-2229.125281752889,1000,4.331,-1.306,-3.132,1127.7,red,264,TRUE
442,1661322434.046,2903.629880789211,-2376.3839037524417,1000,4.331,-1.306,-3.132,1127.7,yellow,264,TRUE
443,1661322434.046,2840.48472427629,-2335.400034732787,1000,4.331,-1.306,-3.132,1127.7,yellow,264,TRUE
444,1661322436.378,5737.465635712269,2552.2940483870984,1000,2.109,-1.523,3.096,1109.1,blue,264,TRUE
445,1661322437.472,2660.000791543914,-1876.5776396406015,1000,5.019,-1.419,-2.88,109.3,yellow,264,TRUE
446,1661322437.565,3141.9795250166667,-1990.592766157274,1000,5.648,-1.316,-0.434,173.3,green,264,TRUE
447,1661322438.785,5836.705193636941,2341.2931611778895,1000,1.642,-1.457,-3.117,1142.0,blue,264,TRUE
448,1661322439.911,2621.581286422965,-1106.4536423398467,1000,5.408,-1.482,-3.09,124.9,yellow,264,TRUE
449,1661322440.224,5744.696010669978,2342.767554447653,1000,1.866,-1.508,-3.127,126.6,blue,264,TRUE
450,1661322440.333,3357.149571669688,320.8297346765205,1000,4.22,1.393,0.216,110.7,red,264,TRUE
451,1661322440.429,2592.3080064982946,-291.49206130337683,1000,5.219,-1.431,2.818,109.3,yellow,264,TRUE
452,1661322440.522,1475.0663512451606,-373.3760956976206,1000,3.108,-1.384,-0.406,109.0,green,264,TRUE
453,1661322440.772,5705.936039790944,2244.9725040259577,1000,1.941,-1.47,3.132,124.9,blue,264,TRUE
454,1661322440.882,3683.9906949732976,1225.7189190795596,1000,4.224,1.393,0.218,109.4,red,264,TRUE
455,1661322440.975,2573.8504112024516,514.7394302111201,1000,5.758,-1.415,2.214,109.4,yellow,264,TRUE
456,1661322441.069,1510.8903328494266,-316.9694945562572,1000,3.208,-1.344,-0.059,93.7,green,264,TRUE
457,1661322442.195,5681.302009734376,2352.01137455341,1000,2.205,-1.349,2.897,1110.7,blue,264,TRUE
458,1661322443.29,2690.5967040096734,1223.6897479451993,1000,0.92,-1.421,0.227,125.0,yellow,264,TRUE
459,1661322443.54,5662.210368459645,2320.939635120188,1000,2.173,-1.321,2.873,109.4,blue,264,TRUE
460,1661322443.634,3789.649279806955,1648.84606700025,1000,4.232,1.394,0.226,125.0,red,264,TRUE
461,1661322443.743,2875.7789140163472,1843.1558847892259,1000,0.926,-1.449,0.139,125.0,yellow,264,TRUE
462,1661322443.853,2351.139093009049,2212.691804261977,1000,4.937,-1.293,-0.115,93.7,green,264,TRUE
463,1661322444.981,5681.758986550113,2305.734317243325,1000,2.158,-1.326,2.894,1126.3,blue,264,TRUE
464,1661322446.091,3151.2338595923006,2109.238999807915,1000,6.196,-1.482,-0.047,125.0,yellow,264,TRUE
465,1661322446.2,2385.630852100915,2179.250771813678,1000,6.001,-1.305,-0.167,172.2,green,264,TRUE
466,1661322447.405,5632.040753056598,2320.6888872523705,1000,2.422,-1.326,2.86,1143.4,blue,264,TRUE
467,1661322448.533,3271.5306465407434,2067.9220612698464,1000,6.23,-1.532,-0.01,124.9,yellow,264,TRUE
468,1661322448.642,2629.394846501242,1983.767907646826,1000,0.613,-1.319,-0.369,172.1,green,264,TRUE
469,1661322450.987,3395.647084699974,1933.7767009913048,1000,0.058,-1.438,2.974,1202.8,yellow,264,TRUE
470,1661322457.728,4404.319234775032,2083.4747289159463,1000,6.206,-1.506,-3.082,1173.2,yellow,264,TRUE
471,1661322459.01,5641.721671416774,2314.409460101797,1000,1.793,-1.512,-3.134,109.7,blue,264,TRUE
472,1661322459.104,3884.5474160190292,1895.7517350201101,1000,4.159,1.395,0.259,109.4,red,264,TRUE
473,1661322459.198,4250.140048679462,1851.7892288883893,1000,5.552,-1.388,-2.141,109.3,yellow,264,TRUE
474,1661322459.291,3054.8025519651737,2323.0473867514092,1000,1.752,-1.258,-0.165,93.7,green,264,TRUE
475,1661322459.496,5669.622317467422,2385.092111997747,1000,1.82,-1.513,-3.135,109.4,blue,264,TRUE
476,1661322459.59,3940.1150972055098,2060.4684041017877,1000,4.147,1.415,0.463,110.8,red,264,TRUE
477,1661322459.684,4261.593624720911,1813.4531900090867,1000,5.172,-1.227,-2.357,125.3,yellow,264,TRUE
478,1661322459.825,4271.91027892518,3350.649158967835,1000,1.774,-1.26,-0.16,1063.9,green,264,TRUE
479,1661322460.874,5688.384796268984,2250.151784671916,1000,1.966,-1.43,3.016,109.4,blue,264,TRUE
480,1661322460.967,4213.1064539186855,2895.5668162833404,1000,4.236,1.403,0.347,109.2,red,264,TRUE
481,1661322461.061,4216.060918374903,1655.899794110234,1000,1.206,-1.5,3.106,109.3,yellow,264,TRUE
482,1661322461.155,4306.663896931984,3336.237926630947,1000,1.8,-1.253,-0.153,156.2,green,264,TRUE
483,1661322461.405,5694.884392032139,2271.85693505089,1000,2.137,-1.366,2.718,109.0,blue,264,TRUE
484,1661322461.498,4237.943614014878,2882.171727783026,1000,4.136,1.403,0.358,109.4,red,264,TRUE
485,1661322461.592,4133.108250513875,1624.211837285316,1000,0.622,-1.504,0.0,109.3,yellow,264,TRUE
486,1661322461.686,4305.105047213045,3339.8223118190713,1000,1.793,-1.256,-0.179,93.8,green,264,TRUE
487,1661322461.889,5634.4776341675315,2248.841235959302,1000,2.211,-1.33,2.597,124.7,blue,264,TRUE
488,1661322461.998,4229.280447960836,2832.704904137528,1000,4.158,1.42,0.416,109.4,red,264,TRUE
489,1661322462.092,4046.6877680000257,1632.3332539084483,1000,6.108,-1.512,-0.055,111.0,yellow,264,TRUE
490,1661322462.187,4306.61158296672,3338.553799083342,1000,1.74,-1.258,-0.204,93.8,green,264,TRUE
491,1661322463.406,4266.508959067574,2843.2870362339104,1000,4.107,1.405,0.34,111.0,red,264,TRUE
492,1661322463.501,3931.9347428664037,1595.8374540799941,1000,5.685,-1.513,-0.047,125.3,yellow,264,TRUE
493,1661322463.783,5626.105072063347,2260.0052009006326,1000,2.059,-1.454,3.075,125.3,blue,264,TRUE
494,1661322463.893,4317.815116307304,2860.924820377523,1000,4.069,1.4,0.329,124.6,red,264,TRUE
495,1661322464.002,3833.5385287976073,1695.8579172184634,1000,5.466,-1.385,-2.025,109.3,yellow,264,TRUE
496,1661322464.096,4699.085267414257,3318.214824891929,1000,1.734,-1.27,-0.295,93.8,green,264,TRUE
497,1661322464.284,5684.086427145606,2203.9998028130235,1000,2.007,-1.503,3.099,125.0,blue,264,TRUE
498,1661322464.393,4322.03074046191,2858.0567629231314,1000,4.096,1.395,0.286,124.6,red,264,TRUE
499,1661322464.502,3723.5169422051445,1801.8652557346547,1000,5.733,-1.429,-2.556,109.4,yellow,264,TRUE
500,1661322464.596,4415.115083404408,3309.6304260603792,1000,1.688,-1.288,-0.375,78.4,green,264,TRUE
501,1661322464.769,5696.756011690783,2198.916978425052,1000,1.985,-1.501,3.105,125.0,blue,264,TRUE
502,1661322464.879,4346.236944703515,2874.1358632850465,1000,4.092,1.4,0.284,124.9,red,264,TRUE
503,1661322464.988,3727.2972985498327,2102.091535401035,1000,5.826,-1.388,-2.837,109.3,yellow,264,TRUE
504,1661322465.082,4400.521646919573,3276.1562489596895,1000,1.827,-1.256,-0.205,155.9,green,264,TRUE
505,1661322465.332,5710.048655384669,2236.887924806635,1000,2.051,-1.408,2.991,124.9,blue,264,TRUE
506,1661322465.441,4290.393789498277,2875.9882946283014,1000,4.109,1.396,0.25,109.4,red,264,TRUE
507,1661322465.535,3749.162686371024,2334.419202891918,1000,5.754,-1.344,-2.57,109.3,yellow,264,TRUE
508,1661322465.629,4410.913520372198,3271.3341438202697,1000,1.994,-1.198,-0.216,93.7,green,264,TRUE
509,1661322466.817,4265.844295839154,2896.6860161662676,1000,4.127,1.4,0.281,109.4,red,264,TRUE
510,1661322466.911,3814.4340703179532,2552.9620303710676,1000,5.692,-1.389,-2.355,125.0,yellow,264,TRUE
511,1661322467.192,5737.419624930758,2235.0675107037528,1000,2.064,-1.254,3.086,109.6,blue,264,TRUE
512,1661322467.286,4216.569527961304,2875.6608751961508,1000,4.124,1.4,0.279,109.4,red,264,TRUE
513,1661322467.38,3817.047360535986,2687.4952488001622,1000,5.679,-1.385,-2.353,125.0,yellow,264,TRUE
514,1661322467.489,4452.087159537712,3199.5171920015987,1000,1.838,-1.2,-0.297,93.8,green,264,TRUE
515,1661322467.678,5764.777172649658,2190.269490399085,1000,2.426,-1.238,2.812,109.4,blue,264,TRUE
516,1661322467.771,4140.85092193863,2896.9711790105616,1000,4.132,1.412,0.289,125.0,red,264,TRUE
517,1661322467.881,3880.442714038745,2805.4618694017263,1000,5.665,-1.383,-2.331,124.9,yellow,264,TRUE
518,1661322467.99,4434.567970787803,3143.4280052764198,1000,1.907,-1.223,-0.344,93.8,green,264,TRUE
519,1661322468.209,5720.99935317909,2253.626711456699,1000,2.584,-1.234,2.733,1079.4,blue,264,TRUE
520,1661322469.273,3932.7074705601462,2923.1146678679884,1000,5.66,-1.389,-2.278,109.3,yellow,264,TRUE
521,1661322469.366,4437.523240273779,3158.5504101009496,1000,1.829,-1.203,-0.321,156.2,green,264,TRUE
522,1661322469.616,5663.911062285088,2207.8022078937156,1000,2.55,-1.221,2.722,111.0,blue,264,TRUE
523,1661322469.712,4127.76673877914,2892.4478967819264,1000,4.139,1.409,0.293,109.4,red,264,TRUE
524,1661322469.805,3913.612810372666,2908.8785062088086,1000,5.704,-1.408,-2.179,124.9,yellow,264,TRUE
525,1661322469.915,4433.002374045446,3162.3402375362493,1000,1.821,-1.187,-0.293,109.4,green,264,TRUE
526,1661322470.118,5661.280363328071,2169.055428937719,1000,2.52,-1.225,2.736,109.4,blue,264,TRUE
527,1661322470.211,4110.228598561608,2884.816135397435,1000,4.147,1.417,0.383,109.4,red,264,TRUE
528,1661322470.305,3927.1116664186443,2924.6922443063763,1000,5.692,-1.421,-1.922,109.3,yellow,264,TRUE
529,1661322470.399,4424.422489019864,3165.9532957708298,1000,1.847,-1.185,-0.281,109.4,green,264,TRUE
530,1661322470.618,5653.501037069782,2163.048872109997,1000,2.531,-1.225,2.713,109.4,blue,264,TRUE
531,1661322470.711,4133.498351528448,2897.7463454687772,1000,4.124,1.404,0.321,109.3,red,264,TRUE
532,1661322470.805,3920.872823325429,2877.1763774534224,1000,5.623,-1.421,-1.806,109.3,yellow,264,TRUE
533,1661322470.899,4428.9671027915965,3175.3095817677004,1000,1.848,-1.182,-0.278,155.8,green,264,TRUE
534,1661322471.149,5663.490322156659,2162.559736163971,1000,2.529,-1.225,2.704,124.9,blue,264,TRUE
535,1661322471.274,3568.6021198121284,2486.8937725324226,1000,5.7,-1.439,-1.799,1095.0,red,264,TRUE
536,1661322471.274,3893.7262956535487,2846.292097795944,1000,5.7,-1.439,-1.799,1095.0,yellow,264,TRUE
537,1661322471.274,3840.8618084931622,2772.799698979881,1000,5.7,-1.439,-1.799,1095.0,yellow,264,TRUE
538,1661322472.353,4404.442111242953,3174.0856374626237,1000,1.481,-1.234,-0.243,156.2,green,264,TRUE
539,1661322472.603,5642.242484193012,2149.8080917604843,1000,2.441,-1.221,2.758,109.6,blue,264,TRUE
540,1661322472.697,4048.849124229987,2699.391387213867,1000,4.116,1.393,0.269,109.4,red,264,TRUE
541,1661322472.79,3827.807278780525,2705.282125392637,1000,5.909,-1.48,-0.072,109.4,yellow,264,TRUE
542,1661322472.884,4374.60062480273,3238.5184309556766,1000,1.307,-1.285,-0.41,109.3,green,264,TRUE
543,1661322473.103,5612.800700805452,2100.64600016141,1000,2.374,-1.247,2.793,109.4,blue,264,TRUE
544,1661322473.197,4131.714395382715,2791.139026143473,1000,4.114,1.395,0.28,125.0,red,264,TRUE
545,1661322473.322,4211.524871209449,3247.760361336962,1000,5.86,-1.482,-0.085,1111.9,yellow,264,TRUE
546,1661322474.558,4165.696510819832,2820.517309681146,1000,4.122,1.388,0.255,109.4,red,264,TRUE
547,1661322474.652,4091.9264222566558,3083.6601263284583,1000,5.842,-1.475,-0.095,111.0,yellow,264,TRUE
548,1661322474.748,4363.556798565626,3299.97484747116,1000,1.384,-1.31,0.01,93.7,green,264,TRUE
549,1661322474.951,6131.735765749788,2032.4919740506746,1000,2.203,-1.257,2.943,109.3,blue,264,TRUE
550,1661322475.044,4164.729016544641,2849.166119351374,1000,4.122,1.388,0.256,109.4,red,264,TRUE
551,1661322475.138,4092.9236616785624,3027.4478481243764,1000,5.832,-1.47,-0.098,109.3,yellow,264,TRUE
552,1661322475.232,4373.498070844806,3371.8413750749555,1000,1.388,-1.31,0.001,93.8,green,264,TRUE
553,1661322476.422,4195.996409448671,2866.862586284949,1000,4.121,1.382,0.238,109.4,red,264,TRUE
554,1661322476.515,4053.399976934381,2937.662139167075,1000,5.825,-1.473,-3.043,109.5,yellow,264,TRUE
555,1661322476.609,4339.846168547468,3429.0779137232253,1000,0.712,-1.3,-0.328,158.0,green,264,TRUE
556,1661322476.861,5877.635294066378,2119.7026758340394,1000,1.95,-1.3,-3.029,125.0,blue,264,TRUE
557,1661322476.97,4397.855037852963,2920.035828003936,1000,4.121,1.38,0.233,124.7,red,264,TRUE
558,1661322477.079,4029.9469611534573,2887.2795281158274,1000,5.847,-1.486,-3.061,110.9,yellow,264,TRUE
559,1661322477.175,4314.607435442457,3495.7398136444353,1000,1.398,-1.289,-0.039,93.7,green,264,TRUE
560,1661322478.393,4367.911359162476,2922.4112954425223,1000,4.121,1.386,0.239,110.5,red,264,TRUE
561,1661322478.487,4014.3546862884527,2878.4113829025064,1000,5.752,-1.466,-3.047,126.2,yellow,264,TRUE
562,1661322478.785,5569.304239367422,2306.6435915506904,1000,1.955,-1.357,-3.01,1080.7,blue,264,TRUE
563,1661322479.849,4002.5610415796814,2783.4867945700257,1000,5.782,-1.48,-3.052,110.9,yellow,264,TRUE
564,1661322479.944,4249.0286301038,3279.2786683224117,1000,2.043,-1.2,-0.264,156.3,green,264,TRUE
565,1661322480.194,5641.924346638079,2435.841286845585,1000,2.08,-1.525,0.04,109.3,blue,264,TRUE
566,1661322480.288,4369.4260400522535,2908.174404283063,1000,4.118,1.401,0.253,125.0,red,264,TRUE
567,1661322480.413,3938.567133058774,2710.620903440709,1000,5.908,-1.477,-3.058,1110.5,yellow,264,TRUE
568,1661322481.617,5654.030496853833,2372.3852960202444,1000,1.935,-1.503,3.137,109.7,blue,264,TRUE
569,1661322481.711,4369.235810160168,2901.7035345630266,1000,4.119,1.405,0.249,109.4,red,264,TRUE
570,1661322481.805,3924.5429051037218,2729.2808094203383,1000,6.281,-1.553,0.013,109.4,yellow,264,TRUE
571,1661322481.898,4350.68937834341,3218.5965627345845,1000,2.002,-1.187,-0.255,109.3,green,264,TRUE
572,1661322483.056,5751.984123421327,2308.515237596259,1000,2.02,-1.271,3.123,1142.1,blue,264,TRUE
573,1661322484.182,3818.437655657126,2650.4116162893097,1000,6.125,-1.466,-0.1,109.4,yellow,264,TRUE
574,1661322484.354,4575.958889857287,3571.8704309346854,1000,2.263,-1.262,-0.3,1049.8,green,264,TRUE
575,1661322485.388,5768.888844662653,2288.8019729664093,1000,1.823,-1.146,-2.927,109.4,blue,264,TRUE
576,1661322485.482,4393.536480985943,2881.353324997636,1000,4.116,1.414,0.244,125.0,red,264,TRUE
577,1661322485.607,3859.0420521254946,2599.5852402109167,1000,6.14,-1.479,-0.089,1141.9,yellow,264,TRUE
578,1661322488.951,3454.680722553357,2547.1665338083926,1000,6.115,-1.542,-0.013,1175.1,yellow,264,TRUE
579,1661322492.284,3610.3069400913137,2630.184720549223,1000,0.32,-1.472,-3.043,1187.1,yellow,264,TRUE
580,1661322494.519,5720.194342192753,2282.727370524529,1000,2.703,-1.47,3.071,1125.8,blue,264,TRUE
581,1661322495.629,3721.1867003647412,2703.346667356377,1000,0.022,-1.515,-0.036,125.1,yellow,264,TRUE
582,1661322496.849,5753.931193787343,2339.5567459024874,1000,1.909,-1.374,3.052,1126.3,blue,264,TRUE
583,1661322497.959,3768.718330087873,2684.763388393409,1000,0.026,-1.514,-0.028,125.0,yellow,264,TRUE
584,1661322498.147,4308.843960212401,3254.9230212540183,1000,1.948,-1.21,-0.398,1048.2,green,264,TRUE
585,1661322499.18,5731.067475763429,2315.355203729374,1000,2.174,-1.378,2.634,109.5,blue,264,TRUE
586,1661322499.273,4314.749341065778,2897.9084363151037,1000,3.344,1.437,0.489,124.9,red,264,TRUE
587,1661322499.398,3937.2934610577304,2705.854441319541,1000,6.278,-1.518,-0.034,1143.4,yellow,264,TRUE
588,1661322501.588,5673.271096929072,2236.8647423838615,1000,2.162,-1.328,2.739,1141.9,blue,264,TRUE
589,1661322502.714,3888.738383627571,2598.8847735774916,1000,0.011,-1.175,-0.301,109.7,yellow,264,TRUE
590,1661322502.808,4459.528515392594,3208.205055042546,1000,1.977,-1.21,-0.254,156.1,green,264,TRUE
591,1661322504.075,4195.069929225262,2923.6148908774194,1000,3.389,1.438,0.463,109.4,red,264,TRUE
592,1661322504.169,4004.179104610483,2660.1006820321004,1000,0.143,-1.511,-0.034,109.3,yellow,264,TRUE
593,1661322504.263,4422.316031486937,3202.42079260084,1000,1.984,-1.256,-0.479,157.6,green,264,TRUE
594,1661322505.453,5539.943595124952,2376.182813090885,1000,2.302,-1.39,-2.832,1126.3,blue,264,TRUE
595,1661322506.563,3942.792980487404,2629.0349368239085,1000,0.598,-1.494,-3.076,125.1,yellow,264,TRUE
596,1661322506.829,5412.763433325141,2374.0539345380644,1000,1.999,-1.337,-2.497,109.4,blue,264,TRUE
597,1661322506.923,4174.210575313597,2955.322041073905,1000,3.392,1.448,0.508,109.3,red,264,TRUE
