,timestamp,x,y,z,yaw,roll,pitch,latency,student,session,success
0,1661382696.411,4007.8982868685366,-2703.9140324195146,1000,5.343,-0.662,0.287,119.8,yellow,265,TRUE
1,1661382697.725,2220.264015220186,6905.6314850119925,1000,3.568,-1.289,0.003,124.3,blue,265,TRUE
2,1661382697.827,2011.6445914648323,6655.672086772119,1000,5.258,-1.489,3.083,109.0,red,265,TRUE
3,1661382697.925,3955.7703745659037,-2661.5380938857575,1000,5.343,-0.653,0.287,115.8,yellow,265,TRUE
4,1661382699.235,2381.0113770256557,6925.476686462324,1000,3.575,-1.301,-0.008,121.3,blue,265,TRUE
5,1661382699.34,2003.6384517807985,6665.201580051049,1000,5.259,-1.487,3.083,106.8,red,265,TRUE
6,1661382699.435,3928.1106139724907,-2618.403627288774,1000,5.341,-0.634,0.281,103.0,yellow,265,TRUE
7,1661382700.719,2419.634446103272,6928.449366310034,1000,3.577,-1.289,-0.039,123.8,blue,265,TRUE
8,1661382700.82,1917.1254482365027,6652.424628283402,1000,5.263,-1.487,3.083,94.4,red,265,TRUE
9,1661382700.903,3914.170917031955,-2615.369150991355,1000,5.342,-0.645,0.285,103.2,yellow,265,TRUE
10,1661382700.992,2948.6484699007087,-2540.7202785266654,1000,5.337,-0.944,-0.003,92.2,green,265,TRUE
11,1661382701.145,2463.141558811106,6935.527201084534,1000,3.596,-1.286,-0.055,103.6,blue,265,TRUE
12,1661382701.235,1898.4334610455924,6658.750176185252,1000,5.27,-1.488,3.083,105.0,red,265,TRUE
13,1661382701.326,3918.904109083483,-2607.1048527691178,1000,5.341,-0.644,0.285,105.6,yellow,265,TRUE
14,1661382701.419,2876.2330135228353,-2488.1264308689456,1000,5.341,-0.936,0.001,106.6,green,265,TRUE
15,1661382701.529,2489.2495048395094,6934.5821104634715,1000,3.6,-1.288,-0.051,98.8,blue,265,TRUE
16,1661382701.615,1939.962080161912,6643.549380132395,1000,5.27,-1.489,3.083,103.2,red,265,TRUE
17,1661382701.705,3927.745548764253,-2603.6764640461083,1000,5.341,-0.644,0.285,103.8,yellow,265,TRUE
18,1661382702.998,2621.590352823722,6957.620321955325,1000,3.612,-1.287,-0.057,122.2,blue,265,TRUE
19,1661382703.102,1993.6158152985251,6611.880608487227,1000,5.256,-1.486,3.085,108.9,red,265,TRUE
20,1661382704.225,2856.217793577131,-2500.6353095385107,1000,5.459,-1.016,0.129,1174.6,green,265,TRUE
21,1661382705.411,2591.220507148928,6941.114251507959,1000,3.623,-1.288,-0.053,125.1,blue,265,TRUE
22,1661382705.521,1966.764584207676,6581.77539267048,1000,5.272,-1.488,3.077,105.3,red,265,TRUE
23,1661382705.617,3932.635064870948,-2584.5162524864904,1000,5.337,-0.601,0.275,100.7,yellow,265,TRUE
24,1661382705.704,2877.31497133109,-2493.664354875979,1000,5.464,-0.996,0.095,133.1,green,265,TRUE
25,1661382705.841,2554.2238722659354,6935.5536846443365,1000,3.628,-1.288,-0.047,102.6,blue,265,TRUE
26,1661382705.93,1966.755050411142,6590.268946368521,1000,5.271,-1.487,3.078,103.3,red,265,TRUE
27,1661382706.02,3950.521047616708,-2615.894294219616,1000,5.335,-0.599,0.272,106.3,yellow,265,TRUE
28,1661382706.115,2894.876987233743,-2497.5206327612036,1000,5.442,-0.954,0.079,91.2,green,265,TRUE
29,1661382706.209,2559.20234528792,6934.517204796307,1000,3.629,-1.29,-0.041,113.3,blue,265,TRUE
30,1661382706.308,2041.5036631581306,6608.057208692466,1000,5.276,-1.487,3.077,106.7,red,265,TRUE
31,1661382706.399,4043.161048239072,-2619.515351979286,1000,5.334,-0.596,0.275,105.7,yellow,265,TRUE
32,1661382706.492,2885.191043939354,-2515.241238292503,1000,5.443,-0.959,0.057,90.2,green,265,TRUE
33,1661382706.585,2543.5497793966806,6932.649456486716,1000,3.623,-1.293,-0.037,100.1,blue,265,TRUE
34,1661382706.672,2059.9797384100752,6609.412393771895,1000,5.279,-1.479,3.069,120.0,red,265,TRUE
35,1661382706.775,4025.641375567789,-2615.0166780253517,1000,5.333,-0.593,0.274,108.0,yellow,265,TRUE
36,1661382706.869,2908.850936263263,-2536.1731451127525,1000,5.441,-0.96,0.052,92.1,green,265,TRUE
37,1661382707.019,2536.7329651687396,6936.362684470833,1000,3.631,-1.289,-0.045,106.1,blue,265,TRUE
38,1661382707.113,2040.6542952467928,6677.343294445301,1000,5.274,-1.474,3.067,103.6,red,265,TRUE
39,1661382707.205,3952.5296103142687,-2630.883741528868,1000,5.34,-0.601,0.276,102.7,yellow,265,TRUE
40,1661382707.296,2883.9523191934204,-2550.3393193322668,1000,5.444,-0.958,0.055,148.0,green,265,TRUE
41,1661382707.447,2541.421751818643,6935.841378025318,1000,3.634,-1.293,-0.043,103.1,blue,265,TRUE
42,1661382707.537,2023.6934184105294,6811.358335468042,1000,5.267,-1.486,3.073,104.6,red,265,TRUE
43,1661382707.628,3945.2851091376724,-2659.5062061212734,1000,5.359,-0.657,0.329,88.4,yellow,265,TRUE
44,1661382707.706,2847.4628309934324,-2526.1094993896468,1000,5.441,-0.941,0.045,74.5,green,265,TRUE
45,1661382707.783,2562.8522427593016,6949.901909046588,1000,3.634,-1.297,-0.035,100.3,blue,265,TRUE
46,1661382707.871,2049.5822174351733,6857.655438509221,1000,5.26,-1.486,3.073,117.9,red,265,TRUE
47,1661382710.218,2049.9772683185984,6824.004208922153,1000,5.258,-1.49,3.074,107.8,red,265,TRUE
48,1661382710.311,3951.717661195938,-2667.858469864462,1000,5.353,-0.683,0.304,121.4,yellow,265,TRUE
49,1661382711.616,2580.3623346298305,7032.0848829323695,1000,4.038,-1.307,0.303,116.2,blue,265,TRUE
50,1661382711.713,2064.4469442465684,6793.419421887596,1000,5.261,-1.482,3.074,115.2,red,265,TRUE
51,1661382711.813,3958.691888967754,-2684.0813499576843,1000,5.349,-0.674,0.302,100.1,yellow,265,TRUE
52,1661382711.899,2823.8156239268264,-2538.5000024339347,1000,5.475,-0.972,0.084,77.3,green,265,TRUE
53,1661382712.034,2584.1344316936047,7006.069610906477,1000,4.072,-1.325,0.348,89.6,blue,265,TRUE
54,1661382712.11,2052.9469436430077,6775.196858278072,1000,5.262,-1.484,3.074,104.3,red,265,TRUE
55,1661382712.202,3884.929359503252,-2712.8029680641425,1000,5.344,-0.622,0.29,103.2,yellow,265,TRUE
56,1661382712.292,2844.338475291121,-2571.9675178201155,1000,5.484,-0.963,0.1,90.5,green,265,TRUE
57,1661382712.385,2586.6559132083044,7004.36527418481,1000,4.055,-1.337,0.343,102.1,blue,265,TRUE
58,1661382712.473,2058.0573550405675,6918.253955264514,1000,5.262,-1.484,3.074,103.6,red,265,TRUE
59,1661382712.564,3890.4670523025757,-2736.1458654311664,1000,5.34,-0.597,0.283,104.2,yellow,265,TRUE
60,1661382712.654,2872.8814405341077,-2594.7702923738107,1000,5.486,-0.961,0.1,153.0,green,265,TRUE
61,1661382712.82,2589.229517565779,7072.6379394403475,1000,4.003,-1.349,0.335,107.0,blue,265,TRUE
62,1661382712.913,2059.0717040929544,6801.482627976243,1000,5.26,-1.485,3.074,102.5,red,265,TRUE
63,1661382713.002,4009.3019340777514,-2737.837931975339,1000,5.341,-0.612,0.284,105.3,yellow,265,TRUE
64,1661382713.095,2872.2536793025974,-2605.5264662389336,1000,5.474,-0.974,0.082,73.8,green,265,TRUE
65,1661382713.211,2615.0982523006523,7103.185250495108,1000,3.961,-1.349,0.279,1076.8,blue,265,TRUE
66,1661382714.272,4036.7596409315497,-2737.0770010316483,1000,5.349,-0.651,0.299,92.4,yellow,265,TRUE
67,1661382714.349,2890.6800963482406,-2594.198098327803,1000,5.471,-0.981,0.07,150.9,green,265,TRUE
68,1661382714.561,2573.563346655638,6962.440890371527,1000,3.952,-1.361,0.353,105.3,blue,265,TRUE
69,1661382714.653,2037.450536147054,6749.4123321506895,1000,5.255,-1.485,3.074,118.6,red,265,TRUE
70,1661382714.749,4053.035196741126,-2760.970780479672,1000,5.348,-0.65,0.299,114.3,yellow,265,TRUE
71,1661382714.832,2934.5881937851996,-2587.333184821567,1000,5.445,-0.952,0.032,93.3,green,265,TRUE
72,1661382714.928,2582.245841765356,6856.180274567876,1000,3.96,-1.361,0.371,98.4,blue,265,TRUE
73,1661382715.013,2043.5971774985676,6746.648305186197,1000,5.255,-1.484,3.074,103.8,red,265,TRUE
74,1661382715.104,4039.2216955665863,-2768.452477116713,1000,5.348,-0.65,0.299,104.0,yellow,265,TRUE
75,1661382715.194,2928.6287230564253,-2558.721348172834,1000,5.437,-0.95,0.022,93.5,green,265,TRUE
76,1661382715.326,2632.7001637235758,7054.354778277668,1000,3.955,-1.353,0.365,1089.7,blue,265,TRUE
77,1661382716.401,4054.614071498323,-2772.5642406490892,1000,5.348,-0.647,0.298,107.9,yellow,265,TRUE
78,1661382716.493,2900.9164168231946,-2543.8644059544126,1000,5.423,-0.932,-0.003,150.8,green,265,TRUE
79,1661382716.705,2487.9008813561104,7017.916685254293,1000,3.779,-1.356,0.218,103.9,blue,265,TRUE
80,1661382716.796,2022.0145453675796,6777.828529716463,1000,5.253,-1.484,3.075,119.0,red,265,TRUE
81,1661382727.078,2008.460023492117,5295.76132688158,1000,0.195,-1.489,3.121,1197.1,red,265,TRUE
82,1661382729.48,2794.502695726054,7000.049887273733,1000,1.397,-1.382,0.358,127.9,blue,265,TRUE
83,1661382729.59,2319.183883792881,5040.4195092765085,1000,0.755,-1.443,-2.784,107.9,red,265,TRUE
84,1661382729.687,4089.0729104787756,-2753.3123623739993,1000,5.351,-0.673,0.311,116.4,yellow,265,TRUE
85,1661382730.982,2837.7398580486947,6729.33419663855,1000,2.097,-1.377,-0.003,119.6,blue,265,TRUE
86,1661382731.08,2632.5661995541554,5000.966078034621,1000,0.451,-1.421,-2.734,111.2,red,265,TRUE
87,1661382731.178,4002.7150999042883,-2719.301429572394,1000,5.353,-0.683,0.316,118.5,yellow,265,TRUE
88,1661382732.48,3066.6913684645697,6592.603264042315,1000,0.548,-1.396,0.276,116.0,blue,265,TRUE
89,1661382732.578,2909.6475055102023,4793.485141482885,1000,0.542,-1.431,-2.854,95.6,red,265,TRUE
90,1661382732.66,3992.384807041169,-2710.968313735886,1000,5.184,-1.273,0.192,118.3,yellow,265,TRUE
91,1661382746.821,3953.2453804191705,5836.3296308083545,1000,0.194,-1.461,0.033,125.5,blue,265,TRUE
92,1661382746.922,3881.1795576680083,6597.891689565833,1000,0.516,-1.476,-3.105,112.3,red,265,TRUE
93,1661382747.023,3708.177100345702,-2940.136158327629,1000,5.375,-0.642,0.26,115.4,yellow,265,TRUE
94,1661382747.11,2876.616287798837,-2524.1508505091783,1000,5.472,-0.92,-0.019,121.1,green,265,TRUE
95,1661382747.287,3967.0662377496906,5845.160772928116,1000,0.193,-1.46,0.031,121.2,blue,265,TRUE
96,1661382747.391,3905.4521940219806,6718.632060956577,1000,0.517,-1.476,-3.105,108.4,red,265,TRUE
97,1661382747.486,3717.3347511702073,-2925.7814840680508,1000,5.373,-0.639,0.26,118.9,yellow,265,TRUE
98,1661382748.786,3971.695914452733,5892.735830104764,1000,0.2,-1.476,0.032,118.5,blue,265,TRUE
99,1661382748.884,3886.655943518482,6668.1502022299,1000,0.514,-1.474,-3.103,109.4,red,265,TRUE
100,1661382748.983,3696.4039175517487,-2915.06622886285,1000,5.37,-0.624,0.256,114.2,yellow,265,TRUE
101,1661382750.292,3989.9585419028463,5865.193635953077,1000,0.206,-1.472,0.033,119.2,blue,265,TRUE
102,1661382750.395,3885.569746577905,6670.413581932167,1000,0.512,-1.476,-3.103,108.5,red,265,TRUE
103,1661382750.493,3624.7973542282366,-2897.265300221318,1000,5.378,-0.685,0.261,116.1,yellow,265,TRUE
104,1661382751.779,4002.4465300594075,5806.227328648361,1000,0.205,-1.467,0.032,119.4,blue,265,TRUE
105,1661382751.879,3843.277899783095,6606.6795606005835,1000,0.521,-1.473,-3.105,93.7,red,265,TRUE
106,1661382751.962,3637.270538842395,-2903.3858124704293,1000,5.38,-0.677,0.262,100.3,yellow,265,TRUE
107,1661382752.049,2855.7630194551834,-2509.431074329577,1000,5.512,-0.903,0.035,91.5,green,265,TRUE
108,1661382752.198,4005.8608297820992,5857.301011832174,1000,0.23,-1.456,0.041,105.5,blue,265,TRUE
109,1661382752.29,3845.180161150431,6592.0675561161415,1000,0.511,-1.473,-3.103,105.4,red,265,TRUE
110,1661382752.382,3555.37970182213,-2876.4634788427975,1000,5.379,-0.672,0.261,104.9,yellow,265,TRUE
111,1661382752.473,2874.6132900501784,-2526.809394226997,1000,5.519,-0.9,0.041,91.9,green,265,TRUE
112,1661382752.57,4011.406720611864,5820.115731559735,1000,0.423,-1.413,0.603,99.6,blue,265,TRUE
113,1661382752.655,3849.1151725195505,6560.10225000053,1000,0.513,-1.473,-3.103,104.9,red,265,TRUE
114,1661382752.745,3582.910645803013,-2887.4438607090274,1000,5.377,-0.661,0.26,119.0,yellow,265,TRUE
115,1661382752.835,2887.6955743965486,-2533.6842527699223,1000,5.516,-0.9,0.039,165.7,green,265,TRUE
116,1661382753.014,3992.7212798069518,5771.323115132512,1000,0.291,-1.432,0.574,91.8,blue,265,TRUE
117,1661382753.092,3863.973725363403,6571.530008686135,1000,0.511,-1.472,-3.103,103.6,red,265,TRUE
118,1661382753.183,3583.3023163599955,-2889.1352531426705,1000,5.377,-0.659,0.26,118.7,yellow,265,TRUE
119,1661382754.495,3963.1711370649814,5759.903120689879,1000,0.312,-1.43,0.129,119.2,blue,265,TRUE
120,1661382754.595,3848.3699631217355,6543.068332526261,1000,0.511,-1.473,-3.103,111.5,red,265,TRUE
121,1661382754.695,3635.1368096083806,-2857.9998381071473,1000,5.371,-0.601,0.254,86.2,yellow,265,TRUE
122,1661382754.77,2880.750392826667,-2533.474873710956,1000,5.431,-0.846,-0.105,88.8,green,265,TRUE
123,1661382754.916,3924.8040733498597,5797.415169206731,1000,0.299,-1.439,0.091,104.7,blue,265,TRUE
124,1661382755.005,3822.178686962579,6505.732687292388,1000,0.509,-1.472,-3.103,106.2,red,265,TRUE
125,1661382755.098,3637.618684075127,-2851.900369241021,1000,5.38,-0.647,0.257,104.2,yellow,265,TRUE
126,1661382756.394,3915.7169803625598,5806.65605277913,1000,0.243,-1.443,0.137,105.1,blue,265,TRUE
127,1661382756.48,3864.8128511349955,6570.179289027302,1000,0.523,-1.472,-3.105,109.9,red,265,TRUE
128,1661382756.581,3654.931983541997,-2849.5529656718522,1000,5.378,-0.65,0.259,99.3,yellow,265,TRUE
129,1661382756.667,2879.2479406700736,-2522.6224453441223,1000,5.381,-0.826,-0.193,96.3,green,265,TRUE
130,1661382756.816,3882.7239992011987,5788.816919206925,1000,0.232,-1.441,0.121,93.3,blue,265,TRUE
131,1661382756.895,3830.2110474428555,6505.78303408801,1000,0.523,-1.475,-3.105,105.3,red,265,TRUE
132,1661382756.988,3647.2609414940903,-2865.305830241446,1000,5.378,-0.65,0.259,101.9,yellow,265,TRUE
133,1661382757.076,2885.9597549489695,-2521.6912731632137,1000,5.327,-0.809,-0.376,92.0,green,265,TRUE
134,1661382757.209,3839.8708226251165,6573.188973036985,1000,0.525,-1.475,-3.105,120.9,red,265,TRUE
135,1661382758.344,2892.386436265775,-2510.82410574728,1000,5.348,-0.813,-0.451,1193.2,green,265,TRUE
136,1661382759.549,4045.0111603771975,5716.675115362117,1000,0.236,-1.431,0.113,108.5,blue,265,TRUE
137,1661382759.639,3833.04424080217,6588.712747686699,1000,0.525,-1.475,-3.105,110.0,red,265,TRUE
138,1661382759.738,3652.17193602151,-2870.8200514171954,1000,5.379,-0.652,0.257,100.4,yellow,265,TRUE
139,1661382759.826,2896.197920378894,-2496.450111272694,1000,5.355,-0.815,-0.452,149.7,green,265,TRUE
140,1661382759.978,4049.987592452523,5956.790935634348,1000,0.238,-1.432,0.117,102.5,blue,265,TRUE
141,1661382760.067,3843.9379098727186,6632.102461211428,1000,0.525,-1.475,-3.105,104.4,red,265,TRUE
142,1661382760.158,3662.691029028347,-2872.9672287725048,1000,5.381,-0.666,0.26,103.7,yellow,265,TRUE
143,1661382760.251,2909.666409841758,-2486.400180724973,1000,5.347,-0.838,-0.497,89.4,green,265,TRUE
144,1661382760.344,4008.1466060975877,5988.118596002406,1000,0.239,-1.432,0.12,97.4,blue,265,TRUE
145,1661382760.429,3866.3957251710835,6660.028049059806,1000,0.525,-1.475,-3.105,102.8,red,265,TRUE
146,1661382760.519,3623.0230721440726,-2891.0674392812593,1000,5.381,-0.671,0.261,102.5,yellow,265,TRUE
147,1661382760.607,2921.250388603792,-2479.8631872521296,1000,5.354,-0.854,-0.52,94.2,green,265,TRUE
148,1661382760.707,4015.869611060496,5976.95475663933,1000,0.239,-1.433,0.125,126.6,blue,265,TRUE
149,1661382760.816,3877.6191853890814,6655.541980721294,1000,0.525,-1.475,-3.105,106.7,red,265,TRUE
150,1661382760.909,3635.988393391346,-2903.968716758569,1000,5.38,-0.664,0.259,119.2,yellow,265,TRUE
151,1661382761.014,2941.7430865715287,-2487.947061483804,1000,5.369,-0.848,-0.409,96.0,green,265,TRUE
152,1661382761.165,4053.414410142826,5970.25201064485,1000,0.24,-1.433,0.124,105.4,blue,265,TRUE
153,1661382761.257,3945.387664098424,6742.66191215153,1000,0.524,-1.475,-3.105,117.1,red,265,TRUE
154,1661382761.358,3641.22387131241,-2904.076196629741,1000,5.38,-0.664,0.259,107.3,yellow,265,TRUE
155,1661382761.451,2950.984813166538,-2490.339133920105,1000,5.427,-0.845,-0.209,150.7,green,265,TRUE
156,1661382761.606,4077.8930807775887,6026.700784193415,1000,0.243,-1.429,0.112,103.0,blue,265,TRUE
157,1661382761.698,3970.77795227951,6745.8669429911215,1000,0.524,-1.474,-3.105,101.7,red,265,TRUE
158,1661382761.786,3636.3555218942547,-2896.3795406784648,1000,5.38,-0.66,0.259,118.9,yellow,265,TRUE
159,1661382761.877,2977.5440814202752,-2509.2838982068292,1000,5.379,-0.854,-0.168,92.3,green,265,TRUE
160,1661382761.972,4079.9249129777745,6013.194085975653,1000,0.248,-1.427,0.092,99.6,blue,265,TRUE
161,1661382762.057,4015.3161223600277,6735.834734063974,1000,0.524,-1.474,-3.105,104.7,red,265,TRUE
162,1661382762.148,3609.819889560235,-2889.4841839497217,1000,5.38,-0.659,0.259,106.0,yellow,265,TRUE
163,1661382762.241,2984.968288293448,-2507.177020565257,1000,5.337,-0.897,-0.343,92.7,green,265,TRUE
164,1661382762.358,4107.622829211487,5905.08735294877,1000,0.245,-1.424,0.093,108.2,blue,265,TRUE
165,1661382762.452,4050.3778718248645,6742.323369443774,1000,0.524,-1.473,-3.105,105.5,red,265,TRUE
166,1661382762.542,3597.7579301852493,-2871.625199087593,1000,5.38,-0.656,0.257,104.2,yellow,265,TRUE
167,1661382762.636,2983.916567261865,-2505.6420541977477,1000,5.33,-0.851,-0.465,90.2,green,265,TRUE
168,1661382762.783,4140.747467181282,5829.122636642448,1000,0.244,-1.422,0.096,107.1,blue,265,TRUE
169,1661382762.876,4008.3230094291534,6711.360795648648,1000,0.524,-1.473,-3.105,103.3,red,265,TRUE
170,1661382762.966,3575.204504610356,-2866.221692080268,1000,5.38,-0.654,0.257,103.5,yellow,265,TRUE
171,1661382763.058,2993.5227045013016,-2515.102582080301,1000,5.346,-0.909,-0.535,148.3,green,265,TRUE
172,1661382763.209,4134.640790136117,5804.985193533398,1000,0.242,-1.421,0.107,118.4,blue,265,TRUE
173,1661382763.311,3952.568038086519,6666.827539313524,1000,0.523,-1.473,-3.105,107.5,red,265,TRUE
174,1661382763.404,3549.489877920759,-2847.25814101023,1000,5.381,-0.663,0.259,105.2,yellow,265,TRUE
175,1661382763.495,2994.643703598593,-2508.148024981208,1000,5.361,-0.898,-0.526,94.6,green,265,TRUE
176,1661382763.595,4100.5226217631825,5777.175898889497,1000,0.239,-1.425,0.125,93.5,blue,265,TRUE
177,1661382763.675,3919.497030670586,6634.438054969997,1000,0.521,-1.474,-3.105,118.9,red,265,TRUE
178,1661382763.778,3503.0837651489387,-2842.051785085839,1000,5.381,-0.665,0.26,123.6,yellow,265,TRUE
179,1661382763.884,2994.237498035767,-2507.107623838958,1000,5.377,-0.915,-0.507,94.5,green,265,TRUE
180,1661382763.981,4090.396201781184,5666.217761149554,1000,0.243,-1.427,0.118,99.8,blue,265,TRUE
181,1661382764.068,3924.801102393141,6635.41305686715,1000,0.52,-1.473,-3.105,103.7,red,265,TRUE
182,1661382764.158,3496.255531529597,-2835.5249762868566,1000,5.379,-0.64,0.261,104.5,yellow,265,TRUE
183,1661382764.252,2986.2933107480007,-2493.0734048850513,1000,5.373,-0.893,-0.464,90.1,green,265,TRUE
184,1661382764.413,4072.142650259761,5688.261960612017,1000,0.245,-1.427,0.122,91.0,blue,265,TRUE
185,1661382764.491,3934.766370733829,6643.885467634999,1000,0.519,-1.472,-3.103,104.4,red,265,TRUE
186,1661382764.582,3533.8714888958216,-2855.0184192280235,1000,5.377,-0.596,0.252,103.9,yellow,265,TRUE
187,1661382764.674,2973.4698572420693,-2493.077212655864,1000,5.366,-0.881,-0.473,147.0,green,265,TRUE
188,1661382764.835,4045.3277106904884,5716.504143536681,1000,0.247,-1.424,0.127,106.1,blue,265,TRUE
189,1661382764.927,3921.4895753877868,6637.023345840115,1000,0.519,-1.47,-3.105,120.4,red,265,TRUE
190,1661382766.059,2953.5958899824454,-2478.293246846905,1000,5.364,-0.897,-0.448,1176.9,green,265,TRUE
191,1661382767.248,4029.7947483677003,5726.358038933545,1000,0.25,-1.422,0.14,110.0,blue,265,TRUE
192,1661382767.339,3996.2255704561635,6686.829908231654,1000,0.517,-1.469,-3.103,109.3,red,265,TRUE
193,1661382767.436,3491.8983476877384,-2869.61263593311,1000,5.383,-0.648,0.259,103.1,yellow,265,TRUE
194,1661382767.525,2905.4005235043146,-2495.393940457107,1000,5.516,-0.95,-0.182,149.4,green,265,TRUE
195,1661382767.681,4029.0064448171306,5721.671519049195,1000,0.249,-1.425,0.147,99.6,blue,265,TRUE
196,1661382767.768,4035.1189784882577,6740.0785294385105,1000,0.517,-1.467,-3.103,120.5,red,265,TRUE
197,1661382767.871,3511.9830672302032,-2882.0683763121724,1000,5.383,-0.647,0.259,123.0,yellow,265,TRUE
198,1661382769.185,4028.184858287081,5719.619825610826,1000,0.25,-1.426,0.146,127.0,blue,265,TRUE
199,1661382769.286,4040.85878834032,6774.378917999616,1000,0.517,-1.463,-3.103,125.9,red,265,TRUE
200,1661382769.389,3535.77162433949,-2894.027271450326,1000,5.385,-0.665,0.262,113.0,yellow,265,TRUE
201,1661382770.694,3961.0435631648725,5659.542048622629,1000,0.253,-1.427,0.147,121.8,blue,265,TRUE
202,1661382770.795,4019.540854546734,6771.157900998151,1000,0.504,-1.461,-3.101,125.2,red,265,TRUE
203,1661382770.898,3541.2643886987876,-2895.727380398295,1000,5.382,-0.653,0.259,96.8,yellow,265,TRUE
204,1661382770.983,2864.4667822797783,-2535.1337221143103,1000,5.589,-1.052,0.038,74.8,green,265,TRUE
205,1661382771.116,3931.5627101865134,5579.334182557047,1000,0.253,-1.428,0.151,89.0,blue,265,TRUE
206,1661382771.193,3988.1461542669495,6761.389584511903,1000,0.507,-1.464,-3.102,101.7,red,265,TRUE
207,1661382771.282,3540.5102497220164,-2976.9338493257123,1000,5.382,-0.651,0.259,120.4,yellow,265,TRUE
208,1661382771.385,2880.8302624608536,-2617.238341056684,1000,5.587,-1.05,0.031,92.3,green,265,TRUE
209,1661382771.507,3878.3601331760387,5501.046349103525,1000,0.253,-1.428,0.151,108.0,blue,265,TRUE
210,1661382771.6,3997.2633653501357,6754.13173500872,1000,0.509,-1.465,-3.103,104.6,red,265,TRUE
211,1661382771.69,3564.836119531225,-2962.2074432888203,1000,5.382,-0.656,0.259,105.3,yellow,265,TRUE
212,1661382771.787,2847.9888238653043,-2690.4766057603615,1000,5.585,-1.009,0.028,144.6,green,265,TRUE
213,1661382771.959,3835.208112895099,5445.486798304241,1000,0.251,-1.438,0.159,107.5,blue,265,TRUE
214,1661382772.05,3957.307394314075,6709.0012337873695,1000,0.509,-1.463,-3.103,108.5,red,265,TRUE
215,1661382772.144,3631.3328475412854,-2975.5140240534415,1000,5.383,-0.664,0.261,104.7,yellow,265,TRUE
216,1661382772.234,2749.8295608232315,-2771.5882756804217,1000,5.577,-1.026,0.016,79.7,green,265,TRUE
217,1661382772.323,3797.834337669918,5364.758825079086,1000,0.252,-1.437,0.169,108.0,blue,265,TRUE
218,1661382772.414,3953.5638240733037,6683.297018908423,1000,0.509,-1.458,-3.103,121.5,red,265,TRUE
219,1661382772.519,3534.0374784003566,-2931.9801296766504,1000,5.383,-0.663,0.261,92.3,yellow,265,TRUE
220,1661382772.597,2457.3766471694585,-2089.555650942144,1000,5.58,-1.02,0.023,76.4,green,265,TRUE
221,1661382772.733,3754.6529930608726,5283.955345754306,1000,0.248,-1.436,0.168,105.2,blue,265,TRUE
222,1661382772.822,3938.6382673473036,6649.832591434977,1000,0.516,-1.454,-3.103,122.1,red,265,TRUE
223,1661382772.928,3514.6132476431935,-2913.5413608270137,1000,5.383,-0.661,0.26,138.9,yellow,265,TRUE
224,1661382774.256,3801.0710785657648,5368.818675362949,1000,0.256,-1.46,0.012,120.1,blue,265,TRUE
225,1661382774.358,3946.0496459850706,6646.463833762013,1000,0.511,-1.451,-2.818,109.7,red,265,TRUE
226,1661382774.457,3532.183406704267,-2919.0574109088557,1000,5.381,-0.641,0.256,99.5,yellow,265,TRUE
227,1661382774.683,3801.862817871975,5411.3206865495,1000,0.252,-1.457,0.021,100.9,blue,265,TRUE
228,1661382774.77,3939.5192208933645,6647.059877713576,1000,0.511,-1.45,-2.821,121.0,red,265,TRUE
229,1661382774.874,3563.051455120707,-2834.9769294065554,1000,5.381,-0.64,0.256,109.3,yellow,265,TRUE
230,1661382775.06,3814.8164500240873,5473.490325401256,1000,0.249,-1.451,0.18,90.5,blue,265,TRUE
231,1661382775.137,3923.946829671328,6638.209587195757,1000,0.508,-1.453,-3.103,103.6,red,265,TRUE
232,1661382775.227,3487.1603007100807,-2829.671342616139,1000,5.381,-0.639,0.256,105.1,yellow,265,TRUE
233,1661382775.32,2874.1129934715254,-2737.9729879670613,1000,5.573,-0.996,-0.009,132.7,green,265,TRUE
234,1661382775.482,3846.794122562223,5579.847081960899,1000,0.239,-1.454,0.027,107.5,blue,265,TRUE
235,1661382775.575,3927.927955190253,6641.020601846972,1000,0.511,-1.458,-3.105,105.8,red,265,TRUE
236,1661382775.666,3454.795865610828,-2829.772639992576,1000,5.381,-0.647,0.257,102.8,yellow,265,TRUE
237,1661382775.758,2892.515955316916,-2728.6774140636862,1000,5.563,-1.067,0.012,110.2,green,265,TRUE
238,1661382775.875,3883.0204205443665,5670.727552776429,1000,0.206,-1.46,0.028,121.3,blue,265,TRUE
239,1661382775.979,3890.558096931148,6564.986477416787,1000,0.511,-1.458,-3.105,106.7,red,265,TRUE
240,1661382776.072,3559.008737422743,-2874.1293906492333,1000,5.383,-0.658,0.259,104.2,yellow,265,TRUE
241,1661382776.164,2894.144970335419,-2764.7582855802525,1000,5.557,-1.052,0.003,77.6,green,265,TRUE
242,1661382776.298,3933.0998710150648,5762.869922585059,1000,0.199,-1.456,0.029,121.3,blue,265,TRUE
243,1661382776.403,3891.0826368864596,6572.774743524362,1000,0.509,-1.457,-3.105,121.6,red,265,TRUE
244,1661382776.508,3579.7285354696837,-2883.5452012129804,1000,5.385,-0.673,0.262,120.6,yellow,265,TRUE
245,1661382776.6,2895.3392477254556,-2778.8861005729386,1000,5.559,-1.045,0.007,75.7,green,265,TRUE
246,1661382776.705,4236.482676372157,8340.54603702834,1000,0.508,-1.457,-3.105,1101.4,blue,265,TRUE
247,1661382776.705,3934.476199462198,6839.763919860216,1000,0.508,-1.457,-3.105,1102.4,red,265,TRUE
248,1661382776.705,3984.822086479022,7117.771631709977,1000,0.508,-1.457,-3.105,1103.4,red,265,TRUE
249,1661382777.79,3558.768224947724,-2909.258974348059,1000,5.384,-0.66,0.26,93.0,yellow,265,TRUE
250,1661382777.869,2928.8548205865245,-2783.343331040486,1000,5.563,-1.025,0.013,152.0,green,265,TRUE
251,1661382778.078,4179.208984642095,6958.40708862887,1000,0.2,-1.449,0.231,92.9,blue,265,TRUE
252,1661382778.156,3982.611320540817,7091.107492762632,1000,0.507,-1.452,-3.105,103.4,red,265,TRUE
253,1661382778.248,3542.300632608291,-2913.4849378985577,1000,5.384,-0.659,0.26,116.9,yellow,265,TRUE
254,1661382779.558,3980.7873163834843,6491.982121179647,1000,0.212,-1.445,0.196,106.1,blue,265,TRUE
255,1661382779.644,3958.734708515043,7111.882754613028,1000,0.508,-1.458,-3.106,111.9,red,265,TRUE
256,1661382779.743,3517.94720472478,-2903.22912034567,1000,5.387,-0.681,0.263,117.1,yellow,265,TRUE
257,1661382779.834,2997.057351246532,-2760.638451071302,1000,5.583,-0.987,0.04,78.9,green,265,TRUE
258,1661382779.98,4011.579085848507,6396.452085308012,1000,0.212,-1.436,0.216,106.6,blue,265,TRUE
259,1661382780.073,3986.5419565484367,7335.882404763052,1000,0.508,-1.46,-3.106,118.5,red,265,TRUE
260,1661382782.4,3960.287483066762,7320.122931329798,1000,0.427,-1.461,-3.098,127.0,red,265,TRUE
261,1661382782.511,3508.438215948257,-2889.6009625512906,1000,5.385,-0.677,0.263,121.1,yellow,265,TRUE
262,1661382782.605,3576.1064509861685,-1997.4781442712865,1000,5.569,-0.988,-0.005,163.3,green,265,TRUE
263,1661382782.773,3999.021215261558,6290.393487491276,1000,0.137,-1.491,0.053,101.9,blue,265,TRUE
264,1661382782.862,3884.978243510828,7015.845545126024,1000,0.431,-1.458,-3.098,104.4,red,265,TRUE
265,1661382782.953,3480.796064431004,-2877.8897147162897,1000,5.384,-0.663,0.261,119.8,yellow,265,TRUE
266,1661382783.055,3630.919466890935,-1996.2731956687348,1000,5.563,-0.995,0.003,79.4,green,265,TRUE
267,1661382783.137,4000.0060764380632,6159.814706478745,1000,0.128,-1.49,0.053,86.1,blue,265,TRUE
268,1661382783.21,3808.833485442439,6711.058700923971,1000,0.439,-1.461,-3.099,103.5,red,265,TRUE
269,1661382783.299,3460.8753157882597,-2876.596945099951,1000,5.383,-0.658,0.26,103.7,yellow,265,TRUE
270,1661382783.389,4211.533110482234,-1256.105986813092,1000,5.567,-0.98,0.013,109.4,green,265,TRUE
271,1661382783.508,3954.9222489411045,5734.929062291564,1000,0.113,-1.478,0.057,105.9,blue,265,TRUE
272,1661382783.6,3792.276744682713,6712.941490016649,1000,0.441,-1.463,-3.099,105.3,red,265,TRUE
273,1661382783.692,3525.6009020950655,-2867.3644066263755,1000,5.382,-0.653,0.259,103.4,yellow,265,TRUE
274,1661382784.992,3924.361397167999,5755.730312445135,1000,0.123,-1.486,0.056,119.4,blue,265,TRUE
275,1661382785.091,3834.4022269280176,6600.4664487008595,1000,0.425,-1.492,-3.087,94.9,red,265,TRUE
276,1661382785.176,3510.102207036019,-2875.0039304119186,1000,5.384,-0.663,0.261,116.2,yellow,265,TRUE
277,1661382786.486,3988.3337637003096,5879.550365550923,1000,0.129,-1.48,0.055,120.9,blue,265,TRUE
278,1661382786.587,3820.762144527684,6370.557887722337,1000,0.425,-1.476,-3.086,100.8,red,265,TRUE
279,1661382786.672,3556.148045274236,-2874.39156269379,1000,5.383,-0.66,0.26,116.9,yellow,265,TRUE
280,1661382787.971,3964.052038661786,5857.0420330280685,1000,0.183,-1.451,0.345,119.7,blue,265,TRUE
281,1661382788.072,3835.6497196233518,6318.802209001034,1000,0.43,-1.498,-3.089,93.7,red,265,TRUE
282,1661382788.156,3564.369455653008,-2866.0399303786094,1000,5.384,-0.656,0.259,115.2,yellow,265,TRUE
283,1661382789.467,3970.0561278140444,5845.722874829321,1000,0.182,-1.433,0.288,121.5,blue,265,TRUE
284,1661382789.567,3849.1657346785437,6318.5493585657605,1000,0.392,-1.508,-3.09,111.8,red,265,TRUE
285,1661382789.668,3586.8380122602007,-2882.6691141211395,1000,5.388,-0.682,0.265,100.6,yellow,265,TRUE
286,1661382789.755,4243.040020957719,-1222.9616999681396,1000,5.568,-0.994,0.021,109.0,green,265,TRUE
287,1661382789.92,3966.7891504387894,5885.798666834101,1000,0.191,-1.444,0.322,104.7,blue,265,TRUE
288,1661382790.012,3849.1710776510245,6267.073211944666,1000,0.395,-1.506,-3.09,103.4,red,265,TRUE
289,1661382790.101,3588.0916856324543,-2880.287631357521,1000,5.388,-0.674,0.264,104.7,yellow,265,TRUE
290,1661382790.193,4246.6428413340645,-1200.4806125185041,1000,5.57,-0.985,0.023,93.9,green,265,TRUE
291,1661382790.295,3966.762049119215,5900.389651618494,1000,0.183,-1.441,0.29,122.4,blue,265,TRUE
292,1661382790.401,3835.9572379703845,6217.302915088131,1000,0.394,-1.506,-3.09,91.9,red,265,TRUE
293,1661382790.48,3576.3222896162733,-2865.604553196639,1000,5.389,-0.672,0.264,120.2,yellow,265,TRUE
294,1661382791.787,3922.462770367214,5848.051393185505,1000,0.18,-1.438,0.253,104.1,blue,265,TRUE
295,1661382791.873,3810.1492972585697,6286.203480192448,1000,0.435,-1.494,-3.091,110.1,red,265,TRUE
296,1661382791.97,3580.4030330408204,-2844.5144367377657,1000,5.389,-0.654,0.262,118.9,yellow,265,TRUE
297,1661382793.267,3919.917768485008,5755.653823930731,1000,0.144,-1.434,0.23,117.7,blue,265,TRUE
298,1661382793.373,3761.102671598126,6325.381885448752,1000,0.417,-1.49,-3.09,103.2,red,265,TRUE
299,1661382793.464,3555.9952004569495,-2841.8655559831345,1000,5.389,-0.67,0.264,118.3,yellow,265,TRUE
300,1661382794.776,3941.0745952075486,5790.891537232018,1000,0.152,-1.449,0.239,118.8,blue,265,TRUE
301,1661382794.875,3732.2025052907793,6363.715785813878,1000,0.416,-1.494,-3.09,110.8,red,265,TRUE
302,1661382794.971,3557.4420017956636,-2849.7608864433187,1000,5.388,-0.657,0.261,119.7,yellow,265,TRUE
303,1661382796.286,3937.5129710656497,5815.044476557113,1000,0.819,-1.413,0.808,120.4,blue,265,TRUE
304,1661382796.389,3705.366178621242,6350.676639234972,1000,0.418,-1.496,-3.09,122.0,red,265,TRUE
305,1661382798.782,3738.745234998432,6385.603741823972,1000,0.409,-1.486,-3.089,142.2,red,265,TRUE
306,1661382798.928,3232.5072669991387,-2768.0413064759723,1000,5.38,-0.584,0.254,1144.3,yellow,265,TRUE
307,1661382800.142,3899.25609435477,5720.060909410752,1000,0.183,-1.445,0.165,97.2,blue,265,TRUE
308,1661382800.227,3729.502296840487,6459.507795035668,1000,0.423,-1.491,-3.09,102.3,red,265,TRUE
309,1661382800.318,3404.610816111789,-2826.081247803959,1000,5.382,-0.61,0.256,117.1,yellow,265,TRUE
310,1661382801.615,3918.231337422492,5785.963653321357,1000,0.231,-1.452,0.033,120.9,blue,265,TRUE
311,1661382801.716,3729.6806598146486,6515.344017176146,1000,0.428,-1.491,-3.093,109.1,red,265,TRUE
312,1661382801.816,3437.2695129874605,-2847.667467261408,1000,5.388,-0.645,0.261,114.4,yellow,265,TRUE
313,1661382803.125,3993.4522410960276,5910.814428608538,1000,0.217,-1.449,0.275,118.5,blue,265,TRUE
314,1661382803.227,3798.58427772787,6592.362493916873,1000,0.433,-1.49,-3.094,107.2,red,265,TRUE
315,1661382803.323,3444.65736732104,-2864.7292248083527,1000,5.384,-0.634,0.259,116.8,yellow,265,TRUE
316,1661382804.631,4020.435892084064,6024.645584152608,1000,0.22,-1.462,0.04,120.8,blue,265,TRUE
317,1661382804.732,3864.96362434334,6674.099719740902,1000,0.434,-1.489,-3.096,129.1,red,265,TRUE
318,1661382807.118,3920.091229960246,6759.250340667985,1000,0.433,-1.491,-3.096,125.1,red,265,TRUE
319,1661382808.255,4144.0632328997235,-1156.9875356675066,1000,5.449,-0.716,-0.085,1174.0,green,265,TRUE
320,1661382809.438,4020.9007830480255,6010.541116624142,1000,0.22,-1.452,0.043,127.8,blue,265,TRUE
321,1661382809.545,3939.7931053818993,6832.90801247812,1000,0.436,-1.492,-3.097,110.8,red,265,TRUE
322,1661382809.647,3492.642336040859,-2867.8605754660434,1000,5.388,-0.593,0.252,100.8,yellow,265,TRUE
323,1661382809.733,3559.1332790661872,-1870.667084153225,1000,5.448,-0.699,-0.081,149.6,green,265,TRUE
324,1661382809.884,4042.8186981758518,6079.764517639581,1000,0.22,-1.453,0.043,104.8,blue,265,TRUE
325,1661382809.978,3964.738587068881,6830.9748194350395,1000,0.436,-1.492,-3.097,102.0,red,265,TRUE
326,1661382810.067,3544.656040353732,-2870.7093952111586,1000,5.387,-0.592,0.252,117.6,yellow,265,TRUE
327,1661382811.363,4089.8763583993546,6292.238700842842,1000,0.216,-1.452,0.044,118.4,blue,265,TRUE
328,1661382811.462,3968.3822147302235,6761.453760975272,1000,0.683,-1.494,-3.122,109.6,red,265,TRUE
329,1661382811.56,3600.3860867448584,-2871.128056884528,1000,5.392,-0.605,0.259,116.7,yellow,265,TRUE
330,1661382811.651,3485.848705132217,-1825.8844392105068,1000,5.463,-0.66,-0.055,89.2,green,265,TRUE
331,1661382811.797,4080.2044723100553,6303.38381237278,1000,0.219,-1.452,0.043,121.0,blue,265,TRUE
332,1661382811.901,3971.494146383989,6672.1157307655985,1000,0.641,-1.499,-3.122,108.5,red,265,TRUE
333,1661382811.996,3583.2630786230825,-2839.856032666013,1000,5.394,-0.605,0.259,120.0,yellow,265,TRUE
334,1661382813.314,4093.837340669981,6294.161018522823,1000,0.24,-1.444,0.313,117.6,blue,265,TRUE
335,1661382813.413,3926.1795957304553,6552.781356705116,1000,1.035,-1.443,2.652,108.3,red,265,TRUE
336,1661382813.509,3525.295877809424,-2832.8262198657794,1000,5.394,-0.624,0.263,118.1,yellow,265,TRUE
337,1661382814.813,4090.7572722389136,6197.87532779453,1000,0.389,-1.414,0.445,119.6,blue,265,TRUE
338,1661382814.91,3873.1481325905424,6458.576446927814,1000,1.078,-1.481,-3.131,110.0,red,265,TRUE
339,1661382815.009,3549.047381018587,-2825.311304497233,1000,5.392,-0.627,0.26,102.5,yellow,265,TRUE
340,1661382815.097,2875.512391968561,-2515.1653003780384,1000,5.46,-0.624,-0.163,108.7,green,265,TRUE
341,1661382815.261,4107.42519931038,6123.776124895013,1000,0.686,-1.42,0.85,104.7,blue,265,TRUE
342,1661382815.352,3834.517183407883,6324.273824330037,1000,1.317,-1.497,3.132,118.5,red,265,TRUE
343,1661382815.455,3530.8867995237974,-2828.8502646885695,1000,5.393,-0.628,0.26,108.4,yellow,265,TRUE
344,1661382815.548,2810.323702426522,-2510.462407951852,1000,5.46,-0.623,-0.163,92.8,green,265,TRUE
345,1661382815.646,4074.6483275075766,6007.690465186974,1000,1.011,-1.39,0.921,114.1,blue,265,TRUE
346,1661382815.746,3839.171824257792,6234.665501803261,1000,1.594,-1.497,3.078,119.2,red,265,TRUE
347,1661382815.849,3478.050874231933,-2833.733542031025,1000,5.393,-0.627,0.259,109.4,yellow,265,TRUE
348,1661382815.941,2754.0924564589754,-2498.4178661422425,1000,5.46,-0.622,-0.163,169.6,green,265,TRUE
349,1661382816.116,4074.31561118771,5871.906482149324,1000,1.106,-1.378,0.364,101.1,blue,265,TRUE
350,1661382816.205,3837.162359659338,6210.4951868347125,1000,1.822,-1.473,3.057,102.1,red,265,TRUE
351,1661382816.294,3517.3072683761675,-2849.7329062023005,1000,5.393,-0.625,0.26,120.0,yellow,265,TRUE
352,1661382816.396,2755.4621904872783,-2526.531167531201,1000,5.461,-0.624,-0.163,107.1,green,265,TRUE
353,1661382816.505,4037.391521174817,5736.430061461392,1000,1.106,-1.429,0.458,103.2,blue,265,TRUE
354,1661382816.597,3840.1820438332375,6129.3021613867895,1000,1.536,-1.494,3.123,101.6,red,265,TRUE
355,1661382816.686,3527.0918583930634,-2885.623144834121,1000,5.392,-0.626,0.26,102.9,yellow,265,TRUE
356,1661382816.777,2722.1560618558397,-2546.0786718302365,1000,5.46,-0.619,-0.161,91.2,green,265,TRUE
357,1661382816.955,4017.734651694495,5538.407428389594,1000,1.446,-1.403,0.396,109.0,blue,265,TRUE
358,1661382817.049,3811.6162029154643,6029.88761866109,1000,1.342,-1.532,-3.132,104.7,red,265,TRUE
359,1661382817.14,3576.0821105727973,-2894.3991545528474,1000,5.393,-0.625,0.259,103.9,yellow,265,TRUE
360,1661382817.233,2714.685472477,-2565.071285429934,1000,5.46,-0.611,-0.16,95.1,green,265,TRUE
361,1661382817.335,3979.965725392098,5390.291460775609,1000,1.863,-1.398,-0.027,108.1,blue,265,TRUE
362,1661382817.429,3800.0495711777953,5980.48944015158,1000,1.401,-1.487,3.071,102.9,red,265,TRUE
363,1661382817.52,3573.320856197263,-2884.3821008416435,1000,5.395,-0.631,0.259,119.4,yellow,265,TRUE
364,1661382817.61,2712.9400985607003,-2565.207142224262,1000,5.46,-0.613,-0.16,167.5,green,265,TRUE
365,1661382817.78,3949.1451219022297,5216.920585905587,1000,2.045,-1.43,-0.225,118.9,blue,265,TRUE
366,1661382817.882,3713.1777378410043,5887.671679390325,1000,1.56,-1.413,2.991,128.0,red,265,TRUE
367,1661382817.989,3575.3794361740324,-2884.8751951277486,1000,5.397,-0.647,0.261,122.1,yellow,265,TRUE
368,1661382819.311,3946.7521980037404,4870.706588254702,1000,2.344,-1.402,0.091,117.7,blue,265,TRUE
369,1661382819.412,3620.462055561762,5577.341486833992,1000,2.205,-1.488,3.114,105.9,red,265,TRUE
370,1661382819.505,3604.4052792039815,-2884.585541889097,1000,5.397,-0.641,0.259,118.2,yellow,265,TRUE
371,1661382820.819,4063.829655807325,4369.603321646843,1000,1.803,-1.413,0.26,119.4,blue,265,TRUE
372,1661382820.919,3540.247715458057,5042.311281015613,1000,1.777,-1.49,3.137,109.8,red,265,TRUE
373,1661382821.016,3559.2080810937623,-2889.594728529548,1000,5.396,-0.631,0.257,117.4,yellow,265,TRUE
374,1661382821.104,2716.4094778954322,-2554.457961300666,1000,5.456,-0.616,-0.161,125.2,green,265,TRUE
375,1661382821.286,4274.771284970262,3881.395827756083,1000,1.85,-1.4,0.542,123.1,blue,265,TRUE
376,1661382821.392,3491.8765130251377,4515.1640200149195,1000,1.676,-1.541,-3.123,122.8,red,265,TRUE
377,1661382821.498,3561.291107249721,-2888.1376507291557,1000,5.396,-0.628,0.256,122.4,yellow,265,TRUE
378,1661382821.591,2715.1928001015867,-2538.1813530481177,1000,5.455,-0.614,-0.161,121.7,green,265,TRUE
379,1661382821.718,4385.313080742869,3497.828995368082,1000,1.744,-1.438,1.259,112.5,blue,265,TRUE
380,1661382821.818,3496.543845765906,4010.41973210324,1000,1.689,-1.545,-3.122,118.1,red,265,TRUE
381,1661382821.92,3594.352300690163,-2887.060349005471,1000,5.396,-0.624,0.255,135.3,yellow,265,TRUE
382,1661382823.251,4480.4995376665565,3191.1815891504752,1000,1.174,-1.464,0.099,121.7,blue,265,TRUE
383,1661382823.355,3580.3195352793387,3464.3291547095373,1000,0.796,-1.449,-3.015,122.8,red,265,TRUE
384,1661382823.457,3602.64658317714,-2902.915184879395,1000,5.396,-0.622,0.255,110.6,yellow,265,TRUE
385,1661382824.747,4462.845753652993,2909.931146525271,1000,1.033,-1.377,-0.154,120.8,blue,265,TRUE
386,1661382824.847,3692.2341196688467,2949.2062691950723,1000,0.856,-1.472,-3.127,112.1,red,265,TRUE
387,1661382824.949,3630.7838784980927,-2890.5471867803967,1000,5.394,-0.615,0.253,114.2,yellow,265,TRUE
388,1661382826.26,4475.332104357615,2782.760562198291,1000,1.166,-1.409,0.091,118.6,blue,265,TRUE
389,1661382826.36,3808.5028095663324,2632.3393593185783,1000,0.865,-1.487,-3.121,128.1,red,265,TRUE
390,1661382826.462,3603.0493971631354,-2885.036048309825,1000,5.399,-0.625,0.257,113.0,yellow,265,TRUE
391,1661382827.767,4348.781397699571,2814.6654039617406,1000,1.172,-1.384,0.129,123.7,blue,265,TRUE
392,1661382827.867,3888.8033947469607,2525.9445876081177,1000,0.946,-1.534,-3.132,112.3,red,265,TRUE
393,1661382827.972,3626.853306618555,-2886.588819992848,1000,5.399,-0.619,0.256,112.7,yellow,265,TRUE
394,1661382829.279,4209.791579765163,2848.667737397336,1000,1.188,-1.365,0.135,118.8,blue,265,TRUE
395,1661382829.379,3927.2433522746,2490.1668633155973,1000,0.912,-1.537,-3.123,128.2,red,265,TRUE
396,1661382829.483,3637.0120088432154,-2893.9181028588287,1000,5.401,-0.627,0.257,113.1,yellow,265,TRUE
397,1661382830.792,4079.2172381882774,2886.2411881983717,1000,1.221,-1.369,0.014,120.8,blue,265,TRUE
398,1661382830.895,3970.0931315520907,2466.579530967849,1000,0.872,-1.548,3.12,109.2,red,265,TRUE
399,1661382830.991,3627.626704221228,-2897.373165216153,1000,5.399,-0.615,0.255,117.9,yellow,265,TRUE
400,1661382832.298,4002.199343239703,2830.2462182162835,1000,1.194,-1.349,0.035,120.3,blue,265,TRUE
401,1661382832.401,3932.7203396909717,2427.1445773994687,1000,0.886,-1.536,0.034,113.9,red,265,TRUE
402,1661382832.498,3662.418348304645,-2900.942384569893,1000,5.4,-0.626,0.257,115.2,yellow,265,TRUE
403,1661382833.792,4016.2712209545625,2808.6363094324147,1000,1.17,-1.369,0.117,125.3,blue,265,TRUE
404,1661382833.897,3900.563596003152,2450.8989028534,1000,0.87,-1.532,0.036,107.7,red,265,TRUE
405,1661382833.993,3652.73274192897,-2918.844708538092,1000,5.401,-0.623,0.257,117.0,yellow,265,TRUE
406,1661382835.284,4014.644137524979,2805.3214568399912,1000,1.163,-1.382,0.13,120.4,blue,265,TRUE
407,1661382835.388,3882.580583810093,2483.4989414112947,1000,0.837,-1.541,3.112,107.6,red,265,TRUE
408,1661382835.485,3655.779343517516,-2923.5982554896,1000,5.401,-0.624,0.256,117.0,yellow,265,TRUE
409,1661382836.784,4010.594733679129,2804.3135748307373,1000,1.177,-1.361,0.141,121.9,blue,265,TRUE
410,1661382836.886,3885.8421727791138,2509.2650192006454,1000,0.838,-1.539,0.029,110.9,red,265,TRUE
411,1661382836.985,3646.6779133822924,-2924.866958440121,1000,5.403,-0.637,0.261,116.8,yellow,265,TRUE
412,1661382838.283,4026.436134566897,2820.7095361171437,1000,1.181,-1.372,0.145,119.7,blue,265,TRUE
413,1661382838.384,3878.2926905076406,2521.611764741976,1000,0.839,-1.541,0.027,108.8,red,265,TRUE
414,1661382838.482,3631.1704321133166,-2916.564881105605,1000,5.402,-0.627,0.259,115.6,yellow,265,TRUE
415,1661382839.778,4065.079025087349,2799.403481193411,1000,1.187,-1.371,0.143,119.8,blue,265,TRUE
416,1661382839.88,3876.1393484041473,2522.9411443969916,1000,0.848,-1.537,0.033,110.2,red,265,TRUE
417,1661382839.978,3613.5999569401915,-2921.0140472525604,1000,5.404,-0.647,0.263,115.9,yellow,265,TRUE
418,1661382841.287,4146.97417163273,2774.067129853378,1000,1.172,-1.372,0.123,122.4,blue,265,TRUE
419,1661382841.389,3867.2487484038393,2497.386814014604,1000,0.831,-1.529,3.105,110.6,red,265,TRUE
420,1661382841.488,3582.986267848266,-2916.1649692491123,1000,5.402,-0.636,0.261,102.7,yellow,265,TRUE
421,1661382841.579,3270.1757628183764,-1733.9376517974524,1000,5.455,-0.75,-0.077,73.5,green,265,TRUE
422,1661382841.712,4252.0277798039,2795.647768072545,1000,1.126,-1.378,0.021,104.4,blue,265,TRUE
423,1661382841.802,3870.067621062566,2477.6593311624715,1000,0.832,-1.528,3.103,134.7,red,265,TRUE
424,1661382841.906,3583.0076939626065,-2899.5252033503148,1000,5.401,-0.634,0.26,122.1,yellow,265,TRUE
425,1661382842.011,3306.681311544837,-1750.9312981072424,1000,5.454,-0.744,-0.074,94.1,green,265,TRUE
426,1661382842.108,4252.982577500853,2784.3828401437772,1000,1.105,-1.388,0.005,102.5,blue,265,TRUE
427,1661382842.197,3865.912812215795,2454.1650511247385,1000,0.827,-1.53,3.103,104.2,red,265,TRUE
428,1661382842.288,3600.7278451029265,-2898.2760147084286,1000,5.4,-0.635,0.26,104.3,yellow,265,TRUE
429,1661382842.381,3287.0645403993403,-1737.2036075368296,1000,5.454,-0.745,-0.072,147.7,green,265,TRUE
430,1661382842.532,4254.379632569364,2770.5201892798773,1000,1.107,-1.381,0.003,101.6,blue,265,TRUE
431,1661382842.621,3872.9516828877972,2435.7362984005335,1000,0.822,-1.532,3.103,103.6,red,265,TRUE
432,1661382842.71,3617.8231889269373,-2893.114363795495,1000,5.4,-0.635,0.259,104.5,yellow,265,TRUE
433,1661382842.803,3261.3664823840786,-1720.4679275267717,1000,5.454,-0.742,-0.071,90.9,green,265,TRUE
434,1661382842.919,4203.0378299842805,2732.1702996715453,1000,1.11,-1.379,0.004,122.1,blue,265,TRUE
435,1661382843.024,3880.7196440726652,2412.7890440509436,1000,0.812,-1.533,3.106,106.9,red,265,TRUE
436,1661382843.118,3640.2404495974824,-2893.0533702663583,1000,5.4,-0.633,0.259,118.6,yellow,265,TRUE
437,1661382844.411,4278.708248207394,2748.769436372104,1000,1.104,-1.383,0.009,121.4,blue,265,TRUE
438,1661382844.512,3886.4239330866603,2404.190824510981,1000,0.815,-1.534,3.106,112.7,red,265,TRUE
439,1661382844.613,3660.815658531725,-2886.632761128784,1000,5.401,-0.632,0.259,117.9,yellow,265,TRUE
440,1661382844.701,3281.480242343346,-1713.8735127763966,1000,5.451,-0.626,-0.05,94.4,green,265,TRUE
441,1661382844.849,4198.415031242731,2749.120648609416,1000,1.104,-1.38,0.002,121.7,blue,265,TRUE
442,1661382844.955,3895.031296976594,2404.3849934087125,1000,0.816,-1.534,3.106,137.2,red,265,TRUE
443,1661382847.333,3906.3265245791067,2399.23367554903,1000,0.812,-1.528,3.102,141.1,red,265,TRUE
444,1661382848.487,3267.759320857381,-1674.0306310188043,1000,5.461,-0.637,-0.061,1181.2,green,265,TRUE
445,1661382849.678,4157.2891373707125,2677.7290438221403,1000,1.101,-1.381,-0.001,115.7,blue,265,TRUE
446,1661382849.77,3909.939191272481,2407.167989463815,1000,0.812,-1.527,3.099,110.7,red,265,TRUE
447,1661382849.87,3695.2721013029236,-2881.7082523755325,1000,5.402,-0.633,0.259,115.7,yellow,265,TRUE
448,1661382849.959,2739.3017799904064,-2458.2892799414826,1000,5.465,-0.652,-0.06,148.7,green,265,TRUE
449,1661382850.12,4279.431813832687,2648.302167610321,1000,1.102,-1.384,0.003,107.6,blue,265,TRUE
450,1661382850.216,3906.4014459020186,2408.1836792021973,1000,0.814,-1.526,3.098,101.9,red,265,TRUE
451,1661382850.305,3669.732263509743,-2889.671148765667,1000,5.402,-0.626,0.257,119.0,yellow,265,TRUE
452,1661382850.397,2739.003329530057,-2419.298605357694,1000,5.466,-0.646,-0.061,91.3,green,265,TRUE
453,1661382850.493,4313.562486677872,2637.5192419614605,1000,1.11,-1.386,-0.005,115.0,blue,265,TRUE
454,1661382850.59,3900.3091681990118,2409.5900226451436,1000,0.809,-1.525,3.098,107.5,red,265,TRUE
455,1661382850.683,3658.3179674195926,-2889.5399641644167,1000,5.402,-0.625,0.257,103.3,yellow,265,TRUE
456,1661382850.773,2779.7057216317476,-2413.0523395888254,1000,5.464,-0.658,-0.061,93.5,green,265,TRUE
457,1661382850.907,4056.9226052578974,2839.022838628396,1000,1.144,-1.386,0.044,1075.6,blue,265,TRUE
458,1661382851.968,3637.950188388835,-2894.6658335420234,1000,5.404,-0.651,0.262,107.4,yellow,265,TRUE
459,1661382852.061,2812.0848949891056,-2419.8504690683144,1000,5.475,-0.599,-0.067,149.2,green,265,TRUE
460,1661382852.272,3995.3969019417955,2690.065460023339,1000,1.221,-1.383,0.127,105.1,blue,265,TRUE
461,1661382852.363,3891.2338576039074,2403.501696987332,1000,0.842,-1.52,3.093,105.8,red,265,TRUE
462,1661382852.457,3641.5612031488567,-2896.719880907573,1000,5.404,-0.646,0.261,101.3,yellow,265,TRUE
463,1661382852.545,2795.8626640751813,-2425.5320371810617,1000,5.476,-0.591,-0.068,93.1,green,265,TRUE
464,1661382852.642,3976.6580063836714,2638.174257857596,1000,1.23,-1.404,0.084,99.2,blue,265,TRUE
465,1661382852.726,3883.323093823185,2400.7647367901905,1000,0.851,-1.52,3.091,105.0,red,265,TRUE
466,1661382852.818,3626.729641782896,-2897.651117757414,1000,5.403,-0.638,0.26,106.5,yellow,265,TRUE
467,1661382852.909,2810.774945253958,-2471.653527801325,1000,5.472,-0.598,-0.06,94.2,green,265,TRUE
468,1661382853.014,4087.9009844021775,2611.390863585892,1000,1.271,-1.407,0.063,123.9,blue,265,TRUE
469,1661382853.121,3879.6139136102265,2397.1206134501285,1000,0.85,-1.521,3.091,106.6,red,265,TRUE
470,1661382853.213,3580.925613781493,-2890.683062137188,1000,5.403,-0.633,0.259,104.3,yellow,265,TRUE
471,1661382853.303,2781.539106397766,-2483.302906936067,1000,5.471,-0.605,-0.064,96.2,green,265,TRUE
472,1661382853.403,4159.529948335231,2580.6534288650882,1000,1.296,-1.417,0.037,110.0,blue,265,TRUE
473,1661382853.499,3888.7409624889956,2395.890380501166,1000,0.85,-1.521,3.091,118.8,red,265,TRUE
474,1661382853.602,3600.637724642678,-2888.1916844628017,1000,5.402,-0.628,0.257,107.9,yellow,265,TRUE
475,1661382854.904,4190.6487055687285,2595.057934383072,1000,1.395,-1.452,-0.002,119.1,blue,265,TRUE
476,1661382855.003,3889.531919493033,2388.375981443673,1000,0.849,-1.521,0.049,109.9,red,265,TRUE
477,1661382855.102,3618.152698144913,-2885.6020150730888,1000,5.402,-0.634,0.259,101.7,yellow,265,TRUE
478,1661382855.19,2792.996738148058,-2491.6062477545825,1000,5.481,-0.593,-0.067,92.4,green,265,TRUE
479,1661382855.34,4235.182561486136,2566.705965383579,1000,1.385,-1.456,-0.013,106.2,blue,265,TRUE
480,1661382855.433,3894.181582429372,2390.103509520441,1000,0.846,-1.521,3.091,104.9,red,265,TRUE
481,1661382855.525,3760.960833365207,-2929.01289116986,1000,5.403,-0.634,0.257,116.5,yellow,265,TRUE
482,1661382855.615,2768.305405589172,-2507.966312500606,1000,5.481,-0.592,-0.065,91.2,green,265,TRUE
483,1661382855.71,4301.819678155679,2586.5173901195612,1000,1.388,-1.454,-0.012,98.2,blue,265,TRUE
484,1661382855.795,3899.821566613284,2406.5830595466796,1000,0.848,-1.52,3.093,103.7,red,265,TRUE
485,1661382855.885,3738.012017094858,-2932.085959095632,1000,5.402,-0.632,0.257,105.2,yellow,265,TRUE
486,1661382855.977,2781.405925421622,-2511.2347458577374,1000,5.478,-0.598,-0.06,149.4,green,265,TRUE
487,1661382856.129,4372.457133856001,2605.6483526019542,1000,1.397,-1.445,-0.017,102.7,blue,265,TRUE
488,1661382856.219,3903.946803551277,2414.199472637192,1000,0.846,-1.52,3.093,103.2,red,265,TRUE
489,1661382856.308,3858.6931115596367,-2945.855661391695,1000,5.402,-0.629,0.257,89.6,yellow,265,TRUE
490,1661382856.383,2806.0117541355007,-2498.8372694729746,1000,5.478,-0.602,-0.063,96.2,green,265,TRUE
491,1661382856.482,4359.932323415021,2633.2734976681304,1000,1.417,-1.445,0.017,95.4,blue,265,TRUE
492,1661382856.564,3906.8244175289897,2428.6908046882486,1000,0.846,-1.52,3.093,104.4,red,265,TRUE
493,1661382856.655,3889.97270575458,-2974.1191264382433,1000,5.401,-0.629,0.256,89.3,yellow,265,TRUE
494,1661382856.731,2829.310104157494,-2481.892881492626,1000,5.477,-0.602,-0.06,94.6,green,265,TRUE
495,1661382856.882,4342.36794426717,2670.268832875187,1000,1.416,-1.448,0.02,103.8,blue,265,TRUE
496,1661382856.973,3901.455618785403,2428.6099728254785,1000,0.844,-1.52,3.093,119.2,red,265,TRUE
497,1661382857.076,3872.571952080981,-2985.290262919338,1000,5.401,-0.625,0.256,107.5,yellow,265,TRUE
498,1661382857.169,2833.6306389780148,-2483.472924548553,1000,5.478,-0.597,-0.062,92.6,green,265,TRUE
499,1661382857.265,4351.558472819436,2670.4390516004682,1000,1.415,-1.448,0.028,99.6,blue,265,TRUE
500,1661382857.35,3899.9429144385053,2441.6255230562006,1000,0.842,-1.521,3.093,106.0,red,265,TRUE
501,1661382857.442,3835.3944178509314,-2989.476751203789,1000,5.402,-0.624,0.257,103.9,yellow,265,TRUE
502,1661382857.534,2820.333045224133,-2486.1028607250114,1000,5.48,-0.602,-0.069,146.9,green,265,TRUE
503,1661382857.682,4358.10302638721,2668.9606858095135,1000,1.414,-1.445,0.046,102.5,blue,265,TRUE
504,1661382857.773,3909.9149378720126,2447.7408081928875,1000,0.845,-1.521,3.093,102.6,red,265,TRUE
505,1661382857.862,3668.3591042040457,-2941.609437446236,1000,5.403,-0.634,0.259,102.8,yellow,265,TRUE
506,1661382857.951,2829.3136995077243,-2474.9293043608563,1000,5.48,-0.598,-0.068,94.2,green,265,TRUE
507,1661382858.054,4350.193643902402,2664.9668510638444,1000,1.417,-1.445,0.043,107.0,blue,265,TRUE
508,1661382858.147,3914.9421053234328,2446.2880119165256,1000,0.842,-1.521,3.091,104.6,red,265,TRUE
509,1661382858.238,3664.4906388637482,-2937.5016504051996,1000,5.404,-0.651,0.261,102.9,yellow,265,TRUE
510,1661382858.329,2819.1954955018464,-2479.8966299386043,1000,5.48,-0.597,-0.067,90.9,green,265,TRUE
511,1661382858.479,4340.369079463068,2663.8603838076483,1000,1.418,-1.443,0.051,104.0,blue,265,TRUE
512,1661382858.568,3917.4205386693125,2444.469371596468,1000,0.843,-1.52,3.091,106.1,red,265,TRUE
513,1661382858.662,3532.3607342925425,-2927.4430881948233,1000,5.404,-0.656,0.262,101.8,yellow,265,TRUE
514,1661382858.75,2809.7075107722158,-2487.587478582476,1000,5.481,-0.598,-0.064,93.6,green,265,TRUE
515,1661382858.853,4306.277861852928,2636.7351563832067,1000,1.424,-1.439,0.073,91.6,blue,265,TRUE
516,1661382858.931,3922.943073558514,2436.199790207746,1000,0.842,-1.52,3.09,104.1,red,265,TRUE
517,1661382859.022,3517.9652531148727,-2915.278562941376,1000,5.404,-0.642,0.26,103.1,yellow,265,TRUE
518,1661382859.113,2816.1649753347388,-2482.147856626201,1000,5.483,-0.597,-0.064,147.9,green,265,TRUE
519,1661382859.264,4250.2874622262525,2592.719693043104,1000,1.424,-1.432,0.071,104.3,blue,265,TRUE
520,1661382859.354,3926.483135281104,2429.659160115545,1000,0.842,-1.518,3.09,105.2,red,265,TRUE
521,1661382859.446,3509.7483574818193,-2907.868023812269,1000,5.402,-0.637,0.261,103.6,yellow,265,TRUE
522,1661382859.536,2818.773453785954,-2487.056865971698,1000,5.487,-0.588,-0.068,93.9,green,265,TRUE
523,1661382859.633,4168.072036597793,2543.060831514888,1000,1.429,-1.431,0.085,96.3,blue,265,TRUE
524,1661382859.718,3935.2406057310927,2424.8376982515024,1000,0.842,-1.518,3.09,104.2,red,265,TRUE
525,1661382859.808,3517.498680532946,-2907.741282865946,1000,5.402,-0.632,0.26,118.3,yellow,265,TRUE
526,1661382859.898,2806.0058658467738,-2491.8799588650104,1000,5.486,-0.587,-0.065,93.3,green,265,TRUE
527,1661382860.047,4105.333218541614,2502.0098311931306,1000,1.417,-1.43,0.092,106.7,blue,265,TRUE
528,1661382860.141,3927.3922450182877,2413.393352237507,1000,0.836,-1.513,3.094,103.3,red,265,TRUE
529,1661382860.232,3524.691852322872,-2910.1978952610075,1000,5.401,-0.627,0.259,118.4,yellow,265,TRUE
530,1661382860.324,2813.8307014168363,-2494.941713212917,1000,5.476,-0.61,-0.049,89.6,green,265,TRUE
531,1661382860.416,4114.395552679383,2495.89652977866,1000,1.383,-1.429,0.084,100.6,blue,265,TRUE
532,1661382860.503,3924.684762712972,2402.5237226832437,1000,0.842,-1.513,3.089,103.7,red,265,TRUE
533,1661382860.594,3609.2814955716644,-2937.5894830534467,1000,5.401,-0.624,0.259,104.2,yellow,265,TRUE
534,1661382860.686,2829.491367244949,-2484.180319257899,1000,5.475,-0.61,-0.051,147.1,green,265,TRUE
535,1661382860.836,4120.53907161587,2496.2880006938226,1000,1.37,-1.43,0.081,101.2,blue,265,TRUE
536,1661382860.923,3925.900100846868,2386.660509383099,1000,0.846,-1.514,3.089,105.9,red,265,TRUE
537,1661382861.015,3576.6515442988675,-2915.3179847841006,1000,5.401,-0.625,0.257,105.3,yellow,265,TRUE
538,1661382862.314,4119.347562609645,2490.0459090927657,1000,1.346,-1.355,0.219,121.4,blue,265,TRUE
539,1661382862.421,3922.76948087138,2381.542394458091,1000,0.833,-1.523,3.097,105.6,red,265,TRUE
540,1661382862.514,3544.4331512302174,-2905.9950071420026,1000,5.403,-0.637,0.259,117.8,yellow,265,TRUE
541,1661382862.604,2817.8517921285306,-2479.6072312885076,1000,5.462,-0.729,-0.079,95.2,green,265,TRUE
542,1661382862.753,4176.2367420024175,2517.767331949153,1000,1.359,-1.358,0.208,105.6,blue,265,TRUE
543,1661382862.846,3920.633547623495,2380.807608321777,1000,0.834,-1.52,3.097,119.3,red,265,TRUE
544,1661382862.948,3549.659257795345,-2909.5393460115574,1000,5.402,-0.632,0.259,123.1,yellow,265,TRUE
545,1661382863.041,2793.550522004416,-2487.4085194796567,1000,5.462,-0.737,-0.085,92.9,green,265,TRUE
546,1661382863.139,4255.161051393915,2554.9099445945717,1000,1.362,-1.36,0.203,112.3,blue,265,TRUE
547,1661382863.238,3919.7020610593177,2378.497150464815,1000,0.838,-1.518,3.097,118.9,red,265,TRUE
548,1661382863.341,3541.3446569435123,-2909.8392547730605,1000,5.402,-0.625,0.256,121.9,yellow,265,TRUE
549,1661382863.446,2794.7476196083558,-2470.122865413758,1000,5.461,-0.753,-0.083,137.4,green,265,TRUE
550,1661382863.587,4314.45116278963,2579.7341308363098,1000,1.372,-1.359,0.197,102.0,blue,265,TRUE
551,1661382863.676,3926.9761693903656,2369.322372312593,1000,0.834,-1.517,3.097,102.1,red,265,TRUE
552,1661382863.765,3558.4979844061822,-2909.0639727376424,1000,5.402,-0.623,0.256,118.8,yellow,265,TRUE
553,1661382865.073,4315.852699476381,2573.223110936782,1000,1.37,-1.357,0.196,121.5,blue,265,TRUE
554,1661382865.174,3934.3966037624996,2366.307377333168,1000,0.861,-1.511,3.091,125.6,red,265,TRUE
555,1661382867.575,3928.0915358855304,2361.5345640854302,1000,0.861,-1.513,3.09,124.5,red,265,TRUE
556,1661382867.68,3497.6683216535107,-2878.5021941593473,1000,5.403,-0.625,0.256,111.2,yellow,265,TRUE
557,1661382868.982,4328.464522185104,2555.3776571944095,1000,1.402,-1.373,0.216,120.5,blue,265,TRUE
558,1661382869.083,3918.771406695296,2362.3954442585923,1000,0.854,-1.517,3.09,108.5,red,265,TRUE
559,1661382869.18,3549.9262613292854,-2898.2113661300627,1000,5.404,-0.638,0.257,118.1,yellow,265,TRUE
560,1661382870.495,4353.598220197913,2539.8853530297342,1000,1.398,-1.37,0.218,120.6,blue,265,TRUE
561,1661382870.595,3916.880864029587,2372.516282369457,1000,0.848,-1.511,3.091,112.1,red,265,TRUE
562,1661382870.695,3572.867880162603,-2903.6472959449216,1000,5.404,-0.635,0.257,118.5,yellow,265,TRUE
563,1661382870.785,2802.562625836252,-2457.2371179027823,1000,5.463,-0.77,-0.086,95.3,green,265,TRUE
564,1661382870.948,4336.095974201936,2516.409088324641,1000,1.397,-1.369,0.219,123.2,blue,265,TRUE
565,1661382871.054,3908.881779718687,2374.171351712932,1000,0.85,-1.513,3.09,106.8,red,265,TRUE
566,1661382871.146,3571.2207029148067,-2896.920758800818,1000,5.404,-0.635,0.257,117.8,yellow,265,TRUE
567,1661382871.236,2815.298714971754,-2449.87793576232,1000,5.46,-0.817,-0.112,110.0,green,265,TRUE
568,1661382871.349,4323.457809245839,2495.1993682401144,1000,1.398,-1.368,0.216,127.2,blue,265,TRUE
569,1661382871.46,3899.808807990275,2378.627089133187,1000,0.848,-1.514,3.094,120.9,red,265,TRUE
570,1661382871.564,3593.1394628086346,-2895.8464922848393,1000,5.404,-0.628,0.256,122.0,yellow,265,TRUE
571,1661382872.885,4278.081615775206,2474.926813512354,1000,1.396,-1.368,0.219,115.6,blue,265,TRUE
572,1661382872.987,3889.685324527172,2389.711698465107,1000,0.863,-1.522,3.106,105.4,red,265,TRUE
573,1661382873.08,3583.6632715133323,-2895.104402879441,1000,5.403,-0.622,0.256,117.1,yellow,265,TRUE
574,1661382874.394,4274.32485598619,2458.0830351371856,1000,1.403,-1.367,0.236,119.3,blue,265,TRUE
575,1661382874.497,3894.3858295458226,2404.9852413443814,1000,0.852,-1.525,3.1,111.4,red,265,TRUE
576,1661382874.592,3567.3295062258935,-2900.6445856947525,1000,5.401,-0.614,0.255,117.4,yellow,265,TRUE
577,1661382875.903,4248.2537190587445,2434.0280308412407,1000,1.388,-1.367,0.253,115.5,blue,265,TRUE
578,1661382875.999,3902.4624824440157,2408.131910127717,1000,0.83,-1.524,3.097,124.7,red,265,TRUE
579,1661382878.404,3899.1431788052673,2397.882040296126,1000,0.808,-1.517,3.095,126.3,red,265,TRUE
580,1661382878.514,3571.3609322322936,-2898.8152338259365,1000,5.404,-0.62,0.259,123.3,yellow,265,TRUE
581,1661382879.735,4196.063574211072,2483.327898719944,1000,1.266,-1.333,0.106,120.5,blue,265,TRUE
582,1661382879.837,3902.0163311490537,2416.8598448450734,1000,0.798,-1.512,3.084,108.5,red,265,TRUE
583,1661382879.936,3563.616618815095,-2898.762509406828,1000,5.404,-0.619,0.257,115.0,yellow,265,TRUE
584,1661382881.151,4236.195805134511,2516.344010653737,1000,1.331,-1.36,0.151,121.4,blue,265,TRUE
585,1661382881.252,3909.83268028611,2429.7124092117883,1000,0.821,-1.478,3.063,124.7,red,265,TRUE
586,1661382892.909,4183.066751934411,2568.035448373897,1000,1.245,-1.349,0.155,113.0,blue,265,TRUE
587,1661382893.004,3921.347912640095,2439.509855758641,1000,0.581,-1.455,3.111,105.8,red,265,TRUE
588,1661382893.097,3625.18452184261,-2859.837045265047,1000,5.389,-0.97,0.427,147.7,yellow,265,TRUE
589,1661382893.304,4215.587598863943,2626.866548079123,1000,1.215,-1.343,0.073,121.5,blue,265,TRUE
590,1661382893.409,3918.9125504036906,2481.8396541138573,1000,0.443,-1.491,3.077,121.9,red,265,TRUE
591,1661382893.515,3677.3580542423097,-2825.715333438422,1000,5.39,-0.988,0.435,94.6,yellow,265,TRUE
592,1661382893.612,4263.640297514837,2655.128354015347,1000,1.277,-1.332,0.079,98.9,blue,265,TRUE
593,1661382893.697,3854.924748117051,2422.170188837745,1000,0.301,-1.485,3.059,105.3,red,265,TRUE
594,1661382893.788,3738.782749133658,-2787.4384493840844,1000,5.389,-0.992,0.435,95.6,yellow,265,TRUE
595,1661382893.906,4480.156694718674,2762.1740576415746,1000,1.307,-1.323,0.091,122.4,blue,265,TRUE
596,1661382894.012,3785.4425874763947,2385.723288907722,1000,6.28,-1.524,3.102,108.2,red,265,TRUE
597,1661382894.107,3794.1896787063324,-2753.57645245259,1000,5.385,-1.02,0.454,92.0,yellow,265,TRUE
