,timestamp,x,y,z,yaw,roll,pitch,latency,student,session,success
0,1661813964.243,2608.493800244459,3570.0434480703825,1000,3.703,-1.406,-0.899,1149.3,blue,269,TRUE
1,1661813965.378,2590.7493861605826,-2494.649816752338,1000,4.953,-1.28,-0.196,116.2,yellow,269,TRUE
2,1661813967.67,2602.4973155815746,3591.2907575098034,1000,3.688,-1.409,-0.932,1144.2,blue,269,TRUE
3,1661813968.792,2489.1754425415834,-2423.815282944256,1000,4.956,-1.264,-0.175,113.8,yellow,269,TRUE
4,1661813968.889,3664.4684048166923,-2429.8660073528354,1000,4.905,-1.405,-0.32,121.6,green,269,TRUE
5,1661813980.177,2565.808751255678,3611.626514974623,1000,3.635,-1.394,-0.839,1160.1,blue,269,TRUE
6,1661813981.321,2499.837976797697,-2432.2711169751633,1000,4.965,-1.26,-0.152,121.8,yellow,269,TRUE
7,1661813981.427,3682.32231271552,-2430.7171159071318,1000,4.921,-1.39,-0.244,137.3,green,269,TRUE
8,1661813986.05,2547.8201506802216,3598.7608367954763,1000,3.575,-1.384,-0.914,1142.9,blue,269,TRUE
9,1661813987.171,2501.065125032108,-2432.754591185637,1000,4.963,-1.265,-0.154,112.7,yellow,269,TRUE
10,1661813987.264,3648.2158778080525,-2448.977785226634,1000,4.982,-1.38,-0.189,129.0,green,269,TRUE
11,1661813991.868,2555.4866108483016,3544.7731020737115,1000,3.587,-1.396,-1.008,1151.4,blue,269,TRUE
12,1661813992.998,2527.13209967229,-2466.115662180347,1000,4.948,-1.268,-0.165,111.5,yellow,269,TRUE
13,1661813993.088,3655.4641943419533,-2450.0189448135275,1000,4.974,-1.379,-0.085,126.6,green,269,TRUE
14,1661813994.332,2449.941910263728,3502.898526058867,1000,3.596,-1.391,-0.98,1136.9,blue,269,TRUE
15,1661813995.453,2579.815528376333,-2482.9573960290686,1000,4.947,-1.272,-0.17,122.1,yellow,269,TRUE
16,1661813995.554,3698.750474257849,-2461.5995116826534,1000,4.949,-1.374,-0.145,126.5,green,269,TRUE
17,1661813996.8,2511.113527274104,3556.877114309212,1000,3.607,-1.388,-0.948,1128.8,blue,269,TRUE
18,1661813997.913,2608.248836355626,-2523.616522665035,1000,4.934,-1.268,-0.197,134.4,yellow,269,TRUE
19,1661813998.015,3708.9703047636854,-2461.0264588409827,1000,4.96,-1.37,-0.106,123.3,green,269,TRUE
20,1661813999.258,2595.751468489933,3648.792553984406,1000,3.649,-1.385,-0.848,1132.7,blue,269,TRUE
21,1661814000.374,2688.968394125636,-2599.1720866681917,1000,4.937,-1.263,-0.188,105.7,yellow,269,TRUE
22,1661814000.461,3707.8278355508214,-2448.379898284293,1000,4.969,-1.386,-0.111,123.6,green,269,TRUE
23,1661814001.685,2641.08424139056,3597.176099523629,1000,3.565,-1.379,-0.901,1131.9,blue,269,TRUE
24,1661814002.805,2698.1502939784514,-2591.5309700087387,1000,4.943,-1.26,-0.177,107.7,yellow,269,TRUE
25,1661814002.9,3768.7549409492026,-2470.823346521297,1000,4.972,-1.385,-0.119,115.9,green,269,TRUE
26,1661814004.131,2699.029087575673,3608.5442334525214,1000,3.579,-1.381,-0.899,1143.9,blue,269,TRUE
27,1661814005.26,2727.1882088910047,-2602.1503531111334,1000,4.941,-1.265,-0.176,121.8,yellow,269,TRUE
28,1661814005.361,3974.6976815060384,-2473.3977097385837,1000,4.974,-1.373,-0.129,110.1,green,269,TRUE
29,1661814006.538,2673.106415975377,3567.8310741178807,1000,3.608,-1.383,-0.891,106.7,blue,269,TRUE
30,1661814006.632,2326.720376769556,2345.802763607639,1000,5.324,-1.414,1.368,120.4,red,269,TRUE
31,1661814006.732,2745.7867144615307,-2580.0159895454367,1000,4.945,-1.263,-0.175,110.7,yellow,269,TRUE
32,1661814006.821,3933.9166939724305,-2472.9310322350243,1000,4.972,-1.347,-0.135,127.1,green,269,TRUE
33,1661814009.195,2627.1243493474162,-2587.3481693018584,1000,4.965,-1.254,-0.107,1135.2,yellow,269,TRUE
34,1661814014.831,2745.3288308858505,3580.64262233,1000,3.535,-1.383,-0.984,1147.9,blue,269,TRUE
35,1661814015.966,2635.053156510166,-2575.5286207324293,1000,4.98,-1.245,-0.105,118.9,yellow,269,TRUE
36,1661814018.212,2732.9440386779283,3570.635651236779,1000,4.583,-1.389,-1.127,119.2,blue,269,TRUE
37,1661814018.316,2527.0785319530164,3257.5366229044466,1000,5.701,-1.373,1.763,106.4,red,269,TRUE
38,1661814018.414,2652.561433280866,-2582.6510965165294,1000,4.987,-1.238,-0.083,114.0,yellow,269,TRUE
39,1661814030.824,2593.778028150776,3958.8105583242573,1000,3.759,-1.397,-0.899,105.5,blue,269,TRUE
40,1661814030.915,2475.5906498521394,3864.392129337681,1000,5.644,-1.417,1.436,134.4,red,269,TRUE
41,1661814031.034,2674.411499982262,-2610.999217906656,1000,4.987,-1.215,-0.112,106.1,yellow,269,TRUE
42,1661814033.288,2394.8228943468407,4633.857480667563,1000,3.773,-1.401,-0.914,1143.8,blue,269,TRUE
43,1661814034.412,2701.817784823541,-2643.9054405372244,1000,4.986,-1.217,-0.112,111.7,yellow,269,TRUE
44,1661814034.503,3843.172304694998,-2458.8174218427957,1000,5.027,-1.225,-0.012,125.3,green,269,TRUE
45,1661814034.78,1418.3838760397296,5157.5879221254445,1000,3.771,-1.406,-0.974,89.3,blue,269,TRUE
46,1661814034.859,2467.8908778766013,4430.043525708731,1000,5.64,-1.413,1.316,101.1,red,269,TRUE
47,1661814034.947,2700.8897745133772,-2671.647190463073,1000,4.986,-1.216,-0.112,132.9,yellow,269,TRUE
48,1661814035.047,3772.392503594007,-2430.3661475379613,1000,5.027,-1.224,-0.012,107.4,green,269,TRUE
49,1661814035.31,494.15151461945646,5790.720865519635,1000,3.739,-1.393,-0.951,87.0,blue,269,TRUE
50,1661814035.383,2434.0736392710155,5045.293284210932,1000,5.653,-1.415,1.364,119.6,red,269,TRUE
51,1661814035.485,2816.4668374663656,-2707.399908082091,1000,4.987,-1.216,-0.112,108.6,yellow,269,TRUE
52,1661814035.576,3678.44095957466,-2420.5632033274856,1000,5.027,-1.22,-0.012,109.7,green,269,TRUE
53,1661814035.87,-425.79373736518374,6344.330847561142,1000,3.712,-1.39,-0.962,86.6,blue,269,TRUE
54,1661814035.946,2416.92987986801,5659.457947406655,1000,5.645,-1.414,1.364,101.9,red,269,TRUE
55,1661814036.035,2835.1031256794763,-2731.104711031238,1000,4.987,-1.216,-0.112,103.6,yellow,269,TRUE
56,1661814036.125,3580.9994817054103,-2398.593049974694,1000,5.027,-1.216,-0.012,105.4,green,269,TRUE
57,1661814041.847,2879.0598743564383,-2759.3437156779564,1000,4.984,-1.23,-0.119,1140.1,yellow,269,TRUE
58,1661814046.569,-481.4906534603415,6833.830554311892,1000,3.293,-1.377,-1.009,105.7,blue,269,TRUE
59,1661814046.661,2378.3546983304345,6234.455699188566,1000,5.862,-1.377,1.042,104.0,red,269,TRUE
60,1661814046.753,2665.1197135589846,-2668.468921234916,1000,5.025,-1.141,0.047,88.6,yellow,269,TRUE
61,1661814046.829,3344.6691973902707,-2402.7234475947976,1000,5.03,-1.228,-0.007,103.9,green,269,TRUE
62,1661814047.097,-422.8625724550475,6921.7909931384975,1000,3.298,-1.378,-1.024,105.4,blue,269,TRUE
63,1661814047.189,2336.0688567592747,6754.9809049334835,1000,5.859,-1.378,1.037,103.8,red,269,TRUE
64,1661814047.28,2630.38688955026,-2700.0374528821844,1000,5.075,-1.134,0.047,102.8,yellow,269,TRUE
65,1661814047.371,3252.5742621478144,-2381.2189568855642,1000,5.03,-1.237,-0.012,102.7,green,269,TRUE
66,1661814047.67,-265.9954578804461,6869.735674084092,1000,3.301,-1.377,-1.014,106.9,blue,269,TRUE
67,1661814047.763,2345.7449508300506,6718.016368761189,1000,5.86,-1.378,1.032,104.3,red,269,TRUE
68,1661814047.857,2609.935809545768,-2658.527291347855,1000,5.079,-1.139,0.059,101.3,yellow,269,TRUE
69,1661814047.946,3306.957484373204,-2406.7656542653363,1000,5.022,-1.204,-0.002,104.7,green,269,TRUE
70,1661814052.542,760.2519756623643,6975.117091035853,1000,3.298,-1.354,-0.948,119.4,blue,269,TRUE
71,1661814052.635,2358.922921843058,6759.570800220915,1000,5.873,-1.379,1.1,128.1,red,269,TRUE
72,1661814052.741,2630.7819934440004,-2667.8806886253515,1000,5.052,-1.13,0.095,112.2,yellow,269,TRUE
73,1661814056.101,2660.9856966605475,-2683.9784746448413,1000,5.025,-1.153,0.109,1140.9,yellow,269,TRUE
74,1661814057.388,1689.3681419308962,7042.697527772165,1000,3.307,-1.348,-0.937,110.5,blue,269,TRUE
75,1661814057.484,2369.0273443091714,6769.987957106122,1000,5.812,-1.391,1.376,121.9,red,269,TRUE
76,1661814057.589,2663.4207380460302,-2689.7321636347438,1000,5.039,-1.127,0.096,92.5,yellow,269,TRUE
77,1661814057.667,3394.700091614399,-2439.308765425434,1000,4.992,-1.438,-0.216,104.5,green,269,TRUE
78,1661814058.89,2621.1135220602705,7109.331029215898,1000,3.307,-1.342,-0.91,1129.3,blue,269,TRUE
79,1661814060.087,3471.762372297832,-2449.6390117707115,1000,4.993,-1.481,-0.037,115.0,green,269,TRUE
80,1661814061.321,2672.6278376124105,7119.5549037540795,1000,3.299,-1.337,-0.906,1128.3,blue,269,TRUE
81,1661814062.434,2708.6507390967104,-2703.8186912615765,1000,5.037,-1.127,0.104,104.3,yellow,269,TRUE
82,1661814062.519,3527.30320938174,-2468.0543583932645,1000,4.985,-1.491,-0.036,111.0,green,269,TRUE
83,1661814062.782,2655.6455142931886,7157.011654967669,1000,3.293,-1.338,-0.927,105.9,blue,269,TRUE
84,1661814062.877,2383.0335021174615,6776.797575715241,1000,5.8,-1.388,1.328,102.3,red,269,TRUE
85,1661814062.966,2724.120532549645,-2709.3665834486046,1000,5.037,-1.127,0.104,87.5,yellow,269,TRUE
86,1661814063.039,3581.2095955200316,-2493.5306187533147,1000,4.909,-1.47,-0.046,105.3,green,269,TRUE
87,1661814063.298,2638.7065220296186,7183.131042363802,1000,3.305,-1.338,-0.935,103.8,blue,269,TRUE
88,1661814063.388,2392.4268457033254,6843.536785522439,1000,5.76,-1.394,1.299,118.2,red,269,TRUE
89,1661814063.489,2728.8250297079812,-2702.733326564317,1000,5.037,-1.127,0.104,107.1,yellow,269,TRUE
90,1661814063.58,3660.5449943806993,-2523.9689275450896,1000,4.919,-1.453,-0.035,107.3,green,269,TRUE
91,1661814063.842,2533.4659194802603,7171.909654228787,1000,3.305,-1.34,-0.942,102.6,blue,269,TRUE
92,1661814063.931,2383.558395455006,6939.238351660439,1000,5.757,-1.39,1.309,102.9,red,269,TRUE
93,1661814064.02,2726.3095534440704,-2703.9784945904084,1000,5.037,-1.127,0.104,89.1,yellow,269,TRUE
94,1661814064.095,3736.1484274951076,-2524.9068222058445,1000,4.924,-1.452,-0.036,106.3,green,269,TRUE
95,1661814064.356,2519.1185775516856,7169.863062853434,1000,3.307,-1.337,-0.937,102.5,blue,269,TRUE
96,1661814064.445,2376.657234723113,7029.883311837875,1000,5.769,-1.389,1.299,118.7,red,269,TRUE
97,1661814064.545,2709.943659799677,-2710.7974599598215,1000,5.039,-1.128,0.105,92.0,yellow,269,TRUE
98,1661814064.624,3670.5924077759864,-2518.93844377305,1000,4.919,-1.449,-0.349,105.3,green,269,TRUE
99,1661814064.883,2552.8117314739825,7164.1769519357185,1000,3.31,-1.337,-0.935,120.0,blue,269,TRUE
100,1661814064.986,2375.679034185233,7024.767354257562,1000,5.738,-1.394,1.301,107.3,red,269,TRUE
101,1661814065.08,2713.2481732585934,-2711.2833137613707,1000,5.039,-1.128,0.104,88.8,yellow,269,TRUE
102,1661814065.154,3643.512768194649,-2525.3218601737126,1000,4.925,-1.446,-0.253,110.5,green,269,TRUE
103,1661814065.413,2455.7580734154317,7143.167585659063,1000,3.335,-1.34,-0.92,119.4,blue,269,TRUE
104,1661814065.515,2362.3662176515027,7066.7516498992,1000,5.745,-1.394,1.316,122.6,red,269,TRUE
105,1661814065.62,2708.436944273529,-2716.265375828951,1000,5.04,-1.127,0.101,93.4,yellow,269,TRUE
106,1661814065.699,3669.6002990336433,-2509.8022959262576,1000,4.952,-1.439,-0.179,105.4,green,269,TRUE
107,1661814065.968,2537.9510732905887,7106.440886007957,1000,3.319,-1.335,-0.926,107.2,blue,269,TRUE
108,1661814066.062,2343.7291903423934,7091.934286924071,1000,5.753,-1.393,1.308,103.6,red,269,TRUE
109,1661814066.152,2684.35207360432,-2734.8915181686607,1000,5.051,-1.125,0.1,90.7,yellow,269,TRUE
110,1661814066.229,3689.701391046674,-2497.040005546253,1000,4.943,-1.431,-0.179,103.1,green,269,TRUE
111,1661814066.496,2624.9264558951627,7074.586818896507,1000,3.33,-1.341,-0.952,122.5,blue,269,TRUE
112,1661814066.602,2330.6280617911066,7103.448129022831,1000,5.75,-1.393,1.31,108.5,red,269,TRUE
113,1661814066.696,2660.906632793998,-2741.8946003782553,1000,5.042,-1.127,0.098,88.4,yellow,269,TRUE
114,1661814066.77,3744.525577276283,-2471.66846255682,1000,4.947,-1.426,-0.147,105.8,green,269,TRUE
115,1661814067.027,2636.9655710219513,7022.1202903933745,1000,3.334,-1.34,-0.944,104.4,blue,269,TRUE
116,1661814067.118,2331.5661649056724,7089.12770886785,1000,5.749,-1.393,1.312,105.0,red,269,TRUE
117,1661814067.212,2641.0330847802175,-2713.985054355107,1000,5.043,-1.12,0.081,102.2,yellow,269,TRUE
118,1661814067.301,3674.8293402715085,-2456.552255424693,1000,4.947,-1.421,-0.145,104.3,green,269,TRUE
119,1661814067.569,2621.7751026580827,6990.087200572733,1000,3.335,-1.336,-0.927,108.6,blue,269,TRUE
120,1661814067.662,2345.6170892925247,7032.8458812496,1000,5.75,-1.393,1.318,104.5,red,269,TRUE
121,1661814067.754,2663.8360249519283,-2686.2547221556174,1000,5.069,-1.13,0.084,104.5,yellow,269,TRUE
122,1661814067.846,3663.9167951992945,-2464.9597686291468,1000,4.947,-1.427,-0.148,102.7,green,269,TRUE
123,1661814068.116,2688.576278829662,6972.309534315041,1000,3.336,-1.333,-0.911,106.2,blue,269,TRUE
124,1661814068.208,2347.1003177492507,7001.939328689546,1000,5.744,-1.397,1.322,118.2,red,269,TRUE
125,1661814068.333,2715.2558710395347,-2610.116152454564,1000,5.067,-1.126,0.077,1097.5,yellow,269,TRUE
126,1661814070.548,2810.4167553642565,7008.127277277762,1000,3.346,-1.336,-0.948,1128.9,blue,269,TRUE
127,1661814071.663,2733.129769584101,-2663.585757648831,1000,5.023,-1.105,0.115,89.6,yellow,269,TRUE
128,1661814071.744,3682.575290582982,-2448.3217641648002,1000,5.012,-1.355,-0.027,114.9,green,269,TRUE
129,1661814072.024,2741.080660878583,6935.173641354065,1000,3.35,-1.338,-0.963,108.6,blue,269,TRUE
130,1661814072.117,2370.3339307200667,6961.242337351395,1000,5.707,-1.403,1.308,104.2,red,269,TRUE
131,1661814072.208,2776.960616459772,-2676.2040827620895,1000,5.054,-1.107,0.093,104.9,yellow,269,TRUE
132,1661814072.302,3691.2653073897072,-2450.5594868355,1000,5.015,-1.348,-0.02,101.8,green,269,TRUE
133,1661814072.568,2667.6039908522475,6864.582598060845,1000,3.351,-1.338,-0.971,107.6,blue,269,TRUE
134,1661814072.661,2380.997321363127,6957.1319699238275,1000,5.652,-1.408,1.325,107.0,red,269,TRUE
135,1661814072.754,2749.7555267752923,-2638.619076799265,1000,5.057,-1.105,0.097,105.6,yellow,269,TRUE
136,1661814072.848,3723.9054919976074,-2445.580325034009,1000,4.979,-1.343,-0.038,101.4,green,269,TRUE
137,1661814073.114,2656.2955037812158,6824.04615633724,1000,3.353,-1.335,-0.951,106.1,blue,269,TRUE
138,1661814073.208,2395.9140621607935,6941.750348824936,1000,5.683,-1.403,1.289,115.1,red,269,TRUE
139,1661814073.3,2735.758023539146,-2618.455740897447,1000,5.057,-1.102,0.097,127.9,yellow,269,TRUE
140,1661814073.402,3708.245880625953,-2449.933792939304,1000,4.926,-1.32,-0.094,103.7,green,269,TRUE
141,1661814073.656,2677.168855640392,6772.185622322813,1000,3.354,-1.334,-0.944,106.1,blue,269,TRUE
142,1661814073.749,2412.381898394677,6926.571044798984,1000,5.686,-1.402,1.304,104.1,red,269,TRUE
143,1661814073.842,2725.085253529418,-2603.285599878713,1000,5.057,-1.098,0.096,103.5,yellow,269,TRUE
144,1661814073.931,3748.2951532010707,-2451.272189111543,1000,4.953,-1.332,0.002,119.1,green,269,TRUE
145,1661814085.265,2789.6760366027806,6553.519414682004,1000,6.184,-1.46,-0.079,1161.0,blue,269,TRUE
146,1661814086.409,2734.661544420089,-2623.3418013510777,1000,5.015,-1.103,0.147,120.3,yellow,269,TRUE
147,1661814086.513,3815.015456447538,-2430.9496705958386,1000,4.957,-1.344,-0.029,136.8,green,269,TRUE
148,1661814087.767,2942.951317883914,6366.385880541032,1000,6.147,-1.442,-0.9,1149.8,blue,269,TRUE
149,1661814088.904,2721.84671297407,-2615.340377611081,1000,5.033,-1.097,0.163,102.4,yellow,269,TRUE
150,1661814088.986,3817.3512661150125,-2426.003666198642,1000,4.946,-1.322,-0.129,131.3,green,269,TRUE
151,1661814090.229,3165.4240412128943,6219.946344725176,1000,6.064,-1.389,-0.688,1150.2,blue,269,TRUE
152,1661814091.365,2685.2316202185048,-2608.8517969470654,1000,5.024,-1.098,0.155,104.6,yellow,269,TRUE
153,1661814093.599,3340.1462827952387,5923.43312222686,1000,5.917,-1.409,-0.948,90.1,blue,269,TRUE
154,1661814093.68,2640.006815213183,6764.8498422636885,1000,1.052,-1.397,1.419,114.1,red,269,TRUE
155,1661814093.772,2695.351355308374,-2642.796699902754,1000,5.023,-1.096,0.152,112.0,yellow,269,TRUE
156,1661814096.029,3530.3332172561945,5652.769531931491,1000,5.842,-1.385,-0.831,106.0,blue,269,TRUE
157,1661814096.118,2891.300508691676,6663.4611089565215,1000,1.009,-1.402,1.265,122.6,red,269,TRUE
158,1661814097.498,3790.9773040863147,5684.947904514885,1000,5.857,-1.393,-0.798,92.2,blue,269,TRUE
159,1661814097.572,3120.854945932653,6534.676279674743,1000,0.982,-1.406,1.277,103.5,red,269,TRUE
160,1661814097.662,2722.083842291669,-2675.290547166696,1000,5.022,-1.093,0.139,117.5,yellow,269,TRUE
161,1661814099.912,3769.992624129675,5588.211880095413,1000,5.884,-1.376,-0.682,120.7,blue,269,TRUE
162,1661814100.012,3373.7813959018154,6337.873594516636,1000,0.838,-1.421,1.32,126.4,red,269,TRUE
163,1661814100.12,2729.321483258509,-2697.587641858002,1000,5.015,-1.095,0.142,108.1,yellow,269,TRUE
164,1661814102.372,3770.47641856572,5451.665368752874,1000,5.881,-1.37,-0.681,115.9,blue,269,TRUE
165,1661814102.466,3630.6571986031345,6224.442570717394,1000,0.988,-1.405,1.38,133.8,red,269,TRUE
166,1661814102.575,2754.0248577006932,-2665.340511325306,1000,5.015,-1.095,0.142,125.0,yellow,269,TRUE
167,1661814104.85,3909.765863239194,5099.3896113412475,1000,5.882,-1.37,-0.699,1146.3,blue,269,TRUE
168,1661814105.975,2765.747085030533,-2660.6732014577174,1000,5.006,-1.101,0.148,127.3,yellow,269,TRUE
169,1661814110.683,3897.2981777381756,5082.172157049069,1000,5.881,-1.386,-0.894,96.1,blue,269,TRUE
170,1661814110.765,3892.7428392131533,6031.94803322098,1000,0.866,-1.429,1.072,105.6,red,269,TRUE
171,1661814110.859,2771.894890881952,-2626.112357182807,1000,4.999,-1.108,0.146,115.8,yellow,269,TRUE
172,1661814114.253,2740.400515928439,-2676.8552379577504,1000,5.0,-1.105,0.148,1159.9,yellow,269,TRUE
173,1661814115.587,3938.841917677808,5252.168195135661,1000,5.895,-1.385,-0.896,99.5,blue,269,TRUE
174,1661814115.674,3967.111540465736,6089.569578831223,1000,0.829,-1.425,1.379,101.3,red,269,TRUE
175,1661814115.762,2715.539836413054,-2678.7471418862583,1000,5.004,-1.098,0.151,103.8,yellow,269,TRUE
176,1661814117.988,3907.296771856594,5059.390643408086,1000,5.924,-1.401,-0.985,122.0,blue,269,TRUE
177,1661814118.091,3992.587328129371,6007.10891863421,1000,0.817,-1.427,1.349,108.4,red,269,TRUE
178,1661814118.177,2738.757846432498,-2662.785508819482,1000,5.003,-1.098,0.152,97.4,yellow,269,TRUE
179,1661814120.401,3958.127796670987,5142.885790990019,1000,5.929,-1.4,-0.981,122.9,blue,269,TRUE
180,1661814120.507,4035.247339480268,5976.819445647204,1000,0.801,-1.432,1.422,110.1,red,269,TRUE
181,1661814120.605,2745.5493525918523,-2654.5862126475813,1000,5.011,-1.096,0.159,98.9,yellow,269,TRUE
182,1661814120.69,3814.9556530197674,-2453.5425604641778,1000,4.979,-1.274,-0.058,104.7,green,269,TRUE
183,1661814120.947,3986.4131493370382,5223.582035532533,1000,5.932,-1.4,-0.989,122.7,blue,269,TRUE
184,1661814121.051,4081.7815292427604,6022.586489103193,1000,0.78,-1.436,1.396,122.0,red,269,TRUE
185,1661814121.156,2741.917909895518,-2634.4066172373823,1000,5.053,-1.101,0.115,108.1,yellow,269,TRUE
186,1661814121.25,3783.0354669309254,-2457.0576576008543,1000,4.979,-1.29,-0.079,104.3,green,269,TRUE
187,1661814121.507,3856.9934232541327,5583.358324529917,1000,5.94,-1.4,-0.971,105.4,blue,269,TRUE
188,1661814121.599,4082.331249161461,5962.036733366207,1000,0.794,-1.429,1.34,102.2,red,269,TRUE
189,1661814121.687,2731.5858520250245,-2630.800269753526,1000,5.056,-1.114,0.119,105.8,yellow,269,TRUE
190,1661814121.78,3769.6466023396993,-2468.338301262361,1000,4.984,-1.282,-0.071,102.6,green,269,TRUE
191,1661814122.047,3907.3317987510454,5662.547586197183,1000,5.93,-1.384,-0.897,108.7,blue,269,TRUE
192,1661814122.138,4054.2080822000885,5946.827711271863,1000,0.866,-1.415,1.325,107.6,red,269,TRUE
193,1661814122.232,2757.6982722249572,-2618.774686338868,1000,5.043,-1.101,0.109,105.2,yellow,269,TRUE
194,1661814122.323,3725.112535616032,-2465.769829918559,1000,5.001,-1.262,-0.021,106.0,green,269,TRUE
195,1661814122.584,3906.093348648614,5682.988102815369,1000,5.971,-1.395,-0.841,118.1,blue,269,TRUE
196,1661814122.687,3993.4877139007026,5940.957204975049,1000,0.922,-1.414,1.362,105.6,red,269,TRUE
197,1661814122.779,2777.913825422263,-2599.05166728842,1000,5.025,-1.095,0.116,105.2,yellow,269,TRUE
198,1661814122.873,3681.6141470105936,-2462.2242318802882,1000,5.003,-1.242,-0.034,117.4,green,269,TRUE
199,1661814123.163,3903.559292952849,5722.983098288171,1000,5.981,-1.405,-0.905,97.0,blue,269,TRUE
200,1661814123.247,3959.8871795910522,6025.96542371025,1000,0.914,-1.416,1.38,105.0,red,269,TRUE
201,1661814123.341,2788.486447106378,-2600.287433748648,1000,5.027,-1.094,0.115,101.3,yellow,269,TRUE
202,1661814123.429,3674.0312591797006,-2473.0560083761384,1000,5.001,-1.251,-0.022,120.0,green,269,TRUE
203,1661814123.699,3871.4104032560103,5759.809544069343,1000,5.983,-1.405,-0.908,105.2,blue,269,TRUE
204,1661814123.793,3924.7380415628613,6059.6284976944235,1000,0.913,-1.416,1.385,103.1,red,269,TRUE
205,1661814123.885,2783.483962280629,-2619.3864637852116,1000,5.019,-1.098,0.13,102.3,yellow,269,TRUE
206,1661814123.974,3663.517344754788,-2455.579381126218,1000,4.999,-1.266,-0.034,134.7,green,269,TRUE
207,1661814124.259,3829.884302208339,5766.275473969007,1000,5.986,-1.403,-0.879,106.3,blue,269,TRUE
208,1661814124.355,3880.117987413018,6064.308905770951,1000,0.906,-1.416,1.393,116.5,red,269,TRUE
209,1661814127.757,3878.829872189405,6079.318866988618,1000,0.631,-1.461,0.098,1139.5,red,269,TRUE
210,1661814131.076,3740.2804327863414,5745.297485374124,1000,6.017,-1.41,-1.254,1137.3,blue,269,TRUE
211,1661814132.193,2775.994835725083,-2641.047910061733,1000,5.053,-1.096,0.19,112.8,yellow,269,TRUE
212,1661814132.284,3667.221269574957,-2465.4853236223125,1000,4.984,-1.242,0.004,127.7,green,269,TRUE
213,1661814132.577,3712.7592679107033,5748.4355112862295,1000,6.016,-1.41,-1.249,92.8,blue,269,TRUE
214,1661814132.655,3912.3460841370475,6144.6372213368195,1000,0.708,-1.404,0.856,103.0,red,269,TRUE
215,1661814132.745,2768.8178320102547,-2640.4973719331083,1000,5.054,-1.095,0.19,104.1,yellow,269,TRUE
216,1661814132.839,3659.5503472782457,-2458.9458525667455,1000,4.984,-1.241,0.003,102.5,green,269,TRUE
217,1661814133.105,3708.8604332315044,5640.629662183626,1000,6.019,-1.415,-1.308,106.2,blue,269,TRUE
218,1661814133.197,3922.649046387716,6086.209142750504,1000,0.723,-1.426,1.03,105.8,red,269,TRUE
219,1661814133.288,2727.5599588485297,-2637.110570060965,1000,5.052,-1.097,0.193,104.8,yellow,269,TRUE
220,1661814133.381,3676.738579571744,-2469.972046232299,1000,4.983,-1.237,0.0,136.2,green,269,TRUE
221,1661814133.681,3693.2756900738623,5582.030608676249,1000,6.052,-1.406,-0.896,105.1,blue,269,TRUE
222,1661814133.772,3947.380144794172,6081.816143712885,1000,0.651,-1.425,0.882,110.1,red,269,TRUE
223,1661814133.864,2708.736674077574,-2658.26354500324,1000,5.051,-1.098,0.196,104.5,yellow,269,TRUE
224,1661814133.948,3697.578598774093,-2480.206542659653,1000,4.983,-1.209,-0.009,112.1,green,269,TRUE
225,1661814134.227,3701.353899626085,5580.814760991103,1000,5.979,-1.397,-0.722,105.2,blue,269,TRUE
226,1661814134.318,3950.345120368951,6086.306949441986,1000,0.631,-1.437,0.962,104.7,red,269,TRUE
227,1661814134.411,2675.9181147187323,-2662.8733065915662,1000,5.049,-1.098,0.197,101.8,yellow,269,TRUE
228,1661814134.499,3694.0031029206743,-2482.946113289824,1000,4.98,-1.222,-0.026,119.0,green,269,TRUE
229,1661814134.77,3670.612187576453,5544.0053453988285,1000,6.015,-1.403,-0.663,110.9,blue,269,TRUE
230,1661814134.867,3976.1213432134246,6072.206149782192,1000,0.628,-1.44,0.918,116.4,red,269,TRUE
231,1661814134.957,2617.05407508984,-2622.6300939127427,1000,5.049,-1.098,0.197,117.2,yellow,269,TRUE
232,1661814135.056,3690.4058549627166,-2487.5452807920324,1000,4.979,-1.226,-0.028,123.0,green,269,TRUE
233,1661814135.329,3731.1140582822804,5555.220355002122,1000,6.017,-1.402,-0.687,106.1,blue,269,TRUE
234,1661814135.423,3960.4988776632113,6078.530991324088,1000,0.649,-1.43,1.1,102.6,red,269,TRUE
235,1661814135.512,2606.5160131750795,-2621.8433793426934,1000,5.055,-1.093,0.195,104.7,yellow,269,TRUE
236,1661814135.6,3684.272075166675,-2481.1983217280776,1000,4.979,-1.227,-0.029,105.5,green,269,TRUE
237,1661814135.859,3750.193132500314,5669.995373583125,1000,6.044,-1.401,-0.718,104.7,blue,269,TRUE
238,1661814135.953,3901.1987311727157,6097.847286356249,1000,0.573,-1.421,1.66,101.6,red,269,TRUE
239,1661814136.042,2616.3114712825554,-2633.568901381237,1000,5.058,-1.09,0.194,133.8,yellow,269,TRUE
240,1661814136.144,3683.980375020152,-2489.0648084033087,1000,4.988,-1.252,-0.025,106.1,green,269,TRUE
241,1661814136.405,3769.9907250518404,5662.870314678596,1000,5.823,-1.394,-0.937,102.0,blue,269,TRUE
242,1661814136.493,3807.399064260149,6125.296274767802,1000,0.61,-1.408,1.762,120.6,red,269,TRUE
243,1661814136.597,2636.781222134917,-2640.9914522899567,1000,5.056,-1.092,0.195,107.7,yellow,269,TRUE
244,1661814136.691,3689.7845180764252,-2486.442602935934,1000,4.989,-1.277,-0.037,120.1,green,269,TRUE
245,1661814136.965,3817.477847433754,5635.0436278427505,1000,5.312,-1.427,-0.74,105.8,blue,269,TRUE
246,1661814137.058,3715.8016046707285,6091.636425825825,1000,0.722,-1.38,1.77,116.9,red,269,TRUE
247,1661814137.157,2647.0390614404982,-2638.8645710788096,1000,5.051,-1.095,0.202,107.2,yellow,269,TRUE
248,1661814137.251,3699.6173289313433,-2483.4671248768973,1000,4.997,-1.275,-0.02,105.2,green,269,TRUE
249,1661814137.506,3831.691236035347,5490.0544877861685,1000,4.769,-1.39,-0.882,120.1,blue,269,TRUE
250,1661814137.609,3563.811455772376,6032.810706040037,1000,0.831,-1.401,1.455,107.4,red,269,TRUE
251,1661814137.701,2661.3700491954532,-2641.3881872401325,1000,5.052,-1.093,0.199,121.3,yellow,269,TRUE
252,1661814137.793,3720.7826605716905,-2482.9553342048375,1000,5.004,-1.274,-0.01,105.3,green,269,TRUE
253,1661814138.064,3905.416402175904,5485.961098864803,1000,4.607,-1.374,-0.764,122.9,blue,269,TRUE
254,1661814138.17,3381.4777815523157,5914.775779590091,1000,0.504,-1.443,2.195,109.5,red,269,TRUE
255,1661814138.266,2720.1931469503443,-2679.9322144712364,1000,5.049,-1.093,0.203,89.2,yellow,269,TRUE
256,1661814140.479,3956.950179513055,5339.805158648696,1000,3.404,-1.38,-0.971,122.6,blue,269,TRUE
257,1661814140.579,3254.0137898792036,5775.893477419839,1000,1.667,-1.441,1.611,126.8,red,269,TRUE
258,1661814140.686,2753.4970033342124,-2682.0026908295144,1000,5.032,-1.107,0.238,109.7,yellow,269,TRUE
259,1661814142.978,4109.456879828871,3190.398651837991,1000,2.754,-1.35,-1.021,1108.0,blue,269,TRUE
260,1661814144.065,2755.091766506319,-2686.9343391712623,1000,5.043,-1.091,0.209,110.9,yellow,269,TRUE
261,1661814149.735,4335.029393885767,2455.3048291779014,1000,0.592,-1.416,-1.217,1142.7,blue,269,TRUE
262,1661814150.857,2757.966588879352,-2681.772008385886,1000,5.046,-1.09,0.184,124.9,yellow,269,TRUE
263,1661814156.571,3319.7715146839505,1854.3226048727008,1000,0.662,-1.414,-1.309,1083.8,blue,269,TRUE
264,1661814157.644,2750.307285470429,-2683.622310863914,1000,5.061,-1.074,0.173,100.2,yellow,269,TRUE
265,1661814157.732,3727.15798057432,-2470.5282264462094,1000,5.0,-1.26,-0.058,118.0,green,269,TRUE
266,1661814158.003,3293.26594591499,1822.792379980422,1000,0.662,-1.409,-1.261,100.5,blue,269,TRUE
267,1661814158.092,3303.8167205700242,4968.585942899731,1000,6.002,-1.39,1.335,118.4,red,269,TRUE
268,1661814158.193,2739.957762210965,-2683.1120708996336,1000,5.061,-1.076,0.173,107.6,yellow,269,TRUE
269,1661814158.287,3740.610674669693,-2462.134083926269,1000,5.0,-1.26,-0.058,105.3,green,269,TRUE
270,1661814158.544,3455.685504074228,1838.6568561603756,1000,0.662,-1.41,-1.264,120.7,blue,269,TRUE
271,1661814158.648,3423.8075278358933,4243.527901771277,1000,5.996,-1.414,1.064,108.1,red,269,TRUE
272,1661814158.743,2734.245864404613,-2674.0201056466017,1000,5.061,-1.076,0.172,117.3,yellow,269,TRUE
273,1661814158.833,3735.8140401873184,-2453.5568956091083,1000,5.0,-1.256,-0.052,104.4,green,269,TRUE
274,1661814159.104,3521.365903567418,1825.1676000363757,1000,0.663,-1.412,-1.304,119.2,blue,269,TRUE
275,1661814159.206,3534.464713498907,3532.477088015185,1000,5.933,-1.438,1.166,107.0,red,269,TRUE
276,1661814159.299,2716.492045398131,-2674.811205708627,1000,5.064,-1.074,0.17,104.0,yellow,269,TRUE
277,1661814159.389,3727.335245052424,-2441.8451722086343,1000,5.001,-1.253,-0.05,104.9,green,269,TRUE
278,1661814159.659,3488.064837702304,1835.569207139481,1000,0.67,-1.412,-1.286,92.2,blue,269,TRUE
279,1661814159.737,3726.0847398167366,2847.6173349548917,1000,5.91,-1.4,1.154,105.5,red,269,TRUE
280,1661814159.829,2715.436635272765,-2669.402620964758,1000,5.063,-1.077,0.171,104.1,yellow,269,TRUE
281,1661814159.922,3705.6100795241077,-2432.965400679142,1000,5.001,-1.252,-0.049,101.9,green,269,TRUE
282,1661814160.189,3463.0033369964094,1844.743712861383,1000,0.678,-1.41,-1.245,105.4,blue,269,TRUE
283,1661814160.281,3929.3405025864413,2222.2840669371426,1000,6.045,-1.419,1.199,102.5,red,269,TRUE
284,1661814160.371,2702.2512542496706,-2688.8694264900078,1000,5.055,-1.086,0.178,102.9,yellow,269,TRUE
285,1661814160.463,3652.231924678181,-2413.30881568661,1000,4.999,-1.252,-0.055,101.1,green,269,TRUE
286,1661814160.73,3520.7792630764193,1836.7353657051447,1000,0.688,-1.408,-1.204,106.1,blue,269,TRUE
287,1661814160.822,4089.5901687723003,1619.1142251278916,1000,6.057,-1.406,1.392,103.4,red,269,TRUE
288,1661814160.915,2672.228104908005,-2674.000854334715,1000,5.048,-1.084,0.176,102.4,yellow,269,TRUE
289,1661814161.004,3708.836957576899,-2438.394522739551,1000,5.016,-1.273,0.101,103.9,green,269,TRUE
290,1661814161.26,3534.0443692946665,1848.8226831718387,1000,0.72,-1.409,-1.203,105.7,blue,269,TRUE
291,1661814161.352,4092.5625090107837,1653.6383929830906,1000,6.046,-1.404,1.33,105.1,red,269,TRUE
292,1661814161.447,2639.1620458010752,-2655.8277892613046,1000,5.047,-1.085,0.177,101.7,yellow,269,TRUE
293,1661814170.446,3586.578697931656,1858.9856863793977,1000,0.65,-1.4,-1.241,127.2,blue,269,TRUE
294,1661814170.55,4088.217081789066,1650.8363642759587,1000,6.07,-1.394,1.324,124.9,red,269,TRUE
295,1661814170.655,2649.3880775147595,-2640.3613072049707,1000,5.04,-1.078,0.164,93.7,yellow,269,TRUE
296,1661814170.736,3621.020351770821,-2423.6635292805745,1000,5.029,-1.251,-0.094,104.1,green,269,TRUE
297,1661814170.993,3613.4685369621398,1877.8936310747724,1000,0.651,-1.4,-1.242,104.8,blue,269,TRUE
298,1661814171.085,4072.386664546082,1635.0461721750078,1000,6.063,-1.394,1.33,103.0,red,269,TRUE
299,1661814171.179,2667.9598066292574,-2634.6631793189617,1000,5.036,-1.08,0.166,113.2,yellow,269,TRUE
300,1661814171.265,3613.817816820468,-2427.4417453129095,1000,5.063,-1.187,-0.115,103.4,green,269,TRUE
301,1661814171.519,3687.412618094449,1886.5317116919875,1000,0.652,-1.4,-1.242,121.1,blue,269,TRUE
302,1661814171.624,4057.9706267744,1617.441252191328,1000,6.062,-1.394,1.33,108.0,red,269,TRUE
303,1661814171.719,2672.3100493494294,-2630.70639381923,1000,5.032,-1.08,0.16,103.4,yellow,269,TRUE
304,1661814171.807,3595.7441967438795,-2448.5964829264094,1000,5.04,-1.284,-0.115,90.7,green,269,TRUE
305,1661814172.049,3781.042066881671,1895.4981080319158,1000,0.653,-1.4,-1.238,106.5,blue,269,TRUE
306,1661814172.144,4038.4784701901262,1625.0228166578163,1000,6.064,-1.394,1.328,99.8,red,269,TRUE
307,1661814172.231,2687.6710004167385,-2607.677649488503,1000,5.029,-1.08,0.161,118.9,yellow,269,TRUE
308,1661814172.322,3539.643194611305,-2472.518560099863,1000,5.056,-1.318,-0.067,136.9,green,269,TRUE
309,1661814172.622,3806.0525198602913,1921.4728044302403,1000,0.65,-1.4,-1.265,108.3,blue,269,TRUE
310,1661814172.719,4038.813474800503,1620.410388630394,1000,6.079,-1.394,1.33,100.8,red,269,TRUE
311,1661814172.806,2724.314937647113,-2601.561105063121,1000,5.03,-1.076,0.151,121.4,yellow,269,TRUE
312,1661814172.902,3533.5473852577907,-2489.357890535935,1000,5.055,-1.347,-0.124,115.3,green,269,TRUE
313,1661814175.19,4053.1488576122088,1612.7621682964698,1000,6.069,-1.392,1.322,1144.9,red,269,TRUE
314,1661814176.315,3400.8516468014536,-2448.43116264912,1000,5.005,-1.301,-0.058,110.5,green,269,TRUE
315,1661814177.532,3769.7768357512564,1917.8249908085136,1000,0.612,-1.389,-1.197,1134.5,blue,269,TRUE
316,1661814178.65,2770.722489046378,-2614.1442314645765,1000,5.058,-1.081,0.17,105.7,yellow,269,TRUE
317,1661814178.747,3437.4204926372386,-2470.4744322941665,1000,5.012,-1.284,-0.047,113.4,green,269,TRUE
318,1661814179.948,3757.850781704374,1927.272813690144,1000,0.611,-1.37,-0.88,106.7,blue,269,TRUE
319,1661814180.039,4077.431620566991,1585.4318177004716,1000,6.078,-1.394,1.403,121.1,red,269,TRUE
320,1661814180.163,2721.324222467658,-2595.6099287185843,1000,5.051,-1.085,0.176,1099.3,yellow,269,TRUE
321,1661814183.426,4099.05069135038,1593.1143036340375,1000,5.77,-1.545,3.126,1121.7,red,269,TRUE
322,1661814184.537,3424.71395636124,-2473.223860310245,1000,5.056,-1.258,-0.05,115.6,green,269,TRUE
323,1661814186.828,4325.995030037615,1133.8520044711443,1000,5.848,-1.42,2.149,1132.1,red,269,TRUE
324,1661814187.952,3396.594409635651,-2465.9713439553984,1000,5.024,-1.257,-0.043,132.7,green,269,TRUE
325,1661814188.21,3711.5978300383995,1917.586573762088,1000,0.642,-1.391,-0.977,114.0,blue,269,TRUE
326,1661814188.312,4344.745543167445,1165.2161369359967,1000,5.866,-1.416,1.788,101.7,red,269,TRUE
327,1661814188.4,2676.6775388917636,-2638.7604494705747,1000,5.055,-1.076,0.173,87.4,yellow,269,TRUE
328,1661814188.476,3429.912266270054,-2451.0017987471424,1000,5.025,-1.26,-0.046,102.7,green,269,TRUE
329,1661814188.679,3709.1346008501237,1953.9650394259627,1000,0.61,-1.389,-0.978,107.6,blue,269,TRUE
330,1661814188.772,4341.306384249118,1159.434526806823,1000,5.868,-1.418,1.685,103.7,red,269,TRUE
331,1661814188.863,2529.1079816884708,-2522.0741908605214,1000,5.055,-1.076,0.173,87.5,yellow,269,TRUE
332,1661814188.939,3432.630005809935,-2459.347075749821,1000,5.025,-1.271,-0.048,103.4,green,269,TRUE
333,1661814189.146,3696.1515850100823,1936.8419633918047,1000,0.623,-1.401,-1.114,121.7,blue,269,TRUE
334,1661814192.502,3715.3653044523285,1899.6177133160563,1000,0.651,-1.401,-1.025,112.6,blue,269,TRUE
335,1661814192.607,4332.797704922176,1196.1115311884673,1000,5.934,-1.395,1.478,101.9,red,269,TRUE
336,1661814192.697,2590.722971104271,-2557.9790374703543,1000,5.031,-1.098,0.209,104.6,yellow,269,TRUE
337,1661814192.783,3465.797494518664,-2483.148888531185,1000,5.029,-1.283,-0.048,106.4,green,269,TRUE
338,1661814193.022,3797.5914717104956,1894.7174359847993,1000,0.652,-1.401,-1.062,121.1,blue,269,TRUE
339,1661814193.126,4337.274860588913,1211.0050575561952,1000,5.936,-1.395,1.49,107.9,red,269,TRUE
340,1661814193.22,2614.3670551918076,-2585.507868468102,1000,5.032,-1.098,0.208,118.0,yellow,269,TRUE
341,1661814193.315,3472.6430371580777,-2489.7871764139873,1000,5.029,-1.277,-0.048,114.2,green,269,TRUE
342,1661814193.508,3786.6349020431912,1865.626039712877,1000,0.652,-1.405,-1.124,121.3,blue,269,TRUE
343,1661814193.608,4329.898297661376,1224.2231940282834,1000,5.944,-1.394,1.498,122.8,red,269,TRUE
344,1661814193.714,2650.151517003258,-2614.3222808846876,1000,5.03,-1.1,0.212,91.2,yellow,269,TRUE
345,1661814193.792,3476.6004923368323,-2490.564785450159,1000,5.028,-1.272,-0.048,104.5,green,269,TRUE
346,1661814193.979,3799.16730503221,1859.6504767218103,1000,0.651,-1.405,-1.128,129.0,blue,269,TRUE
347,1661814194.09,4111.476081190535,1689.4829852354349,1000,5.942,-1.394,1.433,122.4,red,269,TRUE
348,1661814194.196,2654.357741038471,-2630.6418544471894,1000,5.03,-1.1,0.213,91.6,yellow,269,TRUE
349,1661814194.273,3480.6860284555205,-2490.408874876725,1000,5.028,-1.27,-0.048,104.4,green,269,TRUE
350,1661814194.514,3887.3977130541766,1806.55578866812,1000,0.651,-1.407,-1.141,119.9,blue,269,TRUE
351,1661814194.617,4087.2970855958815,1657.4037197879115,1000,5.957,-1.394,1.422,121.5,red,269,TRUE
352,1661814194.722,2664.7047373922255,-2633.644979203322,1000,5.029,-1.104,0.215,92.5,yellow,269,TRUE
353,1661814194.8,3473.2165067478295,-2488.916880073437,1000,5.028,-1.275,-0.048,104.8,green,269,TRUE
354,1661814194.987,3854.8008521530824,1824.1023837051898,1000,0.663,-1.412,-1.222,129.6,blue,269,TRUE
355,1661814195.1,4087.5202236950477,1650.3488043606812,1000,5.984,-1.392,1.42,122.0,red,269,TRUE
356,1661814195.206,2770.3459387621315,-2699.18797516465,1000,5.03,-1.1,0.213,91.5,yellow,269,TRUE
357,1661814195.284,3507.7512514041173,-2501.137106818885,1000,5.022,-1.253,-0.034,106.3,green,269,TRUE
358,1661814195.476,3882.7570361005,1849.3536583565844,1000,0.689,-1.415,-1.236,124.9,blue,269,TRUE
359,1661814195.585,4101.570906754937,1579.7139848079287,1000,6.019,-1.389,1.269,123.8,red,269,TRUE
360,1661814195.69,2760.312235374626,-2706.247279698299,1000,5.034,-1.093,0.206,106.7,yellow,269,TRUE
361,1661814195.784,3531.059478324503,-2514.7437032181256,1000,5.02,-1.248,-0.034,103.7,green,269,TRUE
362,1661814196.057,3910.203005939895,1888.538371436481,1000,0.71,-1.408,-1.185,116.2,blue,269,TRUE
363,1661814196.156,4087.403536733161,1571.182055911303,1000,6.02,-1.391,1.284,108.3,red,269,TRUE
364,1661814196.251,2760.1809085645873,-2700.485033638243,1000,5.035,-1.09,0.206,103.6,yellow,269,TRUE
365,1661814196.34,3556.52775098042,-2521.7481113853823,1000,5.02,-1.261,-0.045,106.2,green,269,TRUE
366,1661814197.565,3817.2641209429653,1922.809365318057,1000,0.693,-1.41,-1.25,106.3,blue,269,TRUE
367,1661814197.657,4070.56437552243,1518.5973127502548,1000,6.012,-1.392,1.39,104.7,red,269,TRUE
368,1661814197.754,2751.4207024815346,-2692.4996285424168,1000,5.028,-1.097,0.216,115.3,yellow,269,TRUE
369,1661814197.857,3570.3767234974607,-2535.381656783151,1000,5.019,-1.258,-0.047,101.6,green,269,TRUE
370,1661814205.792,4243.994033000434,1760.6358719508319,1000,0.1,-1.344,-1.117,1125.2,blue,269,TRUE
371,1661814206.906,2755.7644816557063,-2685.414333235593,1000,5.037,-1.084,0.203,115.8,yellow,269,TRUE
372,1661814207.001,3604.3750199719034,-2525.809952948626,1000,5.031,-1.215,-0.032,95.2,green,269,TRUE
373,1661814207.254,4144.963430697193,1797.0514922824125,1000,0.121,-1.355,-0.999,113.8,blue,269,TRUE
374,1661814207.355,4059.3013084107392,1519.2456910882117,1000,5.391,-1.436,1.284,103.4,red,269,TRUE
375,1661814207.447,2769.2687064975635,-2674.6041833117692,1000,5.037,-1.084,0.203,102.3,yellow,269,TRUE
376,1661814207.538,3634.1095497169263,-2525.978308974011,1000,5.031,-1.208,-0.032,101.0,green,269,TRUE
377,1661814207.806,4166.662959055417,1790.9315663085902,1000,0.115,-1.358,-1.086,104.3,blue,269,TRUE
378,1661814207.897,4065.6816773083096,1528.8135772471132,1000,5.514,-1.446,1.298,103.7,red,269,TRUE
379,1661814207.989,2744.0037595099784,-2665.9982135668047,1000,5.037,-1.083,0.204,101.3,yellow,269,TRUE
380,1661814208.077,3627.8182677987097,-2499.306165470156,1000,5.033,-1.212,-0.031,119.2,green,269,TRUE
381,1661814208.349,4114.39206679141,1819.5256185769188,1000,0.149,-1.364,-1.194,105.9,blue,269,TRUE
382,1661814208.444,4069.573135689226,1542.5101549769959,1000,5.547,-1.426,1.486,102.1,red,269,TRUE
383,1661814208.533,2739.2650475440055,-2647.187247401644,1000,5.037,-1.083,0.204,120.0,yellow,269,TRUE
384,1661814208.635,3632.564448210926,-2479.5079970008,1000,5.034,-1.216,-0.031,122.0,green,269,TRUE
385,1661814209.876,4120.713770945689,1815.5614987385873,1000,0.071,-1.352,-1.242,1134.7,blue,269,TRUE
386,1661814210.996,2750.0955079529317,-2641.859378496852,1000,5.036,-1.079,0.201,118.9,yellow,269,TRUE
387,1661814211.093,3607.22915734799,-2466.7160646919306,1000,5.037,-1.201,-0.023,116.6,green,269,TRUE
388,1661814212.32,4191.7608265675035,1795.5449490721403,1000,1.033,-1.473,-0.092,107.3,blue,269,TRUE
389,1661814212.416,4094.2305253288255,1578.5111473889594,1000,5.672,-1.427,1.736,115.6,red,269,TRUE
390,1661814212.51,2747.0882720678005,-2635.9933170083273,1000,5.042,-1.08,0.195,128.0,yellow,269,TRUE
391,1661814212.613,3607.2159794158306,-2441.750477213099,1000,5.036,-1.215,-0.026,100.8,green,269,TRUE
392,1661814212.881,3799.2650039438686,1932.2288063726612,1000,0.75,-1.39,-1.211,104.8,blue,269,TRUE
393,1661814212.974,4083.967258260455,1609.3236954257072,1000,5.751,-1.414,1.509,105.0,red,269,TRUE
394,1661814213.061,2743.1968713787246,-2636.1225232838406,1000,5.041,-1.08,0.193,118.5,yellow,269,TRUE
395,1661814213.164,3577.679985731318,-2442.945370546677,1000,5.035,-1.206,-0.026,106.7,green,269,TRUE
396,1661814213.441,3815.198105885576,1926.562049321147,1000,0.964,-1.421,-1.138,103.1,blue,269,TRUE
397,1661814213.533,4085.7826189637035,1604.7802302177909,1000,5.943,-1.373,1.534,100.3,red,269,TRUE
398,1661814213.62,2737.335365025525,-2648.3440541898863,1000,5.041,-1.079,0.19,118.0,yellow,269,TRUE
399,1661814213.722,3575.076768085974,-2437.26209815583,1000,5.04,-1.205,-0.029,107.1,green,269,TRUE
400,1661814213.984,3801.8860641764345,1894.1604465101389,1000,1.127,-1.476,-0.083,102.8,blue,269,TRUE
401,1661814214.072,4099.37328236518,1629.702821315289,1000,5.977,-1.309,1.55,120.2,red,269,TRUE
402,1661814214.175,2739.9789719823316,-2652.3508515819663,1000,5.041,-1.079,0.19,120.2,yellow,269,TRUE
403,1661814214.266,3657.381999942878,-2447.5964192761517,1000,5.043,-1.203,-0.023,105.4,green,269,TRUE
404,1661814214.528,3830.5132909240224,1858.3650479381286,1000,1.055,-1.436,-1.18,103.7,blue,269,TRUE
405,1661814214.619,4081.707600536743,1630.8302941098543,1000,5.924,-1.346,1.514,118.7,red,269,TRUE
406,1661814214.721,2752.6374114465693,-2667.285382144572,1000,5.041,-1.079,0.19,107.6,yellow,269,TRUE
407,1661814214.815,3668.7743057480893,-2439.5309556366483,1000,5.047,-1.211,-0.021,104.8,green,269,TRUE
408,1661814215.07,3814.0739277463417,1809.7881175259,1000,1.028,-1.421,-1.242,135.4,blue,269,TRUE
409,1661814215.175,4071.073769765764,1631.7877973676914,1000,5.798,-1.392,1.282,105.8,red,269,TRUE
410,1661814215.267,2752.4503321016437,-2673.9589549585507,1000,5.041,-1.079,0.19,103.5,yellow,269,TRUE
411,1661814215.357,3627.3363257258825,-2455.4223291506783,1000,5.047,-1.216,-0.026,104.7,green,269,TRUE
412,1661814217.71,2731.238728515576,-2666.8159467167384,1000,5.039,-1.082,0.193,1148.6,yellow,269,TRUE
413,1661814219.033,3867.432113424969,1783.5173869368316,1000,1.053,-1.383,-0.906,113.7,blue,269,TRUE
414,1661814219.133,4029.1707914009708,1614.6775335405134,1000,6.005,-1.338,1.427,118.4,red,269,TRUE
415,1661814219.234,2744.054721924766,-2667.8337414486687,1000,5.037,-1.08,0.194,107.3,yellow,269,TRUE
416,1661814219.328,3649.801538119396,-2473.896421041535,1000,5.051,-1.214,-0.048,105.7,green,269,TRUE
417,1661814219.588,3936.3506223222444,1789.3528390554823,1000,1.069,-1.385,-0.881,104.6,blue,269,TRUE
418,1661814219.678,4025.9801037439356,1601.0549669655395,1000,6.039,-1.326,1.386,102.7,red,269,TRUE
419,1661814219.767,2732.988736014102,-2647.204840765288,1000,5.032,-1.08,0.194,103.5,yellow,269,TRUE
420,1661814219.857,3695.0859625742964,-2491.2417455609775,1000,5.053,-1.221,-0.039,105.2,green,269,TRUE
421,1661814220.127,3972.4053176129114,1739.982187650321,1000,1.1,-1.388,-0.87,123.5,blue,269,TRUE
422,1661814220.233,4037.9270219808077,1632.9804509722583,1000,6.034,-1.323,1.401,107.3,red,269,TRUE
423,1661814220.326,2741.1768618910755,-2639.6488933502037,1000,5.031,-1.08,0.195,118.9,yellow,269,TRUE
424,1661814222.573,4022.6307475876893,1769.5841973439353,1000,1.108,-1.39,-0.876,119.1,blue,269,TRUE
425,1661814222.67,4043.8743811696863,1583.573045052936,1000,5.933,-1.337,1.606,126.0,red,269,TRUE
426,1661814222.799,2681.858042450829,-2618.160273473852,1000,5.029,-1.083,0.199,1098.4,yellow,269,TRUE
427,1661814226.132,2702.4293054446216,-2616.805665543636,1000,5.055,-1.08,0.193,1149.3,yellow,269,TRUE
428,1661814227.393,4102.7787310612875,1749.1616968460758,1000,1.074,-1.374,-0.87,98.9,blue,269,TRUE
429,1661814227.48,4092.043890273162,1569.9436006583421,1000,5.953,-1.323,1.467,104.4,red,269,TRUE
430,1661814227.57,2685.9667195710417,-2607.388600626747,1000,5.063,-1.079,0.193,104.7,yellow,269,TRUE
431,1661814227.663,3747.9823696415992,-2512.692456781245,1000,5.06,-1.222,-0.035,102.1,green,269,TRUE
432,1661814227.916,4175.58216909563,1771.1467317941413,1000,1.073,-1.373,-0.854,105.1,blue,269,TRUE
433,1661814228.011,4121.246274990967,1578.675752380059,1000,5.933,-1.319,1.468,101.3,red,269,TRUE
434,1661814228.099,2691.418664789664,-2600.875874612513,1000,5.064,-1.077,0.194,118.9,yellow,269,TRUE
435,1661814231.447,2693.0993492226053,-2608.55020764864,1000,5.06,-1.08,0.196,1137.3,yellow,269,TRUE
436,1661814233.794,4308.697870999385,1565.0493030001924,1000,5.866,-1.318,1.401,1132.7,red,269,TRUE
437,1661814234.911,3633.429988438724,-2516.198598790519,1000,5.068,-1.252,-0.035,120.4,green,269,TRUE
438,1661814235.183,4155.097455440186,1783.8162228778735,1000,1.098,-1.365,-0.776,102.8,blue,269,TRUE
439,1661814235.273,4367.5156137116455,1553.5962279314972,1000,6.017,-1.286,1.393,102.9,red,269,TRUE
440,1661814235.363,2707.2509280944455,-2609.5518711461905,1000,5.058,-1.078,0.199,104.9,yellow,269,TRUE
441,1661814240.934,4099.637433471488,1770.8089421859304,1000,0.993,-1.35,-0.837,1138.6,blue,269,TRUE
442,1661814245.372,4317.063860371834,1449.7846594972264,1000,6.053,-1.369,1.277,1159.7,red,269,TRUE
443,1661814246.514,3598.9664136027914,-2538.1642822051367,1000,5.068,-1.223,-0.032,122.2,green,269,TRUE
444,1661814246.788,4080.236067212216,1788.7255239349986,1000,1.334,-1.46,-0.104,103.7,blue,269,TRUE
445,1661814246.88,4453.695467249029,1442.5390637305202,1000,6.154,-1.376,1.745,101.7,red,269,TRUE
446,1661814246.97,2693.293735485986,-2616.2533579112883,1000,5.051,-1.072,0.194,101.6,yellow,269,TRUE
447,1661814247.057,3624.5752139755728,-2539.8976850632134,1000,5.068,-1.222,-0.032,118.3,green,269,TRUE
448,1661814247.343,4102.287288460472,1793.950769613454,1000,0.81,-1.372,-1.194,106.4,blue,269,TRUE
449,1661814247.436,4687.789812686157,1426.7877000397787,1000,0.098,-1.353,1.565,104.1,red,269,TRUE
450,1661814247.529,2690.6786660694306,-2613.9228207964466,1000,5.051,-1.072,0.194,116.7,yellow,269,TRUE
451,1661814247.632,3566.06177225873,-2527.3982738364953,1000,5.068,-1.218,-0.032,104.5,green,269,TRUE
452,1661814247.889,4063.61353016383,1787.146913484334,1000,0.926,-1.397,-1.194,101.8,blue,269,TRUE
453,1661814247.981,4896.944235739328,1433.7414917327606,1000,6.1,-1.406,1.715,101.6,red,269,TRUE
454,1661814248.069,2701.335053458861,-2634.93275701863,1000,5.051,-1.072,0.195,120.6,yellow,269,TRUE
455,1661814248.172,3512.673986607792,-2518.111480773374,1000,5.054,-1.189,-0.038,121.8,green,269,TRUE
456,1661814248.449,4043.056226545375,1738.207892330075,1000,1.1,-1.388,-2.484,102.9,blue,269,TRUE
457,1661814248.54,5004.327431410517,1517.0966486987354,1000,5.451,-1.451,3.029,118.4,red,269,TRUE
458,1661814248.64,2710.628195169175,-2639.7323462494105,1000,5.052,-1.072,0.194,122.2,yellow,269,TRUE
459,1661814250.91,4004.5543084647943,1875.6006426194929,1000,6.116,-1.33,-1.618,116.3,blue,269,TRUE
460,1661814251.01,5228.289292441579,1563.5043158271844,1000,5.065,-1.48,3.057,122.4,red,269,TRUE
461,1661814251.112,2725.493435421227,-2647.2686350958625,1000,5.058,-1.067,0.199,100.6,yellow,269,TRUE
462,1661814251.195,3485.349431430861,-2509.4653969295305,1000,5.097,-1.533,-0.002,103.5,green,269,TRUE
463,1661814251.453,3937.727859676738,2118.5751945081834,1000,5.54,-1.361,-1.774,103.3,blue,269,TRUE
464,1661814251.542,5588.084755716359,1743.8533795018018,1000,5.272,-1.417,1.917,118.3,red,269,TRUE
465,1661814251.644,2713.9481071542764,-2658.7794044718225,1000,5.058,-1.067,0.199,93.0,yellow,269,TRUE
466,1661814251.728,3461.994420445375,-2521.522776923705,1000,5.101,-1.532,0.001,99.5,green,269,TRUE
467,1661814251.983,3947.5818076513656,2420.403017631697,1000,0.158,-1.289,-1.389,104.2,blue,269,TRUE
468,1661814252.075,5706.4130044089225,1794.1414008789145,1000,5.305,-1.419,1.974,116.0,red,269,TRUE
469,1661814252.174,2739.1607165213295,-2660.311863455219,1000,5.058,-1.067,0.199,123.4,yellow,269,TRUE
470,1661814252.281,3450.7762562405424,-2522.358406408776,1000,5.101,-1.53,0.0,108.0,green,269,TRUE
471,1661814252.556,4108.448564264337,2696.9073853628,1000,0.984,-1.392,-1.887,123.1,blue,269,TRUE
472,1661814252.66,5727.112500945356,1809.8759788743555,1000,5.205,-1.445,1.886,108.9,red,269,TRUE
473,1661814252.756,2749.355760246903,-2662.154945990409,1000,5.058,-1.066,0.197,102.9,yellow,269,TRUE
474,1661814252.845,3495.8023901346955,-2530.3763449041994,1000,5.101,-1.524,0.0,103.7,green,269,TRUE
475,1661814253.115,4272.6496701183,2909.9130120227696,1000,1.744,-1.394,-1.2,117.3,blue,269,TRUE
476,1661814253.216,5800.4575205424635,1865.0724832843928,1000,5.2,-1.428,1.742,107.0,red,269,TRUE
477,1661814253.309,2757.8145886273146,-2664.516253415038,1000,5.058,-1.066,0.199,91.5,yellow,269,TRUE
478,1661814253.385,3535.5900292734173,-2556.941232437582,1000,5.101,-1.522,0.0,106.0,green,269,TRUE
479,1661814253.686,4532.66766495026,3077.5436460595915,1000,1.653,-1.439,-1.286,107.2,blue,269,TRUE
480,1661814253.78,5790.721673225248,1813.5585534798802,1000,5.31,-1.383,1.953,103.7,red,269,TRUE
481,1661814253.871,2765.1920872291744,-2674.9940554402365,1000,5.059,-1.064,0.201,102.6,yellow,269,TRUE
482,1661814253.963,3562.4111656278715,-2588.4747473364746,1000,5.101,-1.522,0.0,102.6,green,269,TRUE
483,1661814265.379,4528.509948728672,3138.9174511799993,1000,3.084,-1.506,-3.094,1179.0,blue,269,TRUE
484,1661814266.571,3621.6713820575983,-2607.848073029853,1000,4.995,-1.489,-0.041,136.8,green,269,TRUE
485,1661814269.263,4432.346588523488,3159.572209732574,1000,5.215,-1.43,-0.909,107.1,blue,269,TRUE
486,1661814269.355,5516.845448056162,1789.6513554795008,1000,5.568,-1.364,1.182,94.5,red,269,TRUE
487,1661814269.453,3711.268373694334,-2634.8982975855447,1000,5.036,-1.437,-0.041,98.1,green,269,TRUE
488,1661814272.12,4072.7885376011523,3207.9198714976787,1000,3.784,-1.538,3.129,118.5,blue,269,TRUE
489,1661814272.22,5206.59916122732,1737.861239384234,1000,5.684,-1.354,1.204,94.9,red,269,TRUE
490,1661814276.921,3344.3101389411645,3227.831078461267,1000,3.214,-1.477,0.055,1180.9,blue,269,TRUE
491,1661814280.26,2550.116307016235,3286.512403878474,1000,3.215,-1.482,0.058,1176.9,blue,269,TRUE
492,1661814283.63,1506.5381790105585,2890.7806716776436,1000,0.841,-1.482,-0.073,1175.0,blue,269,TRUE
493,1661814284.813,3747.40762200688,-2656.731363190999,1000,5.088,-1.011,0.019,125.5,green,269,TRUE
494,1661814286.055,1244.548178252832,3012.0789104028645,1000,0.733,-1.307,-1.283,1176.8,blue,269,TRUE
495,1661814287.241,3739.0527226299296,-2664.3866860484372,1000,5.079,-1.035,0.014,125.4,green,269,TRUE
496,1661814288.472,1233.25744132806,3252.0351414214197,1000,0.076,-1.456,-0.098,1176.4,blue,269,TRUE
497,1661814291.803,1202.5115449644202,3436.407568172927,1000,4.431,-1.482,-0.086,1160.0,blue,269,TRUE
498,1661814292.947,2735.182703300785,-2692.1179118305554,1000,5.011,-0.971,0.107,105.7,yellow,269,TRUE
499,1661814293.033,3736.0250108455803,-2644.251798855238,1000,5.095,-1.105,0.125,129.9,green,269,TRUE
500,1661814300.99,1706.6724044261784,3759.0373169299055,1000,1.132,-1.421,-1.533,127.1,blue,269,TRUE
501,1661814301.104,4910.521292021497,1774.8481646562816,1000,1.07,-1.273,2.239,107.9,red,269,TRUE
502,1661814301.199,2717.029511417747,-2707.4679430747224,1000,5.051,-0.963,0.107,115.8,yellow,269,TRUE
503,1661814301.29,3710.1092095331237,-2616.036710481546,1000,5.077,-1.113,0.104,99.8,green,269,TRUE
504,1661814301.545,2236.426111989243,4181.124200979981,1000,1.13,-1.417,-1.566,102.9,blue,269,TRUE
505,1661814301.635,4606.894876103378,1856.5242075599238,1000,1.064,-1.301,2.197,119.0,red,269,TRUE
506,1661814301.737,2684.4439304264774,-2720.3985506633817,1000,5.052,-0.96,0.106,107.5,yellow,269,TRUE
507,1661814301.83,3585.401905754615,-2604.599909375426,1000,5.075,-1.118,0.092,104.5,green,269,TRUE
508,1661814302.101,2944.8106185103,5120.540329512977,1000,1.393,-1.455,-0.108,105.8,blue,269,TRUE
509,1661814302.193,4240.411703109682,1795.7844248797248,1000,0.959,-1.332,2.23,119.2,red,269,TRUE
510,1661814303.321,4015.249879625255,-2190.995618891321,1000,5.077,-1.115,0.079,1129.9,green,269,TRUE
511,1661814304.522,3228.3343453550247,5433.171674145363,1000,1.506,-1.431,-1.508,123.3,blue,269,TRUE
512,1661814304.631,3929.0242833688117,1823.168160969177,1000,1.535,-1.38,1.619,104.0,red,269,TRUE
513,1661814304.722,2374.3628591945476,-2246.8887819201923,1000,5.052,-0.966,0.104,105.0,yellow,269,TRUE
514,1661814304.811,4023.864746550511,-2158.144894672169,1000,5.078,-1.108,0.081,108.5,green,269,TRUE
515,1661814305.072,3394.317532400711,5662.656395539404,1000,1.261,-1.407,-1.28,104.1,blue,269,TRUE
516,1661814305.163,3892.02768255375,1831.9002257973623,1000,1.33,-1.395,1.6,103.3,red,269,TRUE
517,1661814305.252,2349.4330960699135,-2250.4153874536046,1000,5.052,-0.965,0.104,118.3,yellow,269,TRUE
518,1661814307.507,3779.636605397843,5798.805989713942,1000,1.668,-1.456,-3.029,118.8,blue,269,TRUE
519,1661814307.606,3986.4820376575794,1808.0253620458789,1000,0.661,-1.39,1.806,124.7,red,269,TRUE
520,1661814307.713,2283.5310381580125,-2257.517351542378,1000,5.057,-0.975,0.026,93.3,yellow,269,TRUE
521,1661814307.793,3968.1593119477425,-2137.2953916154293,1000,5.105,-1.086,0.188,88.5,green,269,TRUE
522,1661814308.036,3814.2783225956405,5845.070827395342,1000,1.705,-1.469,-0.1,104.3,blue,269,TRUE
523,1661814308.127,4202.626657728012,1782.03292861175,1000,6.196,-1.381,1.559,104.0,red,269,TRUE
524,1661814308.217,2274.5260349668006,-2242.273081361654,1000,5.058,-0.981,0.027,104.3,yellow,269,TRUE
525,1661814308.308,3924.5177053504267,-2155.938952950356,1000,5.102,-1.081,0.157,120.8,green,269,TRUE
526,1661814309.552,3859.1496128792987,5874.129754641661,1000,2.704,-1.52,0.04,1145.9,blue,269,TRUE
527,1661814310.667,2253.7215375215997,-2222.3298023731695,1000,5.058,-0.98,0.027,119.8,yellow,269,TRUE
528,1661814310.771,3966.0294720688817,-2155.062685398985,1000,5.104,-1.073,0.144,106.0,green,269,TRUE
529,1661814311.047,3930.59642671388,5867.770812342879,1000,2.143,-1.561,-3.132,105.0,blue,269,TRUE
530,1661814311.138,4633.026803266698,1765.9232390147765,1000,0.569,-1.252,2.21,103.2,red,269,TRUE
531,1661814311.228,2234.0049054038286,-2200.240446957859,1000,5.058,-0.98,0.027,103.2,yellow,269,TRUE
532,1661814311.317,4006.6972576341236,-2145.6970406115647,1000,5.104,-1.077,0.147,104.3,green,269,TRUE
533,1661814311.59,3936.214213458829,5899.452941832486,1000,2.128,-1.552,0.01,102.4,blue,269,TRUE
534,1661814311.679,5104.3344948229405,1839.117417331149,1000,0.247,-1.329,2.421,118.7,red,269,TRUE
535,1661814311.782,2519.1070033907813,-2712.7751102589186,1000,5.058,-0.978,0.027,91.8,yellow,269,TRUE
536,1661814311.859,3559.0094307191644,-2517.592826615955,1000,5.066,-1.121,0.049,107.9,green,269,TRUE
537,1661814312.117,3917.038150776932,5902.072286997468,1000,2.02,-1.524,-0.015,106.9,blue,269,TRUE
538,1661814312.211,5503.93830276929,1831.9448129946986,1000,0.432,-1.273,2.334,104.9,red,269,TRUE
539,1661814312.302,2520.699520614755,-2733.4813903171303,1000,5.061,-0.97,0.022,104.4,yellow,269,TRUE
540,1661814312.394,3568.544952423433,-2507.3832906224748,1000,5.052,-1.112,0.02,103.4,green,269,TRUE
541,1661814312.649,3884.3485277904488,5883.672362097845,1000,2.405,-1.509,3.124,119.3,blue,269,TRUE
542,1661814312.751,5904.494788680524,1829.063709453919,1000,1.12,-1.107,2.174,107.6,red,269,TRUE
543,1661814312.844,2509.358448813684,-2730.784770842607,1000,5.076,-0.963,0.005,107.0,yellow,269,TRUE
544,1661814312.936,3555.6162374683377,-2487.4015448529085,1000,5.056,-1.097,0.039,90.9,green,269,TRUE
545,1661814313.19,3779.858689238752,5931.802791476075,1000,3.162,-1.534,-0.022,106.1,blue,269,TRUE
546,1661814313.285,6219.816753949489,1824.7821234880455,1000,0.548,-1.27,2.514,102.7,red,269,TRUE
547,1661814313.373,2479.2817525027544,-2726.159965350864,1000,5.067,-0.974,0.012,105.8,yellow,269,TRUE
548,1661814313.469,3605.465604645911,-2458.034085847829,1000,5.083,-1.091,0.111,100.8,green,269,TRUE
549,1661814313.733,3621.7642947271383,6032.555869001488,1000,4.039,-1.412,-1.394,107.7,blue,269,TRUE
550,1661814313.827,6345.5145757103555,1799.526859797328,1000,5.682,-1.359,3.093,104.9,red,269,TRUE
551,1661814313.919,2467.4871027468985,-2729.151901454756,1000,5.067,-0.982,0.012,101.3,yellow,269,TRUE
552,1661814314.009,3565.787885188907,-2464.4818441047446,1000,5.091,-1.107,0.112,104.0,green,269,TRUE
553,1661814314.28,3390.29857391541,6177.194658558314,1000,4.211,-1.472,-0.058,105.0,blue,269,TRUE
554,1661814314.37,6187.73642580571,1734.3628781609702,1000,5.465,-1.371,2.608,105.8,red,269,TRUE
555,1661814314.464,2480.1947220110546,-2737.6281767314836,1000,5.067,-0.981,0.014,102.2,yellow,269,TRUE
556,1661814314.556,3567.123315222314,-2456.6596922479334,1000,5.091,-1.098,0.109,101.4,green,269,TRUE
557,1661814315.785,3158.1393120431953,6337.128672672719,1000,4.523,-1.46,3.03,1130.2,blue,269,TRUE
558,1661814316.899,2461.2149741193643,-2704.3560878543053,1000,5.067,-0.981,0.014,122.9,yellow,269,TRUE
559,1661814317.004,3560.5453063873088,-2454.840474282293,1000,5.091,-1.093,0.108,121.6,green,269,TRUE
560,1661814317.277,2927.5409929436355,6556.345120158668,1000,4.019,-1.453,-0.079,104.6,blue,269,TRUE
561,1661814317.366,6050.160584671571,1637.6944201812,1000,4.665,-1.333,-3.043,105.4,red,269,TRUE
562,1661814317.46,2440.4346807479164,-2669.0427302746602,1000,5.067,-0.978,0.013,103.4,yellow,269,TRUE
563,1661814317.552,3565.735089019588,-2456.131434723873,1000,5.09,-1.091,0.107,100.7,green,269,TRUE
564,1661814317.819,2732.555599229629,6759.277736427023,1000,4.085,-1.444,-0.068,106.1,blue,269,TRUE
565,1661814317.91,5860.472333776994,1572.3396847441127,1000,3.878,-1.397,2.783,104.8,red,269,TRUE
566,1661814318.002,2466.2612051818087,-2663.4851891985177,1000,5.067,-0.977,0.013,104.5,yellow,269,TRUE
567,1661814318.094,3627.0224096092493,-2468.834966734694,1000,5.09,-1.09,0.107,102.9,green,269,TRUE
568,1661814318.348,2625.5476471661686,6863.174639867107,1000,4.104,-1.458,0.064,105.5,blue,269,TRUE
569,1661814318.442,5536.272787363811,1514.4827952675544,1000,3.735,-1.468,3.046,101.4,red,269,TRUE
570,1661814318.533,2472.5614293702215,-2666.6010370132503,1000,5.068,-0.974,0.011,101.9,yellow,269,TRUE
571,1661814318.622,3623.2371242939284,-2475.0975919810153,1000,5.091,-1.092,0.107,117.6,green,269,TRUE
572,1661814319.871,2483.875081250521,6950.972387641838,1000,4.148,-1.465,-0.025,1121.3,blue,269,TRUE
573,1661814320.978,2495.514059785322,-2661.713077031276,1000,5.066,-0.994,0.015,118.0,yellow,269,TRUE
574,1661814321.075,3582.718241277786,-2489.882522624897,1000,5.092,-1.07,0.118,110.7,green,269,TRUE
575,1661814325.655,2438.6019646679783,7041.574243641889,1000,4.142,-1.404,-0.496,1147.8,blue,269,TRUE
576,1661814326.786,2522.757853777451,-2680.3209364735108,1000,5.065,-0.994,0.01,107.9,yellow,269,TRUE
577,1661814326.871,3594.0845098149325,-2496.4349188814226,1000,5.091,-1.062,0.11,117.5,green,269,TRUE
578,1661814328.073,2422.3031294712446,7106.2018997555715,1000,4.139,-1.425,-0.586,107.4,blue,269,TRUE
579,1661814328.166,5450.418975329531,1566.0004379746895,1000,5.892,-1.402,2.296,104.3,red,269,TRUE
580,1661814328.263,2530.543703536895,-2681.4211929963585,1000,5.069,-0.994,0.014,112.3,yellow,269,TRUE
581,1661814330.517,2482.9755539407142,7130.5778018079955,1000,3.956,-1.44,-1.012,1144.8,blue,269,TRUE
582,1661814331.641,2524.3745813612013,-2680.277671637103,1000,5.073,-0.993,0.023,109.8,yellow,269,TRUE
583,1661814331.734,3586.4771485485257,-2515.9132396059717,1000,5.081,-1.058,0.076,122.9,green,269,TRUE
584,1661814332.008,2368.862110251023,7130.170985960566,1000,4.154,-1.474,-0.07,108.1,blue,269,TRUE
585,1661814332.104,5452.297477495422,1615.925218733356,1000,5.848,-1.444,2.093,101.6,red,269,TRUE
586,1661814332.192,2534.5423262607424,-2674.5824135343437,1000,5.075,-0.99,0.022,134.1,yellow,269,TRUE
587,1661814332.296,3557.6314187630564,-2545.8509859231617,1000,5.081,-1.069,0.077,107.1,green,269,TRUE
588,1661814332.56,2385.197761893239,7185.9323277568,1000,4.16,-1.474,-0.069,101.0,blue,269,TRUE
589,1661814332.647,5560.760087651192,1675.599385292885,1000,5.854,-1.449,2.089,118.8,red,269,TRUE
590,1661814332.749,2570.9983240158012,-2666.2729309206716,1000,5.075,-0.992,0.028,107.1,yellow,269,TRUE
591,1661814332.843,3557.3943451269242,-2553.0981893370003,1000,5.082,-1.071,0.082,104.3,green,269,TRUE
592,1661814333.114,2494.5095507437077,7182.5282524754775,1000,4.165,-1.474,-0.069,104.0,blue,269,TRUE
593,1661814333.202,5618.746686310896,1731.5443907062515,1000,5.594,-1.382,-3.086,121.9,red,269,TRUE
594,1661814333.308,2589.2769219484144,-2659.876176627764,1000,5.078,-0.982,0.024,123.1,yellow,269,TRUE
