,timestamp,x,y,z,yaw,roll,pitch,latency,student,session,success
0,1661818653.584,2263.621624007189,-2803.3805216074666,1000,5.695,-1.346,0.383,1100.5,red,270,TRUE
1,1661818653.584,2451.1740674903563,-1060.7857660060963,1000,5.695,-1.346,0.383,1102.5,yellow,270,TRUE
2,1661818653.584,2102.8031184952188,-818.0072135241766,1000,5.695,-1.346,0.383,1104.5,yellow,270,TRUE
3,1661818654.668,4120.996144207457,490.19612221378446,1000,6.282,-0.459,-0.033,90.2,green,270,TRUE
4,1661818654.987,1675.0642031215925,-1541.9375604957388,1000,5.376,-1.181,-0.166,104.4,red,270,TRUE
5,1661818655.079,2118.4451824947673,-803.917122853708,1000,2.777,0.433,-0.043,102.8,yellow,270,TRUE
6,1661818655.167,4382.3185488542185,649.6654654735981,1000,6.282,-0.459,-0.033,105.4,green,270,TRUE
7,1661818655.439,1591.8514777549499,-1024.8563856204387,1000,5.632,-1.258,0.062,103.4,red,270,TRUE
8,1661818655.533,2181.237630009138,-764.0990088514613,1000,2.777,0.433,-0.043,98.9,yellow,270,TRUE
9,1661818655.619,4405.196867931201,660.1689398632644,1000,6.282,-0.459,-0.033,103.7,green,270,TRUE
10,1661818655.889,1612.1446504435048,-692.1217108397402,1000,5.655,-1.396,-0.209,103.9,red,270,TRUE
11,1661818655.983,2152.6807102268317,-779.5999312851509,1000,2.777,0.433,-0.043,102.3,yellow,270,TRUE
12,1661818656.071,3925.218473542704,269.75336885834787,1000,6.282,-0.459,-0.033,117.8,green,270,TRUE
13,1661818665.067,1791.0838560525758,-354.4644153736416,1000,3.49,-1.373,0.404,1139.9,red,270,TRUE
14,1661818666.19,3451.6007357698195,-121.72786181799272,1000,6.282,-0.457,-0.033,92.1,green,270,TRUE
15,1661818666.475,1937.6091647698615,200.63940331275577,1000,3.424,-1.341,0.398,107.2,red,270,TRUE
16,1661818666.571,2189.467390152751,-754.9652674035082,1000,2.777,0.434,-0.044,116.7,yellow,270,TRUE
17,1661818666.675,3462.6516177364424,-117.12819057216875,1000,6.282,-0.457,-0.033,89.4,green,270,TRUE
18,1661818666.867,2025.3225628442112,1195.7406345799523,1000,3.328,-1.352,0.304,106.6,red,270,TRUE
19,1661818666.96,2557.706520354401,-1014.4786524607072,1000,2.777,0.434,-0.044,105.8,yellow,270,TRUE
20,1661818667.051,3460.322278859004,-119.48466832741265,1000,6.282,-0.457,-0.033,89.8,green,270,TRUE
21,1661818667.245,2327.1829907956176,1803.8762967802525,1000,3.284,-1.312,0.086,123.5,red,270,TRUE
22,1661818667.351,2936.642885524699,-1246.6818446539205,1000,2.777,0.434,-0.044,92.2,yellow,270,TRUE
23,1661818667.43,3202.1454069742795,-282.89239455116075,1000,6.282,-0.457,-0.033,89.8,green,270,TRUE
24,1661818667.607,2586.8031041137224,2395.1266385477966,1000,3.308,-1.356,-0.009,124.3,red,270,TRUE
25,1661818667.714,2947.8728037314936,-1243.4690529723748,1000,2.777,0.434,-0.044,107.8,yellow,270,TRUE
26,1661818667.804,3671.4503964145497,98.69898411415413,1000,6.282,-0.457,-0.033,92.0,green,270,TRUE
27,1661818668.092,2777.1408729314703,2877.095655096578,1000,3.171,-1.286,0.056,107.7,red,270,TRUE
28,1661818668.186,2938.978123312528,-1248.291843941723,1000,2.777,0.434,-0.044,117.6,yellow,270,TRUE
29,1661818668.287,3924.3567721299446,246.83213635577943,1000,6.282,-0.457,-0.033,107.7,green,270,TRUE
30,1661818668.475,2830.067248923386,3238.8008359986675,1000,3.103,-1.273,-0.002,102.1,red,270,TRUE
31,1661818668.564,2998.1272843034562,-1214.3793411844101,1000,2.777,0.434,-0.044,102.8,yellow,270,TRUE
32,1661818668.653,3921.191711482658,250.45220716686268,1000,6.282,-0.457,-0.033,88.8,green,270,TRUE
33,1661818668.845,2902.2773692084397,3312.9649983210097,1000,2.729,-1.23,0.005,108.2,red,270,TRUE
34,1661818668.94,3042.370094411508,-1212.3086916576522,1000,2.777,0.434,-0.044,104.2,yellow,270,TRUE
35,1661818669.03,3444.9230422295773,-136.0701492014737,1000,6.282,-0.457,-0.033,88.3,green,270,TRUE
36,1661818669.222,2913.38886981081,3325.5872114936283,1000,2.922,-1.23,0.115,122.4,red,270,TRUE
37,1661818669.329,3039.059099299313,-1185.5917827745716,1000,2.777,0.434,-0.044,106.8,yellow,270,TRUE
38,1661818669.422,2980.9540211514122,-519.5800134371052,1000,6.282,-0.457,-0.033,89.3,green,270,TRUE
39,1661818670.75,3006.357941230735,-1208.258943974661,1000,2.777,0.434,-0.044,119.0,yellow,270,TRUE
40,1661818670.848,3247.594733818729,-355.6120955419952,1000,6.282,-0.457,-0.033,95.6,green,270,TRUE
41,1661818672.154,3040.430709216871,-1195.618516654464,1000,2.777,0.434,-0.044,120.9,yellow,270,TRUE
42,1661818672.254,2766.376009814527,-747.4540429786913,1000,6.282,-0.457,-0.033,95.7,green,270,TRUE
43,1661818687.171,2906.4673128791997,3340.783564034551,1000,3.268,-1.295,0.094,1159.8,red,270,TRUE
44,1661818688.31,2517.9690663150664,-897.1614308044542,1000,6.282,-0.457,-0.033,108.9,green,270,TRUE
45,1661818690.59,2840.259166593312,3255.024330462647,1000,3.153,-1.308,0.044,1143.6,red,270,TRUE
46,1661818691.725,2994.796477141121,-508.6523385661367,1000,6.282,-0.457,-0.033,115.9,green,270,TRUE
47,1661818693.984,2882.1563953525133,3317.057776477433,1000,3.164,-1.3,0.059,1146.7,red,270,TRUE
48,1661818695.108,3471.2379350682663,-120.74143655232858,1000,6.282,-0.457,-0.033,112.6,green,270,TRUE
49,1661818695.46,2875.964836665728,3309.421807684966,1000,3.168,-1.3,0.061,105.7,red,270,TRUE
50,1661818695.552,2945.6294765884413,-1238.167741076417,1000,2.777,0.434,-0.044,105.3,yellow,270,TRUE
51,1661818695.645,3478.1350242029516,-124.48913637595395,1000,6.282,-0.457,-0.033,103.5,green,270,TRUE
52,1661818707.188,2733.14293340849,3771.881808928321,1000,4.679,-1.248,0.235,120.8,red,270,TRUE
53,1661818707.293,2921.1641055398245,-1231.656028448014,1000,2.777,0.434,-0.044,121.1,yellow,270,TRUE
54,1661818707.398,3699.488721268783,115.23028001325208,1000,6.282,-0.457,-0.033,90.2,green,270,TRUE
55,1661818707.623,2573.5868851322107,4242.033994005886,1000,4.588,-1.263,0.201,121.8,red,270,TRUE
56,1661818707.728,2905.142550187378,-1241.8068868976543,1000,2.777,0.434,-0.044,135.5,yellow,270,TRUE
57,1661818707.833,4178.703974568504,511.9992805437937,1000,6.282,-0.457,-0.033,92.0,green,270,TRUE
58,1661818708.008,2414.685158321966,4660.382388721588,1000,4.602,-1.27,0.111,111.9,red,270,TRUE
59,1661818708.106,2955.646587364447,-1252.7445716219484,1000,2.777,0.434,-0.044,120.6,yellow,270,TRUE
60,1661818708.21,4177.642062084477,511.14311534362724,1000,6.282,-0.457,-0.033,107.6,green,270,TRUE
61,1661818708.467,2321.715524109675,5150.083360385025,1000,4.588,-1.285,0.098,105.5,red,270,TRUE
62,1661818708.561,3026.7226678283937,-1194.9522626804908,1000,2.777,0.434,-0.044,102.4,yellow,270,TRUE
63,1661818708.649,3990.172561970452,300.3907670897915,1000,6.282,-0.457,-0.033,104.2,green,270,TRUE
64,1661818708.872,2146.2214579250794,5552.755997614011,1000,4.571,-1.295,0.089,107.9,red,270,TRUE
65,1661818708.966,2978.5556590437736,-1209.7183239762655,1000,2.777,0.434,-0.044,104.5,yellow,270,TRUE
66,1661818709.057,3986.564990103221,299.2934014979266,1000,6.282,-0.457,-0.033,88.5,green,270,TRUE
67,1661818709.325,1981.5494323526034,6008.417527905719,1000,4.579,-1.31,0.038,107.0,red,270,TRUE
68,1661818709.419,3028.115359035302,-1196.4565115042153,1000,2.777,0.434,-0.044,104.8,yellow,270,TRUE
69,1661818709.51,4450.379933450658,695.0722281564513,1000,6.282,-0.457,-0.033,88.3,green,270,TRUE
70,1661818709.704,1957.8281377767944,5976.659327491113,1000,4.588,-1.316,0.021,123.6,red,270,TRUE
71,1661818709.81,3015.255249891728,-1192.8334809384942,1000,2.777,0.434,-0.044,106.3,yellow,270,TRUE
72,1661818709.902,4445.19196933276,682.8117301551416,1000,6.282,-0.457,-0.033,88.8,green,270,TRUE
73,1661818710.13,1961.778000300824,5955.399954866262,1000,4.602,-1.309,0.045,118.4,red,270,TRUE
74,1661818710.231,2982.4460928060325,-1165.6701378776806,1000,2.777,0.434,-0.044,123.2,yellow,270,TRUE
75,1661818710.337,4446.024042934565,676.5545473945012,1000,6.282,-0.457,-0.033,91.9,green,270,TRUE
76,1661818710.51,2000.3257712610146,5957.632394791432,1000,4.626,-1.314,0.057,116.2,red,270,TRUE
77,1661818710.609,2985.558570952893,-1162.1273255300396,1000,2.777,0.434,-0.044,124.2,yellow,270,TRUE
78,1661818710.715,4451.659924776796,679.3706720036522,1000,6.282,-0.457,-0.033,106.5,green,270,TRUE
79,1661818710.971,2011.7960934240625,5961.7352154878345,1000,4.658,-1.312,0.086,106.2,red,270,TRUE
80,1661818711.066,2973.335366433523,-1196.0438724892226,1000,2.777,0.434,-0.044,100.7,yellow,270,TRUE
81,1661818711.155,4160.406259871532,498.15761288614243,1000,6.282,-0.457,-0.033,85.8,green,270,TRUE
82,1661818711.359,2024.454704231529,5956.308947690411,1000,4.671,-1.318,0.093,108.4,red,270,TRUE
83,1661818711.452,3003.6860323246715,-1184.9688898092272,1000,2.777,0.434,-0.044,103.7,yellow,270,TRUE
84,1661818711.544,3681.0931562623514,113.97068723969271,1000,6.282,-0.457,-0.033,88.1,green,270,TRUE
85,1661818711.796,2092.550707302982,5989.293676270153,1000,4.696,-1.328,0.103,122.4,red,270,TRUE
86,1661818711.901,3037.735309727872,-1152.7563983562616,1000,2.777,0.434,-0.044,106.7,yellow,270,TRUE
87,1661818711.996,3202.106838379495,-281.0763911879096,1000,6.282,-0.457,-0.033,101.8,green,270,TRUE
88,1661818712.187,2090.4463384765586,5988.913588595394,1000,4.685,-1.343,0.052,122.9,red,270,TRUE
89,1661818712.293,3013.8134764959464,-1166.7801112143402,1000,2.777,0.434,-0.044,122.6,yellow,270,TRUE
90,1661818712.398,3199.6286405838873,-282.20721800745616,1000,6.282,-0.457,-0.033,90.9,green,270,TRUE
91,1661818712.625,2119.0387991320654,5993.657539607303,1000,4.633,-1.352,0.002,121.1,red,270,TRUE
92,1661818712.73,2919.0591443103367,-1279.138914514767,1000,2.777,0.434,-0.044,122.2,yellow,270,TRUE
93,1661818712.836,3210.2910578440424,-274.6551239323557,1000,6.282,-0.457,-0.033,92.1,green,270,TRUE
94,1661818713.014,2109.74117191754,5995.261400533492,1000,4.616,-1.347,0.002,112.1,red,270,TRUE
95,1661818713.112,2922.1444537708726,-1286.75740307516,1000,2.777,0.434,-0.044,119.8,yellow,270,TRUE
96,1661818713.215,2203.201003622884,-119.64649824396469,1000,6.282,-0.457,-0.033,122.7,green,270,TRUE
97,1661818713.525,2103.2144057681053,5993.565985398319,1000,4.604,-1.338,0.017,102.4,red,270,TRUE
98,1661818713.614,2927.9769095573643,-1267.106647254993,1000,2.777,0.434,-0.044,117.7,yellow,270,TRUE
99,1661818713.715,2208.4074294718134,-123.69455808917463,1000,6.282,-0.457,-0.033,109.9,green,270,TRUE
100,1661818714.08,2106.220217803882,6009.477892483194,1000,4.596,-1.334,0.027,104.7,red,270,TRUE
101,1661818714.174,2892.3961489089634,-1269.9353485336835,1000,2.777,0.434,-0.044,102.2,yellow,270,TRUE
102,1661818714.263,2221.4559128351634,-125.45233578248103,1000,6.282,-0.457,-0.033,103.9,green,270,TRUE
103,1661818715.573,2876.039905750206,-1266.5360440636487,1000,2.777,0.434,-0.044,118.1,yellow,270,TRUE
104,1661818715.695,4818.0296054075025,2097.0331989201386,1000,0.225,-1.433,2.688,1119.0,green,270,TRUE
105,1661818717.918,2895.844027626205,-1274.2870481799084,1000,2.777,0.434,-0.044,115.9,yellow,270,TRUE
106,1661818718.012,4959.632686273806,1682.2705491749975,1000,6.282,-0.457,-0.033,98.1,green,270,TRUE
107,1661818719.319,2917.913714574615,-1259.1066970967088,1000,2.777,0.434,-0.044,108.7,yellow,270,TRUE
108,1661818719.414,4064.9719156758797,771.3142194399328,1000,6.282,-0.457,-0.033,98.5,green,270,TRUE
109,1661818720.718,2895.665661441666,-1231.6644200178464,1000,2.777,0.434,-0.044,120.7,yellow,270,TRUE
110,1661818720.818,3613.52364417837,314.292272964185,1000,6.282,-0.457,-0.033,96.6,green,270,TRUE
111,1661818722.122,2847.6856042648033,-1247.8936784005973,1000,2.777,0.434,-0.044,129.7,yellow,270,TRUE
112,1661818722.229,3354.6526658078938,42.777901677379035,1000,6.282,-0.457,-0.033,97.0,green,270,TRUE
113,1661818723.532,2889.4281201764793,-1220.0203035208144,1000,2.777,0.434,-0.044,119.6,yellow,270,TRUE
114,1661818723.632,3180.132096913707,-132.4780941236634,1000,6.282,-0.457,-0.033,95.4,green,270,TRUE
115,1661818724.937,2907.762495255621,-1241.3625733876518,1000,2.777,0.434,-0.044,104.8,yellow,270,TRUE
116,1661818725.033,2744.9984641212377,-661.7065021967742,1000,6.282,-0.457,-0.033,100.1,green,270,TRUE
117,1661818725.344,2013.2506432787202,5966.283387937045,1000,4.609,-1.329,0.05,106.1,red,270,TRUE
118,1661818725.437,2911.3365574018935,-1223.782594352586,1000,2.777,0.434,-0.044,103.6,yellow,270,TRUE
119,1661818725.527,2279.602012590373,-1043.0792847125197,1000,6.282,-0.457,-0.033,90.4,green,270,TRUE
120,1661818726.821,3012.9621025403744,-1141.0642362258486,1000,2.777,0.434,-0.044,122.5,yellow,270,TRUE
121,1661818726.921,2270.577026307805,-1048.1025224857324,1000,6.282,-0.457,-0.033,96.9,green,270,TRUE
122,1661818728.228,3035.4520980546445,-1131.8060698151369,1000,2.777,0.434,-0.044,104.2,yellow,270,TRUE
123,1661818728.322,2274.5411352625365,-1047.2767814890346,1000,6.282,-0.457,-0.033,99.9,green,270,TRUE
124,1661818728.578,2047.2088660260977,5972.099745809007,1000,4.578,-1.341,0.021,100.3,red,270,TRUE
125,1661818728.665,3012.512392062983,-1161.5035901399458,1000,2.777,0.434,-0.044,118.3,yellow,270,TRUE
126,1661818728.767,2261.939495743382,-1055.3925869791613,1000,6.282,-0.457,-0.033,108.4,green,270,TRUE
127,1661818730.107,3069.7771035805804,-1152.6472435477701,1000,2.777,0.434,-0.044,116.1,yellow,270,TRUE
128,1661818730.207,2728.5726461147437,-674.2968518204079,1000,6.282,-0.457,-0.033,91.4,green,270,TRUE
129,1661818731.518,3069.6247147451195,-1128.059638249232,1000,2.777,0.434,-0.044,106.5,yellow,270,TRUE
130,1661818731.616,3213.5699536952234,-276.8127384574942,1000,6.282,-0.457,-0.033,98.3,green,270,TRUE
131,1661818732.92,3069.967481113168,-1129.371872539974,1000,2.777,0.434,-0.044,120.7,yellow,270,TRUE
132,1661818733.018,3691.0625520971535,107.94396326141623,1000,6.282,-0.457,-0.033,97.9,green,270,TRUE
133,1661818734.322,3101.14520899056,-1108.25069560089,1000,2.777,0.434,-0.044,120.5,yellow,270,TRUE
134,1661818734.422,3698.940739990792,116.63382706755014,1000,6.282,-0.457,-0.033,94.5,green,270,TRUE
135,1661818735.723,3079.0848968629975,-1126.5391188896722,1000,2.777,0.434,-0.044,119.0,yellow,270,TRUE
136,1661818735.82,4174.786215082512,508.5364375231731,1000,6.282,-0.457,-0.033,102.3,green,270,TRUE
137,1661818737.117,3130.44515562993,-1071.2813647959927,1000,2.777,0.434,-0.044,126.8,yellow,270,TRUE
138,1661818737.222,4659.46285408736,905.6548727163326,1000,6.282,-0.457,-0.033,96.7,green,270,TRUE
139,1661818738.542,3078.1849984699024,-1103.1024550013565,1000,2.777,0.434,-0.044,119.9,yellow,270,TRUE
140,1661818738.642,4187.377114432139,508.6045693836821,1000,6.282,-0.457,-0.033,95.0,green,270,TRUE
141,1661818739.958,3042.9744027113197,-1134.9377516622255,1000,2.777,0.434,-0.044,118.3,yellow,270,TRUE
142,1661818740.081,2281.1682760107096,-1053.6410376596318,1000,6.282,-0.457,-0.033,1094.7,green,270,TRUE
143,1661818741.296,2076.1116098378066,5998.78211186621,1000,4.674,-1.349,0.04,106.4,red,270,TRUE
144,1661818741.39,3055.7174314202152,-1123.67874643438,1000,2.777,0.434,-0.044,102.0,yellow,270,TRUE
145,1661818741.478,2249.9776904941655,-1075.9336316362082,1000,6.282,-0.457,-0.033,89.3,green,270,TRUE
146,1661818742.775,3031.3384065663627,-1122.4995367629144,1000,2.777,0.434,-0.044,119.6,yellow,270,TRUE
147,1661818742.876,2266.427570537351,-1070.2139727582642,1000,6.282,-0.457,-0.033,93.2,green,270,TRUE
148,1661818743.193,2141.6244908270837,6086.512174321189,1000,6.171,-1.335,0.124,108.6,red,270,TRUE
149,1661818743.288,3019.7897304772832,-1116.138956927914,1000,2.777,0.434,-0.044,119.4,yellow,270,TRUE
150,1661818743.391,2254.145908948519,-1064.0196922297846,1000,6.282,-0.457,-0.033,91.3,green,270,TRUE
151,1661818744.691,3033.1875843072376,-1120.0742560416018,1000,2.777,0.434,-0.044,119.4,yellow,270,TRUE
152,1661818744.79,2260.2950857406804,-1062.3226840887392,1000,6.282,-0.457,-0.033,95.6,green,270,TRUE
153,1661818746.08,3003.4146805170226,-1134.029501958012,1000,2.777,0.434,-0.044,118.7,yellow,270,TRUE
154,1661818746.18,2260.5598618039444,-1060.467078892119,1000,6.282,-0.457,-0.033,94.5,green,270,TRUE
155,1661818747.483,2971.704456359022,-1154.5852338797495,1000,2.777,0.434,-0.044,119.3,yellow,270,TRUE
156,1661818747.581,2257.304893569326,-1062.1858834906552,1000,6.282,-0.457,-0.033,94.8,green,270,TRUE
157,1661818748.888,2972.757137394614,-1182.793359799206,1000,2.777,0.434,-0.044,105.0,yellow,270,TRUE
158,1661818748.984,2259.5435857340485,-1054.145461359324,1000,6.282,-0.457,-0.033,100.1,green,270,TRUE
159,1661818750.296,2910.237872164302,-1219.003963635536,1000,2.777,0.434,-0.044,117.4,yellow,270,TRUE
160,1661818750.396,2731.92778650186,-664.6649918939373,1000,6.282,-0.457,-0.033,92.4,green,270,TRUE
161,1661818751.698,2903.2071441340668,-1222.9636428192016,1000,2.777,0.434,-0.044,121.3,yellow,270,TRUE
162,1661818751.799,3217.826737991792,-282.89432847996835,1000,6.282,-0.457,-0.033,95.8,green,270,TRUE
163,1661818753.108,2873.4879040968954,-1259.4513083268905,1000,2.777,0.434,-0.044,118.7,yellow,270,TRUE
164,1661818753.206,3694.7286759986305,118.33662435576639,1000,6.282,-0.457,-0.033,96.7,green,270,TRUE
165,1661818754.511,2894.594383115024,-1242.88270254421,1000,2.777,0.434,-0.044,120.7,yellow,270,TRUE
166,1661818754.613,3685.179793808265,109.25460488869442,1000,6.282,-0.457,-0.033,94.7,green,270,TRUE
167,1661818755.914,2935.1892147250924,-1236.092136167694,1000,2.777,0.434,-0.044,110.1,yellow,270,TRUE
168,1661818756.01,4166.253811815288,501.4552575359633,1000,6.282,-0.457,-0.033,100.0,green,270,TRUE
169,1661818757.321,2904.257261712868,-1254.499280233549,1000,2.777,0.434,-0.044,115.2,yellow,270,TRUE
170,1661818757.414,4171.094033282335,501.7202828607915,1000,6.282,-0.457,-0.033,98.0,green,270,TRUE
171,1661818757.708,2699.2551389488485,5616.7835395799075,1000,1.177,-1.345,0.104,122.2,red,270,TRUE
172,1661818757.812,2985.401075918722,-1235.7123550911463,1000,2.777,0.434,-0.044,109.1,yellow,270,TRUE
173,1661818757.908,3690.2991159304715,114.069789799117,1000,6.282,-0.457,-0.033,102.4,green,270,TRUE
174,1661818760.16,3336.158295417812,5053.318907894341,1000,1.331,-1.46,0.048,1124.0,red,270,TRUE
175,1661818761.275,3692.6398069521038,123.60930494194906,1000,6.282,-0.457,-0.033,99.0,green,270,TRUE
176,1661818762.581,3001.719907149629,-1254.0225117460952,1000,2.777,0.434,-0.044,119.5,yellow,270,TRUE
177,1661818762.679,3688.9306893203625,114.34637462971288,1000,6.282,-0.457,-0.033,97.0,green,270,TRUE
178,1661818763.996,2975.7595690769863,-1225.5528758678845,1000,2.777,0.434,-0.044,104.9,yellow,270,TRUE
179,1661818764.093,4174.846132193983,515.3654719881745,1000,6.282,-0.457,-0.033,98.3,green,270,TRUE
180,1661818765.398,2942.1482531949673,-1238.9693721401186,1000,2.777,0.434,-0.044,118.6,yellow,270,TRUE
181,1661818765.494,4172.344124588775,525.9843827428851,1000,6.282,-0.457,-0.033,99.3,green,270,TRUE
182,1661818766.777,2951.9326746041356,-1205.8002164179877,1000,2.777,0.434,-0.044,103.8,yellow,270,TRUE
183,1661818766.873,4180.501649947005,521.7449095763891,1000,6.282,-0.457,-0.033,98.7,green,270,TRUE
184,1661818767.15,3945.0364851069407,4588.486192973884,1000,1.404,-1.451,0.058,105.7,red,270,TRUE
185,1661818767.242,2947.0984750229923,-1214.9459124455022,1000,2.777,0.434,-0.044,103.7,yellow,270,TRUE
186,1661818767.332,4663.311870084009,913.9038124688868,1000,6.282,-0.457,-0.033,88.7,green,270,TRUE
187,1661818767.59,4508.530303481211,4093.127824086658,1000,1.4,-1.446,0.504,99.3,red,270,TRUE
188,1661818767.677,2901.4329995561657,-1228.6610560434372,1000,2.777,0.434,-0.044,117.7,yellow,270,TRUE
189,1661818767.778,4184.348338753692,518.9445554794869,1000,6.282,-0.457,-0.033,105.7,green,270,TRUE
190,1661818768.112,5021.596588210702,3572.5782376911325,1000,1.378,-1.448,0.55,102.6,red,270,TRUE
191,1661818768.201,2854.9824033226364,-1257.4284618946474,1000,2.777,0.434,-0.044,104.1,yellow,270,TRUE
192,1661818768.291,3707.8389318480004,129.7032760510541,1000,6.282,-0.457,-0.033,103.9,green,270,TRUE
193,1661818768.55,5513.128536551452,2991.869261354182,1000,1.381,-1.437,0.571,104.0,red,270,TRUE
194,1661818768.642,2809.678908347089,-1378.8113506763686,1000,2.777,0.434,-0.044,101.2,yellow,270,TRUE
195,1661818768.729,3226.851836507945,-265.8528412491947,1000,6.282,-0.457,-0.033,105.4,green,270,TRUE
196,1661818769.019,5615.513297144828,2980.940354883864,1000,1.398,-1.436,0.577,104.8,red,270,TRUE
197,1661818769.113,2831.962367798185,-1372.727344830715,1000,2.777,0.434,-0.044,98.3,yellow,270,TRUE
198,1661818769.199,2756.1093975077843,-666.3778432241547,1000,6.282,-0.457,-0.033,103.0,green,270,TRUE
199,1661818769.53,5626.24414988126,3052.2470572205093,1000,1.395,-1.434,0.572,104.4,red,270,TRUE
200,1661818769.623,2824.5504619579992,-1394.5933065475256,1000,2.777,0.434,-0.044,102.6,yellow,270,TRUE
201,1661818769.711,3224.2704139868806,-267.73587646032894,1000,6.282,-0.457,-0.033,104.5,green,270,TRUE
202,1661818770.001,5622.126509701838,3059.9838781698113,1000,1.394,-1.44,0.571,104.1,red,270,TRUE
203,1661818770.093,2819.0378160790183,-1392.7697312430057,1000,2.777,0.434,-0.044,100.9,yellow,270,TRUE
204,1661818770.18,2744.9364515485317,-663.4599952771373,1000,6.282,-0.457,-0.033,103.5,green,270,TRUE
205,1661818770.46,5551.099181070585,3053.7473489513472,1000,1.385,-1.442,0.573,108.2,red,270,TRUE
206,1661818770.555,2808.096934443782,-1394.0897254069012,1000,2.777,0.434,-0.044,102.9,yellow,270,TRUE
207,1661818770.644,3215.454963443785,-272.15675248674546,1000,6.282,-0.457,-0.033,90.4,green,270,TRUE
208,1661818770.975,5533.786863098201,3054.645908060084,1000,1.398,-1.437,0.598,103.7,red,270,TRUE
209,1661818771.065,2857.347337147398,-1384.7824162027293,1000,2.777,0.434,-0.044,103.7,yellow,270,TRUE
210,1661818771.157,3212.490826184832,-278.57191837129795,1000,6.282,-0.457,-0.033,101.7,green,270,TRUE
211,1661818771.428,5503.244304586954,3053.0388953909455,1000,1.396,-1.438,0.596,100.5,red,270,TRUE
212,1661818771.514,2922.7827545104847,-1296.1395565531789,1000,2.777,0.434,-0.044,103.0,yellow,270,TRUE
213,1661818771.604,3216.1829697729486,-274.46427903968026,1000,6.282,-0.457,-0.033,87.4,green,270,TRUE
214,1661818771.884,5606.917363911369,3062.9793438937872,1000,1.408,-1.439,0.599,106.1,red,270,TRUE
215,1661818771.978,2865.793898687228,-1316.7238752851636,1000,2.777,0.434,-0.044,104.4,yellow,270,TRUE
216,1661818772.068,3202.6658451868584,-279.1593103539252,1000,6.282,-0.457,-0.033,87.9,green,270,TRUE
217,1661818772.383,5496.284682943136,3054.272659990155,1000,1.414,-1.444,0.632,105.5,red,270,TRUE
218,1661818772.477,2865.534121050175,-1267.7013278039806,1000,2.777,0.434,-0.044,101.3,yellow,270,TRUE
219,1661818772.565,2728.516091905047,-676.664121151178,1000,6.282,-0.457,-0.033,90.0,green,270,TRUE
220,1661818772.85,5605.0922046830165,3062.402210454573,1000,1.422,-1.445,0.656,121.6,red,270,TRUE
221,1661818772.954,2892.8112325288052,-1257.5779211673614,1000,2.777,0.434,-0.044,106.9,yellow,270,TRUE
222,1661818773.048,2713.095006825913,-673.1473991852135,1000,6.282,-0.457,-0.033,89.7,green,270,TRUE
223,1661818773.303,5753.4404076224355,3059.4601591233973,1000,1.433,-1.445,0.675,106.8,red,270,TRUE
224,1661818773.395,2891.0218429787906,-1262.8760882726394,1000,2.777,0.434,-0.044,105.0,yellow,270,TRUE
225,1661818773.487,2234.385831611933,-1069.119438055631,1000,6.282,-0.457,-0.033,88.6,green,270,TRUE
226,1661818773.816,5753.168849199862,3064.623795759169,1000,1.43,-1.446,0.647,122.5,red,270,TRUE
227,1661818773.921,2823.5937879064713,-1271.1755487911464,1000,2.777,0.434,-0.044,106.2,yellow,270,TRUE
228,1661818774.014,2238.821848152999,-1073.604314105679,1000,6.282,-0.457,-0.033,88.2,green,270,TRUE
229,1661818774.283,5781.8423012324865,3078.7058817650664,1000,1.436,-1.434,0.519,106.0,red,270,TRUE
230,1661818774.376,2831.6574935736426,-1223.9017031498013,1000,2.777,0.434,-0.044,104.9,yellow,270,TRUE
231,1661818774.467,2232.9177301176483,-1073.6700699341086,1000,6.282,-0.457,-0.033,89.4,green,270,TRUE
232,1661818774.738,5554.597616910917,3054.692147705613,1000,1.402,-1.439,0.454,136.4,red,270,TRUE
233,1661818774.843,2904.02102417527,-1202.284778184022,1000,2.777,0.434,-0.044,121.3,yellow,270,TRUE
234,1661818774.949,2236.3805822463924,-1073.9160053685002,1000,6.282,-0.457,-0.033,91.0,green,270,TRUE
235,1661818775.268,5593.4885002948295,3059.208085742553,1000,1.416,-1.438,0.479,104.0,red,270,TRUE
236,1661818775.359,2920.5759173610354,-1218.5045497126307,1000,2.777,0.434,-0.044,103.2,yellow,270,TRUE
237,1661818775.448,2711.04682762273,-668.5603524514792,1000,6.282,-0.457,-0.033,88.9,green,270,TRUE
238,1661818775.694,5539.614154048525,3049.7427068432303,1000,1.425,-1.438,0.49,114.5,red,270,TRUE
239,1661818775.791,2929.4952224658487,-1209.9264739255166,1000,2.777,0.434,-0.044,120.7,yellow,270,TRUE
240,1661818775.896,3201.100373037589,-281.83113860076674,1000,6.282,-0.457,-0.033,91.0,green,270,TRUE
241,1661818776.143,5397.21452979223,3070.4305410427746,1000,1.431,-1.437,0.493,114.9,red,270,TRUE
242,1661818776.241,2889.938481423929,-1222.1346988552557,1000,2.777,0.434,-0.044,107.1,yellow,270,TRUE
243,1661818776.332,3200.0240184753425,-272.95488677320657,1000,6.282,-0.457,-0.033,93.0,green,270,TRUE
244,1661818776.653,5409.649873885813,3081.0370798261706,1000,1.441,-1.425,0.41,101.5,red,270,TRUE
245,1661818776.741,2975.3502891996845,-1164.5071713433,1000,2.777,0.434,-0.044,119.1,yellow,270,TRUE
246,1661818776.844,3190.2432759602957,-270.6745420646269,1000,6.282,-0.457,-0.033,106.1,green,270,TRUE
247,1661818777.123,5400.59826180972,3088.0940985321176,1000,1.425,-1.406,0.368,101.0,red,270,TRUE
248,1661818777.21,2979.413804321179,-1177.4125954489361,1000,2.777,0.434,-0.044,118.8,yellow,270,TRUE
249,1661818777.313,3192.4421684538534,-275.277112063562,1000,6.282,-0.457,-0.033,92.3,green,270,TRUE
250,1661818777.6,2802.398279241037,-1088.9578990695295,1000,2.777,0.434,-0.044,119.8,yellow,270,TRUE
251,1661818777.703,3194.463026891676,-281.23287819003986,1000,6.282,-0.457,-0.033,107.5,green,270,TRUE
252,1661818778.055,5197.504440383658,3101.53316272417,1000,1.509,-1.429,0.413,105.9,red,270,TRUE
253,1661818778.149,2743.010148689977,-1136.464458974662,1000,2.777,0.434,-0.044,103.3,yellow,270,TRUE
254,1661818778.239,2723.516271498547,-681.9391470668556,1000,6.282,-0.457,-0.033,103.2,green,270,TRUE
255,1661818778.513,5225.887200896928,3036.8231533743633,1000,1.516,-1.5,0.031,100.9,red,270,TRUE
256,1661818778.603,2763.670919525119,-1139.7426221985286,1000,2.777,0.434,-0.044,103.0,yellow,270,TRUE
257,1661818778.692,2240.996011122212,-1070.401679325536,1000,6.282,-0.457,-0.033,104.6,green,270,TRUE
258,1661818778.981,5296.300969442774,3029.3543357599556,1000,1.551,-1.438,0.457,102.4,red,270,TRUE
259,1661818779.073,2751.2866357614744,-1141.8907276121724,1000,2.777,0.434,-0.044,100.6,yellow,270,TRUE
260,1661818779.16,2250.941970186487,-1082.2474479863502,1000,6.282,-0.457,-0.033,102.4,green,270,TRUE
261,1661818779.505,5300.208337362426,3060.756112512616,1000,1.469,-1.46,0.045,104.3,red,270,TRUE
262,1661818779.598,2676.2637961845085,-1191.766066649671,1000,2.777,0.434,-0.044,103.6,yellow,270,TRUE
263,1661818779.689,2268.2296751564463,-1077.4844757827,1000,6.282,-0.457,-0.033,101.8,green,270,TRUE
264,1661818779.975,5345.888821676296,3076.721435477614,1000,1.491,-1.45,0.519,102.4,red,270,TRUE
265,1661818780.063,2689.3371969109157,-1215.6131238509936,1000,2.777,0.434,-0.044,101.4,yellow,270,TRUE
266,1661818780.152,2295.995581141943,-1123.7172048546074,1000,6.282,-0.457,-0.033,102.8,green,270,TRUE
267,1661818780.444,5362.896576694098,3073.962425591158,1000,1.546,-1.443,0.562,110.9,red,270,TRUE
268,1661818780.544,2842.0110155931325,-1312.0505942263105,1000,2.777,0.434,-0.044,102.1,yellow,270,TRUE
269,1661818780.631,2311.5292855124594,-1130.878188849107,1000,6.282,-0.457,-0.033,89.1,green,270,TRUE
270,1661818780.969,5388.643073682133,3074.769424214563,1000,1.641,-1.404,0.456,111.9,red,270,TRUE
271,1661818781.068,2844.0288133954514,-1315.8855396862918,1000,2.777,0.434,-0.044,103.9,yellow,270,TRUE
272,1661818781.16,2314.389321871497,-1130.5551114552934,1000,6.282,-0.457,-0.033,101.3,green,270,TRUE
273,1661818781.43,5469.511290119088,3041.479631761967,1000,1.417,-1.451,0.397,102.9,red,270,TRUE
274,1661818781.521,2840.077600049299,-1310.4829754152945,1000,2.777,0.434,-0.044,100.9,yellow,270,TRUE
275,1661818781.609,2793.4818568236174,-738.8608867351683,1000,6.282,-0.457,-0.033,88.3,green,270,TRUE
276,1661818781.893,5458.916761056477,3008.682917801299,1000,1.335,-1.401,0.219,107.0,red,270,TRUE
277,1661818781.986,2885.491390823519,-1270.330237153709,1000,2.777,0.434,-0.044,105.4,yellow,270,TRUE
278,1661818782.078,3263.551040939958,-343.9142548978116,1000,6.282,-0.457,-0.033,87.1,green,270,TRUE
279,1661818782.405,5435.195001361039,2939.2872046065518,1000,1.356,-1.282,-0.043,106.3,red,270,TRUE
280,1661818782.498,2892.8122890980903,-1261.1313703803385,1000,2.777,0.434,-0.044,104.7,yellow,270,TRUE
281,1661818782.589,3733.5386056992043,53.025890169379146,1000,6.282,-0.457,-0.033,87.7,green,270,TRUE
282,1661818782.872,5441.831196187858,2858.333529289668,1000,1.382,-1.334,-0.271,108.9,red,270,TRUE
283,1661818782.971,2838.0731784501345,-1281.016368311736,1000,2.777,0.434,-0.044,99.2,yellow,270,TRUE
284,1661818783.057,4187.734558192955,491.2386624869352,1000,6.282,-0.457,-0.033,88.0,green,270,TRUE
285,1661818783.325,5420.479327038339,2777.425403538787,1000,1.32,-1.345,-0.58,120.1,red,270,TRUE
286,1661818783.429,2866.444552570652,-1273.3469384696814,1000,2.777,0.434,-0.044,92.2,yellow,270,TRUE
287,1661818783.507,4642.23113180396,896.9408992835579,1000,6.282,-0.457,-0.033,88.8,green,270,TRUE
288,1661818783.82,5469.285268048909,2697.5121532590033,1000,1.274,-1.342,-0.581,121.8,red,270,TRUE
289,1661818783.925,2882.323938094963,-1251.3117973441201,1000,2.777,0.434,-0.044,106.7,yellow,270,TRUE
290,1661818784.019,4635.576474288694,890.6313034113888,1000,6.282,-0.457,-0.033,88.1,green,270,TRUE
291,1661818785.318,2861.133337793148,-1261.8825466584597,1000,2.777,0.434,-0.044,105.8,yellow,270,TRUE
292,1661818785.414,4168.758875227249,500.4722940600688,1000,6.282,-0.457,-0.033,99.9,green,270,TRUE
293,1661818785.688,5461.981625974346,2699.0986812303995,1000,1.061,-1.316,-0.12,116.0,red,270,TRUE
294,1661818785.787,2797.622259775184,-1313.2767005627531,1000,2.777,0.434,-0.044,120.7,yellow,270,TRUE
295,1661818785.891,4171.782889017822,507.1099197778255,1000,6.282,-0.457,-0.033,92.4,green,270,TRUE
296,1661818787.193,2809.8601529029943,-1286.1077435776342,1000,2.777,0.434,-0.044,105.8,yellow,270,TRUE
297,1661818787.29,3691.4777558697133,110.30158164181724,1000,6.282,-0.457,-0.033,99.2,green,270,TRUE
298,1661818788.602,2793.941915465432,-1318.5618665956874,1000,2.777,0.434,-0.044,118.4,yellow,270,TRUE
299,1661818788.698,3209.2708086956977,-277.967415957151,1000,6.282,-0.457,-0.033,96.9,green,270,TRUE
300,1661818790.041,2772.3407724856374,-1330.7136439192802,1000,2.777,0.434,-0.044,112.3,yellow,270,TRUE
301,1661818790.144,2735.1943634554514,-661.2786716003316,1000,6.282,-0.457,-0.033,98.3,green,270,TRUE
302,1661818791.453,2799.8260321727957,-1307.8052903621556,1000,2.777,0.434,-0.044,105.0,yellow,270,TRUE
303,1661818791.549,3204.3930836792315,-272.5819879592622,1000,6.282,-0.457,-0.033,97.8,green,270,TRUE
304,1661818792.848,2834.5006178273093,-1261.1324412032088,1000,2.777,0.434,-0.044,106.5,yellow,270,TRUE
305,1661818792.946,3211.8222462878207,-270.3928149030092,1000,6.282,-0.457,-0.033,98.4,green,270,TRUE
306,1661818794.242,2901.750054625943,-1203.1487994195486,1000,2.777,0.434,-0.044,103.8,yellow,270,TRUE
307,1661818794.338,2731.924512963897,-666.7858138654848,1000,6.282,-0.457,-0.033,97.7,green,270,TRUE
308,1661818795.64,2916.2539624875776,-1206.7778575680761,1000,2.777,0.434,-0.044,114.7,yellow,270,TRUE
309,1661818795.757,5073.741492121481,1269.2695773789517,1000,6.282,-0.457,-0.033,1098.1,green,270,TRUE
310,1661818797.958,2954.142441008096,-1150.6364987312866,1000,2.777,0.434,-0.044,100.8,yellow,270,TRUE
311,1661818798.051,5074.705363601071,1243.0033109578708,1000,6.282,-0.457,-0.033,99.7,green,270,TRUE
312,1661818799.356,2904.4012474264396,-1168.096782875073,1000,2.777,0.434,-0.044,120.2,yellow,270,TRUE
313,1661818799.459,4127.133326715352,476.2542127900888,1000,6.282,-0.457,-0.033,92.7,green,270,TRUE
314,1661818799.746,5445.6702148609775,2707.248533291149,1000,1.276,-1.314,-0.123,120.4,red,270,TRUE
315,1661818799.85,2912.1367494106057,-1194.632148180784,1000,2.777,0.434,-0.044,121.2,yellow,270,TRUE
316,1661818799.955,4364.450832110412,688.8519677751127,1000,6.282,-0.457,-0.033,90.3,green,270,TRUE
317,1661818801.247,2868.5348633614035,-1240.7876811984636,1000,2.777,0.434,-0.044,106.5,yellow,270,TRUE
318,1661818801.344,4511.915311313985,805.0909523189473,1000,6.282,-0.457,-0.033,99.2,green,270,TRUE
319,1661818802.651,2903.12883281416,-1261.2430928611498,1000,2.777,0.434,-0.044,102.9,yellow,270,TRUE
320,1661818802.745,4610.205741801176,890.6538826583611,1000,6.282,-0.457,-0.033,99.0,green,270,TRUE
321,1661818803.029,5311.169490552783,2839.4664526934125,1000,4.818,-1.494,0.001,103.9,red,270,TRUE
322,1661818803.121,2926.5159417042723,-1273.7358382978612,1000,2.777,0.434,-0.044,101.3,yellow,270,TRUE
323,1661818803.21,4621.775465599117,904.2880304317235,1000,6.282,-0.457,-0.033,104.2,green,270,TRUE
324,1661818804.518,2969.555661868903,-1273.9494234580568,1000,2.777,0.434,-0.044,103.8,yellow,270,TRUE
325,1661818804.613,4625.761629863352,915.4254771986929,1000,6.282,-0.457,-0.033,98.7,green,270,TRUE
326,1661818804.89,5430.238459657862,3015.68203768148,1000,0.896,-1.466,-3.124,120.7,red,270,TRUE
327,1661818804.99,3040.501583424626,-1226.9259582449415,1000,2.777,0.434,-0.044,110.7,yellow,270,TRUE
328,1661818805.087,5112.997799986798,1315.2610155349123,1000,6.282,-0.457,-0.032,88.8,green,270,TRUE
329,1661818806.373,3013.6484358509333,-1240.3062621411177,1000,2.777,0.434,-0.044,104.7,yellow,270,TRUE
330,1661818806.47,5115.725034831772,1308.500947702656,1000,6.282,-0.458,-0.032,98.7,green,270,TRUE
331,1661818806.74,5498.9332517205,3146.704450862027,1000,1.534,-1.289,-0.057,127.7,red,270,TRUE
332,1661818806.851,3021.7822094445037,-1208.735276453408,1000,2.777,0.434,-0.044,121.7,yellow,270,TRUE
333,1661818806.956,5114.370327409262,1309.9700176774907,1000,6.282,-0.458,-0.032,90.7,green,270,TRUE
334,1661818808.231,2960.9371978986687,-1235.9194283096333,1000,2.777,0.434,-0.044,103.9,yellow,270,TRUE
335,1661818808.326,5119.715048982294,1299.4663799055738,1000,6.282,-0.458,-0.032,99.1,green,270,TRUE
336,1661818808.6,5383.622631998985,3266.5612262924387,1000,2.747,-1.416,0.755,112.7,red,270,TRUE
337,1661818808.699,2943.1363494992097,-1226.562170580783,1000,2.777,0.434,-0.044,118.1,yellow,270,TRUE
338,1661818808.8,3639.598165682822,1062.1266088858072,1000,6.282,-0.457,-0.031,106.9,green,270,TRUE
339,1661818809.091,5158.988598889955,3335.066742229179,1000,3.242,-1.32,-0.069,100.0,red,270,TRUE
340,1661818809.178,2909.5140667178566,-1232.2943607967447,1000,2.777,0.434,-0.044,118.5,yellow,270,TRUE
341,1661818809.28,3166.184011700248,672.8468981452993,1000,6.282,-0.457,-0.031,106.8,green,270,TRUE
342,1661818810.608,2897.3087380280613,-1255.3451392188456,1000,2.777,0.434,-0.044,122.1,yellow,270,TRUE
343,1661818810.71,2679.920428241419,262.7204066356065,1000,6.282,-0.457,-0.031,96.4,green,270,TRUE
344,1661818810.997,4925.330936916945,3346.894711627039,1000,0.874,-1.434,0.172,110.6,red,270,TRUE
345,1661818811.096,2940.78696343095,-1221.3861457104988,1000,2.777,0.434,-0.044,103.2,yellow,270,TRUE
346,1661818811.188,2683.0636411485393,259.62774219625356,1000,6.282,-0.457,-0.031,102.4,green,270,TRUE
347,1661818811.496,4900.909858435871,3272.4199630464027,1000,0.371,-1.379,-0.235,111.3,red,270,TRUE
348,1661818811.593,2935.4007264891693,-1215.7978938530941,1000,2.777,0.434,-0.044,103.2,yellow,270,TRUE
349,1661818811.685,2684.696608433992,261.74289589812537,1000,6.282,-0.457,-0.031,100.8,green,270,TRUE
350,1661818812.919,4549.773465804975,3128.3120140994392,1000,0.797,-1.397,0.082,104.7,red,270,TRUE
351,1661818813.016,3018.456981803149,-1158.626527788446,1000,2.777,0.434,-0.044,113.3,yellow,270,TRUE
352,1661818813.117,1216.4247086416424,27.009677789157777,1000,6.282,-0.457,-0.031,86.3,green,270,TRUE
353,1661818814.408,3027.259479820997,-1143.6545251986875,1000,2.777,0.434,-0.044,120.8,yellow,270,TRUE
354,1661818814.532,-3767.9037192686155,-69.74534668831159,1000,6.282,-0.457,-0.031,1069.4,green,270,TRUE
355,1661818815.745,4265.08298416919,3061.1329527042813,1000,0.864,-1.359,0.311,111.3,red,270,TRUE
356,1661818815.847,3030.449804225522,-1122.5642552526217,1000,2.777,0.434,-0.044,129.3,yellow,270,TRUE
357,1661818815.96,-752.1539024875076,-548.7816408585189,1000,6.282,-0.457,-0.031,90.8,green,270,TRUE
358,1661818816.205,4153.531686894529,3006.387221645775,1000,0.876,-1.359,0.317,114.7,red,270,TRUE
359,1661818816.304,3022.282680472073,-1098.6767987615776,1000,2.777,0.434,-0.044,120.7,yellow,270,TRUE
360,1661818816.409,1191.4818098976332,44.96682397401256,1000,6.282,-0.457,-0.031,106.7,green,270,TRUE
361,1661818816.641,4106.179475786742,2972.6153840165375,1000,0.877,-1.36,0.319,99.4,red,270,TRUE
362,1661818816.728,2979.703574436067,-1098.3368722137618,1000,2.777,0.434,-0.044,119.2,yellow,270,TRUE
363,1661818816.83,1463.9610035485919,-224.93152360674208,1000,6.282,-0.457,-0.031,106.9,green,270,TRUE
364,1661818817.164,4127.523665918904,2933.657610227973,1000,0.886,-1.36,0.322,103.8,red,270,TRUE
365,1661818817.254,2967.7521374356634,-1100.5036646151584,1000,2.777,0.434,-0.044,118.6,yellow,270,TRUE
366,1661818817.356,1627.3141242856207,-389.93152039415116,1000,6.282,-0.457,-0.031,106.7,green,270,TRUE
367,1661818817.62,4133.950168365828,2928.424948746438,1000,0.894,-1.362,0.324,113.8,red,270,TRUE
368,1661818817.722,2973.208004525244,-1102.9887514745185,1000,2.777,0.434,-0.044,101.7,yellow,270,TRUE
369,1661818817.811,2211.150485019116,-107.36887651071015,1000,6.282,-0.457,-0.031,102.7,green,270,TRUE
370,1661818819.117,2991.255393381467,-1105.6423793324245,1000,2.777,0.434,-0.044,101.7,yellow,270,TRUE
371,1661818819.21,2209.699969417059,-112.51748744222914,1000,6.282,-0.457,-0.031,82.8,green,270,TRUE
372,1661818819.502,4111.23921436423,2950.458563239254,1000,0.877,-1.364,0.268,105.7,red,270,TRUE
373,1661818819.595,2992.744930730758,-1102.2093546081278,1000,2.777,0.434,-0.044,103.7,yellow,270,TRUE
374,1661818819.686,2211.4003563420756,-117.77033518247394,1000,6.282,-0.457,-0.031,85.8,green,270,TRUE
375,1661818819.95,4118.009538074778,2958.227763601142,1000,0.885,-1.357,0.283,106.1,red,270,TRUE
376,1661818820.044,2964.176941842414,-1103.9695716290735,1000,2.777,0.434,-0.044,102.7,yellow,270,TRUE
377,1661818820.133,1745.2262013636619,-496.0665966697284,1000,6.282,-0.457,-0.031,88.4,green,270,TRUE
378,1661818820.475,4060.4094201997773,2958.314553780336,1000,0.893,-1.358,0.296,106.4,red,270,TRUE
379,1661818820.568,3024.36865945809,-1092.983291102323,1000,2.777,0.434,-0.044,103.6,yellow,270,TRUE
380,1661818820.657,1738.4791864686404,-498.97820196679896,1000,6.282,-0.457,-0.031,87.8,green,270,TRUE
381,1661818820.939,4034.000685260057,2958.7490803059645,1000,0.903,-1.358,0.298,105.7,red,270,TRUE
382,1661818821.031,3043.249411857727,-1094.0790586100543,1000,2.777,0.434,-0.044,104.1,yellow,270,TRUE
383,1661818821.122,1741.5252299737458,-502.7149255722614,1000,6.282,-0.457,-0.031,87.8,green,270,TRUE
384,1661818822.394,2984.113726297474,-1099.0163085255626,1000,2.777,0.434,-0.044,105.5,yellow,270,TRUE
385,1661818822.49,1740.523751370227,-507.70898170413255,1000,6.282,-0.457,-0.031,84.9,green,270,TRUE
386,1661818823.787,2947.0215260347472,-1095.7038343239458,1000,2.777,0.434,-0.044,100.1,yellow,270,TRUE
387,1661818823.879,2746.4733895776076,-667.2132106727795,1000,6.282,-0.457,-0.031,99.5,green,270,TRUE
388,1661818825.172,2928.76260055747,-1125.7059451644602,1000,2.777,0.434,-0.044,119.4,yellow,270,TRUE
389,1661818825.27,2744.6562855440548,-665.0533474569141,1000,6.282,-0.457,-0.031,97.4,green,270,TRUE
390,1661818825.546,4020.8745958891373,3008.70948305642,1000,0.914,-1.359,0.304,106.1,red,270,TRUE
391,1661818825.641,2977.4738216841215,-1112.3580091781444,1000,2.777,0.434,-0.044,100.9,yellow,270,TRUE
392,1661818825.73,2736.6545011328485,-675.6138906798618,1000,6.282,-0.457,-0.031,103.3,green,270,TRUE
393,1661818827.04,2950.296503860926,-1114.6234258317918,1000,2.777,0.434,-0.044,119.5,yellow,270,TRUE
394,1661818827.14,3005.6901065085876,-517.4822671007481,1000,6.282,-0.457,-0.031,95.2,green,270,TRUE
395,1661818828.447,2938.7158978474163,-1113.3962718818923,1000,2.777,0.434,-0.044,118.3,yellow,270,TRUE
396,1661818828.568,5516.036422750534,926.4487687831028,1000,0.023,-1.396,2.685,1130.3,green,270,TRUE
397,1661818829.83,3975.3335833161086,3001.511433664846,1000,0.892,-1.36,0.32,111.3,red,270,TRUE
398,1661818829.93,3003.5918429677713,-1112.1556755350869,1000,2.777,0.434,-0.044,99.2,yellow,270,TRUE
399,1661818830.017,4668.333338829824,416.0128026282635,1000,6.282,-0.457,-0.031,87.6,green,270,TRUE
400,1661818831.311,3015.7425740669664,-1115.3701741376074,1000,2.777,0.434,-0.044,120.2,yellow,270,TRUE
401,1661818831.412,3857.981115967747,-90.36046906470001,1000,6.282,-0.457,-0.031,94.4,green,270,TRUE
402,1661818832.719,3034.546852162228,-1088.7354048219277,1000,2.777,0.434,-0.044,101.8,yellow,270,TRUE
403,1661818832.812,3449.2151753950275,-338.4437533007505,1000,6.282,-0.457,-0.031,100.2,green,270,TRUE
404,1661818834.12,3051.1076749888944,-1088.257150900947,1000,2.777,0.434,-0.044,121.2,yellow,270,TRUE
405,1661818834.224,3207.1186803197343,-483.28828334442113,1000,6.282,-0.457,-0.031,92.4,green,270,TRUE
406,1661818834.541,3916.0721911890887,2927.9411211337065,1000,1.239,-1.391,0.383,107.8,red,270,TRUE
407,1661818834.639,3011.1536893814814,-1127.0165910292978,1000,2.777,0.434,-0.044,99.7,yellow,270,TRUE
408,1661818834.726,3526.869644569799,-181.73261508191646,1000,6.282,-0.457,-0.031,87.0,green,270,TRUE
409,1661818836.021,3022.4285656181905,-1158.8007201988219,1000,2.777,0.434,-0.044,123.5,yellow,270,TRUE
410,1661818836.123,3457.774072001288,-118.20559885946663,1000,6.282,-0.457,-0.031,95.5,green,270,TRUE
411,1661818837.423,3011.7045486219267,-1149.0340619175374,1000,2.777,0.434,-0.044,118.8,yellow,270,TRUE
412,1661818837.522,3675.714923119553,113.48479121675307,1000,6.282,-0.457,-0.031,95.7,green,270,TRUE
413,1661818837.789,4064.506155976913,2735.8481445762905,1000,5.297,-1.464,-0.056,100.1,red,270,TRUE
414,1661818837.877,2947.3796037541783,-1195.6517479142542,1000,2.777,0.434,-0.044,101.0,yellow,270,TRUE
415,1661818837.965,3682.936989337038,124.34924120697401,1000,6.282,-0.457,-0.031,88.1,green,270,TRUE
416,1661818838.258,4239.507963577464,2540.332982743836,1000,5.42,-1.497,-0.023,126.6,red,270,TRUE
417,1661818838.367,2929.0107296455844,-1191.7472623144915,1000,2.777,0.434,-0.044,123.4,yellow,270,TRUE
418,1661818838.473,3697.599070304946,124.94679613230365,1000,6.282,-0.457,-0.031,92.2,green,270,TRUE
419,1661818838.793,4416.682231055264,2325.765930916389,1000,5.579,-1.487,0.019,104.0,red,270,TRUE
420,1661818838.884,2868.3019864078487,-1233.7069123656854,1000,2.777,0.434,-0.044,102.6,yellow,270,TRUE
421,1661818838.975,4172.05400004171,520.1311787596915,1000,6.282,-0.457,-0.031,88.5,green,270,TRUE
422,1661818839.269,4601.389128278647,2140.7006575663936,1000,5.661,-1.443,0.418,111.0,red,270,TRUE
423,1661818839.367,2875.4517964037136,-1225.2114020327153,1000,2.777,0.434,-0.044,119.4,yellow,270,TRUE
424,1661818839.469,3692.7843291376503,118.78170967626458,1000,6.282,-0.457,-0.031,91.0,green,270,TRUE
425,1661818840.772,2842.8690960189615,-1206.5612080139254,1000,2.777,0.434,-0.044,108.1,yellow,270,TRUE
426,1661818840.867,3697.82898135626,115.06215532954438,1000,6.282,-0.457,-0.031,99.9,green,270,TRUE
427,1661818842.177,2791.4811829712253,-1219.7422165773887,1000,2.777,0.434,-0.044,120.5,yellow,270,TRUE
428,1661818842.275,3224.705377043157,-282.50198018036843,1000,6.282,-0.457,-0.031,110.7,green,270,TRUE
429,1661818847.984,4757.7133957510005,1967.709717914401,1000,6.096,-1.44,0.749,1149.8,red,270,TRUE
430,1661818849.112,3228.9229393662195,-293.883434967349,1000,6.282,-0.457,-0.031,112.4,green,270,TRUE
431,1661818849.48,4984.0487375258535,1828.153872996629,1000,6.068,-1.321,0.161,109.0,red,270,TRUE
432,1661818849.575,2881.4437218067483,-1191.8886812709718,1000,2.777,0.434,-0.044,104.7,yellow,270,TRUE
433,1661818849.665,3223.7972424920595,-292.2968464509326,1000,6.282,-0.457,-0.031,89.1,green,270,TRUE
434,1661818849.911,4999.958881756823,1805.5525714287312,1000,6.03,-1.34,0.131,100.7,red,270,TRUE
435,1661818850.0,2883.65129931994,-1227.385407390023,1000,2.777,0.434,-0.044,101.9,yellow,270,TRUE
436,1661818850.087,3230.241422015328,-297.7056082875877,1000,6.282,-0.457,-0.031,90.5,green,270,TRUE
437,1661818850.342,5020.459865763608,1807.3081724592437,1000,6.224,-1.365,0.887,121.5,red,270,TRUE
438,1661818850.446,2893.0400614007663,-1230.6280754456072,1000,2.777,0.434,-0.044,92.5,yellow,270,TRUE
439,1661818850.524,3705.378972010413,98.31842707774565,1000,6.282,-0.457,-0.031,90.7,green,270,TRUE
440,1661818850.853,5032.183350564613,1839.0144123509015,1000,0.046,-1.378,1.057,105.7,red,270,TRUE
441,1661818850.946,2900.107650552822,-1234.0005761163372,1000,2.777,0.434,-0.044,102.7,yellow,270,TRUE
442,1661818851.034,3702.4060008555825,103.29648322475903,1000,6.282,-0.457,-0.031,88.8,green,270,TRUE
443,1661818851.303,5029.165807189715,1846.2536596216448,1000,0.028,-1.379,0.707,122.3,red,270,TRUE
444,1661818851.409,2918.212418372293,-1263.2224247303989,1000,2.777,0.434,-0.044,122.0,yellow,270,TRUE
445,1661818851.514,3707.7565893374635,108.6403268086844,1000,6.282,-0.457,-0.031,91.4,green,270,TRUE
446,1661818851.781,5057.34185474324,1835.8508954324425,1000,0.07,-1.393,0.676,110.6,red,270,TRUE
447,1661818851.878,2919.014248261869,-1289.9140214251615,1000,2.777,0.434,-0.044,105.7,yellow,270,TRUE
448,1661818851.972,3700.4508711243166,111.14073147032832,1000,6.282,-0.457,-0.031,97.7,green,270,TRUE
449,1661818852.296,5062.175171562699,1874.6771142044663,1000,0.038,-1.412,0.673,119.5,red,270,TRUE
450,1661818852.399,2860.8078313321016,-1309.8169683569529,1000,2.777,0.434,-0.044,106.8,yellow,270,TRUE
451,1661818852.49,3696.088159076057,106.23347631493448,1000,6.282,-0.457,-0.031,91.3,green,270,TRUE
452,1661818852.754,5056.580069672136,1915.4145502861813,1000,0.021,-1.412,0.662,129.4,red,270,TRUE
453,1661818852.867,2847.921992656195,-1309.0728372287058,1000,2.777,0.434,-0.044,92.1,yellow,270,TRUE
454,1661818852.947,3212.577193949653,-284.2016987775242,1000,6.282,-0.457,-0.031,88.9,green,270,TRUE
455,1661818853.205,5046.798573683006,1928.8523260271957,1000,0.035,-1.403,0.635,100.0,red,270,TRUE
456,1661818853.291,2798.3751529326996,-1325.4456359695607,1000,2.777,0.434,-0.044,117.7,yellow,270,TRUE
457,1661818853.393,2738.6442405672155,-671.2831598071044,1000,6.282,-0.457,-0.031,106.7,green,270,TRUE
458,1661818853.728,5043.758479935177,1936.7737705683314,1000,0.04,-1.393,0.592,105.2,red,270,TRUE
459,1661818853.82,2741.69319356157,-1348.8557419129065,1000,2.777,0.434,-0.044,105.3,yellow,270,TRUE
460,1661818853.912,2256.872815664584,-1070.0500871133909,1000,6.282,-0.457,-0.031,88.9,green,270,TRUE
461,1661818854.173,5059.299628880904,1937.6267105106956,1000,0.052,-1.388,0.593,101.8,red,270,TRUE
462,1661818854.261,2750.928420636392,-1340.3210183076803,1000,2.777,0.434,-0.044,119.6,yellow,270,TRUE
463,1661818854.364,2720.673229297735,-675.760545345175,1000,6.282,-0.457,-0.031,106.9,green,270,TRUE
464,1661818854.646,5051.045094265083,1931.975644868533,1000,0.074,-1.386,0.596,114.8,red,270,TRUE
465,1661818854.748,2725.0219218788766,-1352.4176329805734,1000,2.777,0.434,-0.044,118.3,yellow,270,TRUE
466,1661818854.848,3202.5039161633194,-269.77730049755127,1000,6.282,-0.457,-0.031,92.3,green,270,TRUE
467,1661818855.167,5025.842545808936,1892.0685424952062,1000,0.106,-1.394,0.515,104.8,red,270,TRUE
468,1661818855.26,2705.239419345295,-1368.873227125796,1000,2.777,0.434,-0.044,102.6,yellow,270,TRUE
469,1661818855.349,3683.9710665466705,136.56110685513377,1000,6.282,-0.457,-0.031,104.0,green,270,TRUE
470,1661818855.627,5086.97103800055,1761.0241334283608,1000,0.385,-1.343,0.65,111.7,red,270,TRUE
471,1661818855.726,2723.6580072887286,-1364.400970540795,1000,2.777,0.434,-0.044,119.8,yellow,270,TRUE
472,1661818855.827,4160.110866655376,525.2283185608825,1000,6.282,-0.457,-0.031,92.7,green,270,TRUE
473,1661818856.091,5139.566584780824,1608.7766600318873,1000,0.553,-1.252,0.262,100.9,red,270,TRUE
474,1661818856.181,2788.777893328967,-1337.024742588851,1000,2.777,0.434,-0.044,101.8,yellow,270,TRUE
475,1661818856.269,4629.729636037666,900.3667368601219,1000,6.282,-0.457,-0.031,102.8,green,270,TRUE
476,1661818856.616,5278.5091646248065,1376.040020271559,1000,0.482,-1.317,0.07,104.2,red,270,TRUE
477,1661818856.709,2801.8711020492233,-1324.515119971584,1000,2.777,0.434,-0.044,102.0,yellow,270,TRUE
478,1661818856.797,5109.785885113109,1295.0689768890118,1000,6.282,-0.457,-0.031,104.3,green,270,TRUE
479,1661818857.072,5451.190585760348,1187.2811710149965,1000,0.059,-1.404,0.089,100.6,red,270,TRUE
480,1661818857.162,2767.341105501891,-1337.022956717553,1000,2.777,0.434,-0.044,102.1,yellow,270,TRUE
481,1661818857.25,4643.653863152365,900.2445444128651,1000,6.282,-0.457,-0.031,103.7,green,270,TRUE
482,1661818857.539,5650.817745169664,1000.8093392454119,1000,5.874,-1.48,0.057,100.8,red,270,TRUE
483,1661818857.628,2769.124792409724,-1331.8959880391014,1000,2.777,0.434,-0.044,101.6,yellow,270,TRUE
484,1661818857.717,4432.910158130169,660.9064155328525,1000,6.282,-0.457,-0.031,102.3,green,270,TRUE
485,1661818858.062,5943.335822047401,797.7838597768036,1000,5.4,-1.564,-3.141,121.3,red,270,TRUE
486,1661818858.189,2216.5486783318147,-725.7821067922887,1000,2.777,0.434,-0.044,1082.1,yellow,270,TRUE
487,1661818859.499,6149.012662326054,766.9242072674969,1000,5.447,-1.506,3.078,103.2,red,270,TRUE
488,1661818859.589,2565.253764970471,-920.1783623298794,1000,2.777,0.434,-0.044,106.8,yellow,270,TRUE
489,1661818859.683,4418.1488601889905,642.1355066154234,1000,6.282,-0.457,-0.031,88.8,green,270,TRUE
490,1661818859.942,6365.605268165578,757.6743770081672,1000,5.448,-1.512,0.056,114.5,red,270,TRUE
491,1661818860.044,2590.5685874163105,-1080.252361540646,1000,2.777,0.434,-0.044,103.0,yellow,270,TRUE
492,1661818860.133,4430.466572902914,648.4219299577688,1000,6.282,-0.457,-0.031,90.4,green,270,TRUE
493,1661818860.418,6496.215533094743,832.2241858285748,1000,5.476,-1.509,0.053,122.0,red,270,TRUE
494,1661818860.524,2693.2605899954174,-1128.8924163587412,1000,2.777,0.434,-0.044,105.6,yellow,270,TRUE
495,1661818860.616,4434.06311810261,660.827879685166,1000,6.282,-0.457,-0.031,90.1,green,270,TRUE
496,1661818860.936,6587.438639064293,846.7328014524168,1000,5.511,-1.508,0.045,103.2,red,270,TRUE
497,1661818861.026,2772.2393199851363,-1147.7883968490496,1000,2.777,0.434,-0.044,105.5,yellow,270,TRUE
498,1661818861.119,3961.8826354998014,269.24141148225334,1000,6.282,-0.457,-0.031,88.2,green,270,TRUE
499,1661818861.387,6657.048279425119,858.6523478916101,1000,5.51,-1.511,0.047,123.3,red,270,TRUE
500,1661818861.491,2782.7834044933716,-1172.054222691156,1000,2.777,0.434,-0.044,107.7,yellow,270,TRUE
501,1661818861.584,3953.1610115850876,271.71906953181207,1000,6.282,-0.457,-0.031,90.8,green,270,TRUE
502,1661818861.854,6649.083517191339,935.454423505612,1000,5.532,-1.509,0.053,107.3,red,270,TRUE
503,1661818861.948,2880.816917049042,-1271.6750434307307,1000,2.777,0.434,-0.044,102.9,yellow,270,TRUE
504,1661818862.037,4148.91856233361,511.82293099194584,1000,6.282,-0.457,-0.031,89.5,green,270,TRUE
505,1661818862.366,6636.9935450444855,908.202844505861,1000,5.429,-1.486,0.067,123.0,red,270,TRUE
506,1661818862.471,2878.4674789089017,-1305.3471165418928,1000,2.777,0.434,-0.044,106.6,yellow,270,TRUE
507,1661818862.563,3947.412282555101,294.7012935507566,1000,6.282,-0.457,-0.031,88.9,green,270,TRUE
508,1661818862.835,6637.435832289434,880.2516408461574,1000,5.402,-1.453,0.097,125.5,red,270,TRUE
509,1661818862.942,2874.3259931066036,-1307.1405340338422,1000,2.777,0.434,-0.044,107.2,yellow,270,TRUE
510,1661818863.037,3870.023655944569,404.96742841351215,1000,6.282,-0.457,-0.031,87.6,green,270,TRUE
511,1661818863.321,6627.187106109262,850.879843813831,1000,5.335,-1.439,0.754,109.0,red,270,TRUE
512,1661818863.417,2880.820053733713,-1273.0915690778072,1000,2.777,0.434,-0.044,118.5,yellow,270,TRUE
513,1661818863.517,3868.375304479549,403.6922172183719,1000,6.282,-0.457,-0.031,91.8,green,270,TRUE
514,1661818863.836,6601.985961879204,880.0220158494916,1000,5.366,-1.44,0.738,120.6,red,270,TRUE
515,1661818863.94,2831.6523498856727,-1291.985065534772,1000,2.777,0.434,-0.044,93.1,yellow,270,TRUE
516,1661818864.019,2845.6903470328016,578.8877056423245,1000,6.282,-0.457,-0.031,86.7,green,270,TRUE
517,1661818864.281,6599.272659899332,876.0138447515346,1000,5.448,-1.473,0.087,129.2,red,270,TRUE
518,1661818864.392,2860.927586070451,-1267.1331957235782,1000,2.777,0.434,-0.044,124.9,yellow,270,TRUE
519,1661818864.498,2854.6802113488297,576.3333537056233,1000,6.282,-0.457,-0.031,91.8,green,270,TRUE
520,1661818864.766,6597.841419667995,887.96265104151,1000,5.588,-1.485,0.074,129.1,red,270,TRUE
521,1661818864.877,2862.601557734488,-1233.8135345239482,1000,2.777,0.434,-0.044,109.1,yellow,270,TRUE
522,1661818864.972,2392.5406751649,177.44315233154296,1000,6.282,-0.457,-0.031,89.3,green,270,TRUE
523,1661818865.289,6608.836015659214,929.3115366959751,1000,5.701,-1.478,0.085,120.4,red,270,TRUE
524,1661818865.392,2834.93718284558,-1243.6221962883628,1000,2.777,0.434,-0.044,106.5,yellow,270,TRUE
525,1661818865.486,2537.3224162687043,522.5422268011945,1000,6.282,-0.457,-0.031,104.2,green,270,TRUE
526,1661818865.749,6609.096719315188,992.3035577379604,1000,5.883,-1.445,1.318,129.4,red,270,TRUE
527,1661818865.861,2853.6727992370174,-1233.0711534759057,1000,2.777,0.434,-0.044,121.4,yellow,270,TRUE
528,1661818865.965,2606.1656953892834,411.1819045332838,1000,6.282,-0.457,-0.031,92.2,green,270,TRUE
529,1661818866.236,6622.46207345719,1051.424660956611,1000,5.866,-1.463,0.1,123.7,red,270,TRUE
530,1661818866.343,2842.5900368919533,-1276.7582115888083,1000,2.777,0.434,-0.044,122.5,yellow,270,TRUE
531,1661818866.448,2406.5032665696485,194.3425377798735,1000,6.282,-0.457,-0.031,107.1,green,270,TRUE
532,1661818866.784,6648.355984365738,1065.1150980148495,1000,5.856,-1.461,0.1,119.5,red,270,TRUE
533,1661818866.886,2908.6044468391187,-1251.5560975452445,1000,2.777,0.434,-0.044,108.9,yellow,270,TRUE
534,1661818866.977,3902.016331763143,415.05506956168983,1000,6.282,-0.457,-0.031,91.1,green,270,TRUE
535,1661818867.244,6654.482672437708,1135.2901444394736,1000,5.838,-1.463,0.101,126.9,red,270,TRUE
536,1661818867.354,2896.736974626787,-1240.446138839534,1000,2.777,0.434,-0.044,123.5,yellow,270,TRUE
537,1661818867.46,4372.759564496785,803.4946004298041,1000,6.282,-0.457,-0.031,92.6,green,270,TRUE
538,1661818867.727,6665.105836292725,1171.3665771423778,1000,5.837,-1.462,0.104,127.4,red,270,TRUE
539,1661818867.838,2889.2975174149665,-1278.4763900307153,1000,2.777,0.434,-0.044,124.6,yellow,270,TRUE
540,1661818867.943,4841.069377792469,1184.0264543588078,1000,6.282,-0.457,-0.031,91.2,green,270,TRUE
541,1661818868.265,6677.237336507158,1209.6618893187858,1000,5.84,-1.463,0.103,101.9,red,270,TRUE
542,1661818868.353,2903.221669202257,-1271.698407720017,1000,2.777,0.434,-0.044,117.7,yellow,270,TRUE
543,1661818868.455,4904.167622163379,1068.2281820329997,1000,6.282,-0.457,-0.031,92.3,green,270,TRUE
544,1661818868.719,6668.648726012678,1206.2469860013223,1000,5.814,-1.46,0.103,114.8,red,270,TRUE
545,1661818868.817,2973.705277684274,-1253.8840061158605,1000,2.777,0.434,-0.044,123.4,yellow,270,TRUE
546,1661818868.923,4430.434769928344,675.0511768741975,1000,6.282,-0.457,-0.031,108.4,green,270,TRUE
547,1661818869.203,6664.342668728757,1198.7891942877832,1000,5.815,-1.464,0.089,100.8,red,270,TRUE
548,1661818869.289,3043.0877647638595,-1208.4947391548742,1000,2.777,0.434,-0.044,119.0,yellow,270,TRUE
549,1661818869.391,4631.544622416515,885.0794771559002,1000,6.282,-0.457,-0.031,124.5,green,270,TRUE
550,1661818869.747,6663.955022987685,1170.6324226658721,1000,5.756,-1.492,0.071,102.3,red,270,TRUE
551,1661818869.836,2994.445156276077,-1223.8469788310088,1000,2.777,0.434,-0.044,118.4,yellow,270,TRUE
552,1661818869.937,4627.980652981774,880.1427871504051,1000,6.282,-0.457,-0.031,93.2,green,270,TRUE
553,1661818870.203,6667.442384305105,1133.5923310514684,1000,5.77,-1.506,0.058,111.8,red,270,TRUE
554,1661818870.302,2982.974541862936,-1262.9218016042553,1000,2.777,0.434,-0.044,119.8,yellow,270,TRUE
555,1661818870.404,4145.6149441315365,489.11213068357,1000,6.282,-0.457,-0.031,107.6,green,270,TRUE
556,1661818870.683,6658.781505822579,1053.187903216494,1000,5.584,-1.518,0.039,101.8,red,270,TRUE
557,1661818870.771,2963.656504461413,-1270.1334190334246,1000,2.777,0.434,-0.044,119.1,yellow,270,TRUE
558,1661818870.873,3677.82604558677,100.5509992877367,1000,6.282,-0.457,-0.031,105.5,green,270,TRUE
559,1661818871.212,6629.204787027068,1013.829294678163,1000,5.294,-1.405,-0.077,99.5,red,270,TRUE
560,1661818871.299,2968.4175936053634,-1256.7163188239226,1000,2.777,0.434,-0.044,119.0,yellow,270,TRUE
561,1661818871.401,3215.5307634634805,-296.50171072881415,1000,6.282,-0.457,-0.031,107.9,green,270,TRUE
562,1661818871.68,6610.630895220791,983.7421525575597,1000,5.061,-1.386,-0.106,99.4,red,270,TRUE
563,1661818871.767,2894.4296211939586,-1272.0657848347657,1000,2.777,0.434,-0.044,117.8,yellow,270,TRUE
564,1661818871.869,3221.6325892855643,-298.6807082519782,1000,6.282,-0.457,-0.031,109.1,green,270,TRUE
565,1661818872.153,6590.361372332296,938.5731448939506,1000,5.065,-1.348,-0.124,110.7,red,270,TRUE
566,1661818872.25,2826.776041312889,-1309.991750528742,1000,2.777,0.434,-0.044,118.7,yellow,270,TRUE
567,1661818872.352,1747.6325601681683,-517.273728493925,1000,6.282,-0.457,-0.031,106.9,green,270,TRUE
568,1661818872.687,6560.007186240811,900.8003541781769,1000,5.136,-1.381,-0.119,105.0,red,270,TRUE
569,1661818872.782,2830.586866966585,-1308.4937157010656,1000,2.777,0.434,-0.044,116.1,yellow,270,TRUE
570,1661818872.881,1281.496516123727,-904.9592053159896,1000,6.282,-0.457,-0.031,107.6,green,270,TRUE
571,1661818873.164,6526.146858255169,873.1651111235839,1000,5.178,-1.383,-0.057,112.4,red,270,TRUE
572,1661818873.264,2866.444865063126,-1288.648615216821,1000,2.777,0.434,-0.044,116.4,yellow,270,TRUE
573,1661818873.363,1291.423877801326,-905.2339121586083,1000,6.282,-0.457,-0.031,106.1,green,270,TRUE
574,1661818873.639,6511.022920325373,946.1569223972396,1000,5.129,-1.394,-0.029,99.7,red,270,TRUE
575,1661818873.727,2894.668390473871,-1273.7994505526406,1000,2.777,0.434,-0.044,117.6,yellow,270,TRUE
576,1661818873.828,1275.10510328014,-906.244445183204,1000,6.282,-0.457,-0.031,105.7,green,270,TRUE
577,1661818874.176,6517.617590296345,915.1665790094625,1000,4.971,-1.378,0.041,120.0,red,270,TRUE
578,1661818874.298,3006.860158934579,-1209.7867625117972,1000,2.777,0.434,-0.044,1084.1,yellow,270,TRUE
579,1661818875.61,6523.092335159853,926.6855934560873,1000,5.143,-1.354,0.019,103.8,red,270,TRUE
580,1661818875.704,3034.0631423444916,-1121.6855703144533,1000,2.777,0.434,-0.044,100.6,yellow,270,TRUE
581,1661818875.791,1738.5908053491391,-516.4345101983805,1000,6.282,-0.457,-0.031,104.3,green,270,TRUE
582,1661818876.08,6531.836001696162,930.0672818067869,1000,5.175,-1.349,0.058,103.4,red,270,TRUE
583,1661818876.173,2936.8053918402634,-1193.378427467377,1000,2.777,0.434,-0.044,100.5,yellow,270,TRUE
584,1661818876.259,2212.324121079118,-117.5580336537624,1000,6.282,-0.457,-0.031,104.8,green,270,TRUE
585,1661818876.551,6542.465351468482,957.7024910857837,1000,5.304,-1.364,0.107,101.8,red,270,TRUE
586,1661818876.642,2941.8902388589813,-1179.145624972027,1000,2.777,0.434,-0.044,100.9,yellow,270,TRUE
587,1661818876.729,3687.418342460182,114.90442052680828,1000,6.282,-0.457,-0.031,105.4,green,270,TRUE
588,1661818877.061,6561.057736717984,933.3192571647106,1000,5.455,-1.386,0.137,106.6,red,270,TRUE
589,1661818877.155,2939.7474208565636,-1162.799215242241,1000,2.777,0.434,-0.044,119.7,yellow,270,TRUE
590,1661818877.25,3680.535634551589,111.4802497715151,1000,6.282,-0.457,-0.031,99.1,green,270,TRUE
591,1661818877.543,6574.625127276046,871.1614228754969,1000,5.517,-1.389,0.158,107.6,red,270,TRUE
592,1661818877.636,2963.258389419949,-1169.161623681585,1000,2.777,0.434,-0.044,104.0,yellow,270,TRUE
