,timestamp,x,y,z,yaw,roll,pitch,latency,student,session,success
0,1661825945.166,2384.9022664615245,588.6570524689491,1000,0.009,-1.408,0.794,108.1,blue,271,TRUE
1,1661825945.262,1362.3045621328822,-1377.1894415789955,1000,5.325,-1.115,-3.0,101.9,red,271,TRUE
2,1661825945.35,1637.6463518690955,-135.80398144487495,1000,5.258,-1.384,1.438,94.0,yellow,271,TRUE
3,1661825946.541,2242.2362726281626,719.1175099084453,1000,5.675,-1.415,1.106,106.6,blue,271,TRUE
4,1661825946.634,1706.0439864475986,-787.5078827615965,1000,4.994,-1.048,-2.781,118.1,red,271,TRUE
5,1661825946.733,1617.617989741166,-122.99170947162656,1000,5.224,-0.802,0.064,110.0,yellow,271,TRUE
6,1661825946.827,3287.647446959216,-2535.265026731053,1000,4.849,-0.903,0.103,106.7,green,271,TRUE
7,1661825949.181,1629.432613600725,-161.68413247444082,1000,5.252,-0.658,0.064,1132.9,yellow,271,TRUE
8,1661825950.494,2198.875634921353,1188.7304783575419,1000,5.633,-1.469,0.084,108.5,blue,271,TRUE
9,1661825950.589,1949.1901923442008,78.66889481044541,1000,4.939,-1.118,-3.028,104.7,red,271,TRUE
10,1661825950.681,1618.7644215235869,-151.58621943999287,1000,5.252,-0.653,0.064,102.6,yellow,271,TRUE
11,1661825950.771,3369.548115509659,-2519.803848816977,1000,4.676,-0.969,0.106,104.6,green,271,TRUE
12,1661825951.045,2287.1350264781036,1573.4652408991994,1000,5.743,-1.457,0.085,99.4,blue,271,TRUE
13,1661825951.131,2147.8602686548325,948.176091897724,1000,3.704,-0.942,-2.771,105.4,red,271,TRUE
14,1661825951.224,1916.5894460195152,-770.6398240369863,1000,5.252,-0.653,0.064,102.6,yellow,271,TRUE
15,1661825951.312,3460.589491908639,-2512.6963287657254,1000,4.676,-0.96,0.104,104.3,green,271,TRUE
16,1661825951.582,2311.990381684773,1810.151284763287,1000,5.869,-1.388,0.62,104.2,blue,271,TRUE
17,1661825951.675,2391.231355649176,1749.4699881059848,1000,3.595,-1.048,-2.942,103.3,red,271,TRUE
18,1661825951.765,2857.1731937246827,-2569.761109789833,1000,5.252,-0.653,0.064,102.7,yellow,271,TRUE
19,1661825951.854,3556.444515502239,-2503.8737904369186,1000,4.677,-0.957,0.105,104.7,green,271,TRUE
20,1661825952.125,2355.4327985261607,1989.456498506931,1000,5.944,-1.354,0.721,120.2,blue,271,TRUE
21,1661825952.227,2671.1941439654333,2523.685198715633,1000,3.589,-1.038,-2.983,106.3,red,271,TRUE
22,1661825952.32,2735.453923341672,-2519.1903726349033,1000,5.253,-0.649,0.059,106.0,yellow,271,TRUE
23,1661825952.41,3437.664085870881,-2490.2309006136434,1000,4.677,-0.96,0.106,105.0,green,271,TRUE
24,1661825954.734,2615.237735328034,-2454.2499162411627,1000,5.243,-0.646,0.037,1136.0,yellow,271,TRUE
25,1661825957.009,2601.570656980335,2528.6340171190263,1000,0.411,-1.42,0.988,1129.7,blue,271,TRUE
26,1661825958.125,2639.651553182423,-2453.069962035201,1000,5.237,-0.663,0.056,119.6,yellow,271,TRUE
27,1661825958.225,3492.030978785537,-2519.849312386804,1000,4.634,-0.94,0.13,124.8,green,271,TRUE
28,1661825959.425,2719.471452503214,2947.9491643840156,1000,0.404,-1.428,1.154,106.2,blue,271,TRUE
29,1661825959.518,2597.117462105119,2759.1419042727807,1000,2.965,-1.072,-2.954,118.2,red,271,TRUE
30,1661825959.616,2671.187137227774,-2471.192126160269,1000,5.236,-0.66,0.056,111.1,yellow,271,TRUE
31,1661825959.713,3389.0084324554887,-2486.184526524895,1000,4.634,-0.929,0.128,104.0,green,271,TRUE
32,1661825959.986,2835.939253946277,3149.637492925142,1000,0.405,-1.432,1.222,102.2,blue,271,TRUE
33,1661825960.075,2515.662803283654,2964.423745594886,1000,2.928,-1.057,-2.937,104.1,red,271,TRUE
34,1661825960.166,2682.275848165653,-2470.0345637436494,1000,5.236,-0.66,0.056,118.3,yellow,271,TRUE
35,1661825960.267,3383.642089537299,-2493.8102767944397,1000,4.634,-0.928,0.128,107.3,green,271,TRUE
36,1661825964.865,2756.1269132396064,3169.876702491372,1000,0.419,-1.436,1.292,99.0,blue,271,TRUE
37,1661825964.956,2568.5873733339254,3025.2781759575823,1000,2.865,-1.046,-2.923,113.4,red,271,TRUE
38,1661825965.05,2629.043795428954,-2442.4811244331477,1000,5.163,-0.742,0.217,95.6,yellow,271,TRUE
39,1661825965.134,3330.924215022693,-2471.9129273813464,1000,4.669,-0.978,0.151,118.0,green,271,TRUE
40,1661825970.84,2755.7127835123306,-2562.2728812144023,1000,5.221,-0.625,0.242,1171.5,yellow,271,TRUE
41,1661825975.308,3335.9155402384586,-2467.7793248633066,1000,4.661,-1.02,0.108,1141.4,green,271,TRUE
42,1661825976.461,2935.177488468383,3461.539333169036,1000,0.446,-1.431,1.066,94.5,blue,271,TRUE
43,1661825976.547,2630.7071224859073,3097.6513737623172,1000,2.893,-1.038,-2.977,100.1,red,271,TRUE
44,1661825976.634,2839.2348184050807,-2598.0093528163707,1000,5.408,-1.091,0.491,118.6,yellow,271,TRUE
45,1661825976.735,3319.7589361023693,-2450.102301291684,1000,4.679,-1.004,0.135,107.8,green,271,TRUE
46,1661825977.031,2950.5997347009784,3548.545026626789,1000,0.423,-1.433,1.078,98.5,blue,271,TRUE
47,1661825977.116,2675.0894176200964,3177.0470335650025,1000,2.899,-1.025,-2.975,119.3,red,271,TRUE
48,1661825977.217,2835.606254824135,-2586.229913555598,1000,5.404,-1.011,0.602,107.8,yellow,271,TRUE
49,1661825977.311,3325.9206858716243,-2442.141444112865,1000,4.664,-0.993,0.133,106.1,green,271,TRUE
50,1661825981.865,2650.9397239916993,3391.786968194636,1000,0.485,-1.441,1.197,1143.1,blue,271,TRUE
51,1661825982.988,2829.2862219522103,-2570.4787709239276,1000,5.487,-0.387,-0.001,124.8,yellow,271,TRUE
52,1661825983.099,3339.0429983473277,-2431.3372009817163,1000,4.65,-0.985,0.18,120.0,green,271,TRUE
53,1661825984.32,2657.891139487086,3434.9308932494664,1000,0.48,-1.431,1.079,1131.5,blue,271,TRUE
54,1661825985.436,2794.890145717767,-2555.6987250572365,1000,5.486,-0.407,0.002,120.3,yellow,271,TRUE
55,1661825985.536,3245.772161628891,-2408.505269530042,1000,4.607,-0.944,0.206,126.8,green,271,TRUE
56,1661825990.137,2588.7202445856988,3417.147258172903,1000,0.485,-1.439,1.221,126.0,blue,271,TRUE
57,1661825990.271,2607.3644315045617,-2524.337231178508,1000,0.013,-0.559,0.002,1127.2,red,271,TRUE
58,1661825990.271,2797.139487296065,-2561.159892215379,1000,0.013,-0.559,0.002,1129.2,yellow,271,TRUE
59,1661825990.271,2724.313350890015,-2505.6028162602893,1000,0.013,-0.559,0.002,1131.2,yellow,271,TRUE
60,1661825991.383,3230.9826086770177,-2412.492738826329,1000,4.608,-0.959,0.218,105.8,green,271,TRUE
61,1661825992.61,3698.3366246544406,3112.6525031546353,1000,0.512,-1.439,1.21,1131.2,blue,271,TRUE
62,1661825993.725,2718.12043186282,-2507.5172533615414,1000,5.485,-0.397,0.008,106.7,yellow,271,TRUE
63,1661825993.823,3212.0515501199675,-2415.870679254679,1000,4.634,-0.961,0.183,118.2,green,271,TRUE
64,1661825995.056,3413.482126221473,3112.9602330811376,1000,0.538,-1.443,1.324,1133.1,blue,271,TRUE
65,1661825996.171,2696.06356814701,-2509.7537945012864,1000,5.488,-0.407,0.011,122.7,yellow,271,TRUE
66,1661825996.275,3204.053540830729,-2413.980393534716,1000,4.722,-0.807,0.025,92.6,green,271,TRUE
67,1661825997.502,3366.596981571796,3054.2517199890267,1000,0.533,-1.448,1.379,1132.4,blue,271,TRUE
68,1661825998.618,2665.3526845618644,-2515.6062155369004,1000,5.492,-0.404,0.02,123.6,yellow,271,TRUE
69,1661825998.722,3153.4129033333943,-2403.7266523971934,1000,4.551,-0.81,0.031,109.3,green,271,TRUE
70,1661825999.933,3303.399712494795,3192.846643771263,1000,0.533,-1.449,1.403,1133.4,blue,271,TRUE
71,1661826001.057,2672.1009297983433,-2519.870293453823,1000,5.495,-0.397,0.022,98.9,yellow,271,TRUE
72,1661826001.149,3152.5915077291484,-2414.341067252592,1000,4.564,-0.822,0.044,113.5,green,271,TRUE
73,1661826005.785,3272.8487804664205,3351.6242618386373,1000,5.543,-1.515,0.049,110.5,blue,271,TRUE
74,1661826005.874,2420.5648667305695,2022.6698406995301,1000,4.67,-1.172,-2.884,127.9,red,271,TRUE
75,1661826005.98,2694.8270692718565,-2523.632220581763,1000,5.491,-0.406,0.021,96.9,yellow,271,TRUE
76,1661826006.067,3221.331899095119,-2434.805147448706,1000,4.585,-0.828,0.067,101.6,green,271,TRUE
77,1661826007.283,3263.322452556664,3813.0123325605728,1000,5.25,-1.497,0.063,1130.4,blue,271,TRUE
78,1661826008.397,2717.8024546203774,-2521.4241876632,1000,5.496,-0.411,0.019,122.1,yellow,271,TRUE
79,1661826008.498,3282.728614013098,-2447.0787040301525,1000,4.584,-0.838,0.07,111.4,green,271,TRUE
80,1661826013.078,2070.41649704964,5179.319984159087,1000,3.843,-1.342,2.666,1147.5,blue,271,TRUE
81,1661826014.208,2725.1174729059894,-2527.3549316158474,1000,5.498,-0.404,0.019,122.9,yellow,271,TRUE
82,1661826014.311,3459.605845676031,-2455.2248105799827,1000,4.589,-0.806,0.079,109.6,green,271,TRUE
83,1661826014.576,2122.703639373686,5649.84865664,1000,3.8,-1.457,0.084,103.5,blue,271,TRUE
84,1661826014.666,2144.202155088075,4112.589726090763,1000,1.749,-1.019,-2.873,131.8,red,271,TRUE
85,1661826027.106,1959.9516732854659,5185.042123032292,1000,1.656,-1.116,-2.916,123.0,red,271,TRUE
86,1661826027.208,2728.5300261175767,-2531.4793808126315,1000,5.51,-0.416,0.019,96.3,yellow,271,TRUE
87,1661826027.29,3495.975975577677,-2463.7017081725085,1000,4.623,-0.791,0.081,104.2,green,271,TRUE
88,1661826027.475,2057.1281078940724,6360.474015501801,1000,3.458,-1.412,0.647,103.4,blue,271,TRUE
89,1661826027.565,1843.6409593668238,5827.079042273149,1000,1.659,-1.114,-2.909,118.4,red,271,TRUE
90,1661826027.666,2715.060133697267,-2522.4455701168317,1000,5.51,-0.425,0.019,108.8,yellow,271,TRUE
91,1661826027.757,3531.126613088458,-2471.5006381934845,1000,4.628,-0.784,0.081,92.0,green,271,TRUE
92,1661826027.931,2099.692591179628,6971.362357879906,1000,3.459,-1.412,0.647,114.8,blue,271,TRUE
93,1661826028.033,1767.4677109748516,6249.717223302236,1000,1.676,-1.108,-2.905,118.0,red,271,TRUE
94,1661826028.135,2707.8416384726947,-2525.9752850711266,1000,5.509,-0.429,0.016,107.5,yellow,271,TRUE
95,1661826028.229,3452.5446592344647,-2476.764599792828,1000,4.635,-0.769,0.076,88.3,green,271,TRUE
96,1661826036.201,1965.120624849784,7464.676613444001,1000,3.439,-1.413,0.687,123.8,blue,271,TRUE
97,1661826036.305,1553.7876144373195,8060.268006748019,1000,1.7,-1.104,-2.92,125.5,red,271,TRUE
98,1661826036.409,2703.6715412100143,-2525.2702874309293,1000,5.514,-0.44,0.02,96.3,yellow,271,TRUE
99,1661826036.496,3438.8145127285693,-2480.2038183315344,1000,4.574,-0.764,0.069,101.0,green,271,TRUE
100,1661826042.204,2699.9271584110297,-2534.39621370364,1000,5.512,-0.451,0.028,109.4,yellow,271,TRUE
101,1661826042.294,3373.7707045965294,-2492.5947876456435,1000,4.603,-0.744,0.089,98.5,green,271,TRUE
102,1661826043.508,1734.7807272452603,7162.778708440616,1000,3.402,-1.432,0.67,1129.3,blue,271,TRUE
103,1661826044.622,2696.0245990545523,-2536.5118257294453,1000,5.511,-0.443,0.025,119.4,yellow,271,TRUE
104,1661826044.723,3202.7279537413456,-2493.5994737296255,1000,4.595,-0.767,0.087,123.9,green,271,TRUE
105,1661826050.459,2714.6096938417863,-2563.7762091693075,1000,5.514,-0.43,0.026,1135.9,yellow,271,TRUE
106,1661826059.45,1870.9961942072782,7206.361461382192,1000,3.361,-1.424,0.725,1156.2,blue,271,TRUE
107,1661826060.59,2733.132958102447,-2578.468871998779,1000,5.512,-0.443,0.027,120.5,yellow,271,TRUE
108,1661826060.696,3748.145739341753,-2141.030269763413,1000,4.5,-0.782,0.052,104.5,green,271,TRUE
109,1661826060.861,1812.9936797886437,7249.5804354250795,1000,3.365,-1.421,0.711,108.8,blue,271,TRUE
110,1661826060.955,1429.9891308262293,8349.54343566399,1000,1.666,-1.077,-2.871,104.0,red,271,TRUE
111,1661826061.048,2723.523540280307,-2579.5210595447193,1000,5.512,-0.442,0.027,100.8,yellow,271,TRUE
112,1661826061.136,4338.995719492073,-1792.9021433185408,1000,4.501,-0.781,0.053,103.5,green,271,TRUE
113,1661826061.404,1774.3679661800188,7228.10131471011,1000,3.366,-1.422,0.72,106.1,blue,271,TRUE
114,1661826061.497,1409.1536327619804,8354.858306080625,1000,1.668,-1.074,-2.871,104.1,red,271,TRUE
115,1661826061.589,2714.544304908023,-2580.9604544512963,1000,5.512,-0.441,0.028,102.4,yellow,271,TRUE
116,1661826061.681,4990.890139231798,-1425.802081578089,1000,4.505,-0.778,0.062,100.9,green,271,TRUE
117,1661826061.934,1745.6635412748583,7221.082848291672,1000,3.372,-1.422,0.712,106.6,blue,271,TRUE
118,1661826062.029,1423.587836525604,8346.784182444515,1000,1.661,-1.074,-2.867,102.6,red,271,TRUE
119,1661826062.118,2700.0498537024505,-2572.0646349693648,1000,5.512,-0.441,0.028,119.4,yellow,271,TRUE
120,1661826062.22,5116.294165024072,-1426.349769103064,1000,4.506,-0.772,0.062,107.8,green,271,TRUE
121,1661826062.496,1751.9802143746774,7278.9157193856445,1000,3.372,-1.422,0.704,105.5,blue,271,TRUE
122,1661826062.59,1426.2296146852284,8337.424874002232,1000,1.674,-1.11,-2.897,102.9,red,271,TRUE
123,1661826062.682,2695.2682105349854,-2566.2883289225824,1000,5.51,-0.442,0.032,100.5,yellow,271,TRUE
124,1661826062.768,5134.891588021041,-1411.4646702508496,1000,4.508,-0.779,0.077,90.2,green,271,TRUE
125,1661826063.013,1766.5252639680095,7327.746061316913,1000,3.365,-1.421,0.831,103.9,blue,271,TRUE
126,1661826063.103,1457.7342996673176,8296.413867962154,1000,1.545,-1.141,-2.986,120.7,red,271,TRUE
127,1661826063.206,2667.78530514277,-2538.9416217264757,1000,5.509,-0.442,0.033,123.3,yellow,271,TRUE
128,1661826063.312,5072.448428848714,-1389.1052443160945,1000,4.494,-0.778,0.07,93.0,green,271,TRUE
129,1661826063.59,1818.006798233697,7315.183802456423,1000,2.56,-1.528,0.0,102.2,blue,271,TRUE
130,1661826063.682,1522.3558724777206,8315.489028478727,1000,0.72,-1.068,-2.82,100.2,red,271,TRUE
131,1661826063.768,2663.2861086225807,-2539.651693870947,1000,5.509,-0.443,0.031,119.4,yellow,271,TRUE
132,1661826063.86,4531.2388500034685,-1741.345348900277,1000,4.478,-0.774,0.051,104.6,green,271,TRUE
133,1661826065.082,1932.1824289244262,7182.936019524078,1000,1.289,-1.402,0.766,1132.7,blue,271,TRUE
134,1661826066.198,2673.3261799398647,-2535.5916324803293,1000,5.508,-0.437,0.033,120.9,yellow,271,TRUE
135,1661826066.298,3916.105260414368,-2082.853861688768,1000,4.509,-0.789,0.075,95.8,green,271,TRUE
136,1661826066.549,2218.608070243446,6885.736150951881,1000,1.383,-1.434,0.629,102.9,blue,271,TRUE
137,1661826066.638,1772.5073111394543,8055.403287998456,1000,1.23,-1.122,-3.016,105.3,red,271,TRUE
138,1661826066.732,2675.8398533315944,-2530.642438251492,1000,5.505,-0.437,0.031,100.5,yellow,271,TRUE
139,1661826066.819,3313.476462116336,-2431.083482923857,1000,4.512,-0.781,0.076,89.0,green,271,TRUE
140,1661826074.86,2660.232767348439,6712.220889426142,1000,0.166,-1.445,1.184,120.3,blue,271,TRUE
141,1661826074.959,2218.894625815318,7751.1016974587155,1000,1.173,-1.088,-2.955,128.0,red,271,TRUE
142,1661826075.067,2688.3426465120488,-2527.286918882056,1000,5.486,-0.44,0.027,95.7,yellow,271,TRUE
143,1661826075.152,3214.05875944756,-2420.889088970974,1000,4.568,-0.762,0.065,116.9,green,271,TRUE
144,1661826083.132,3113.27851804202,6244.751318699069,1000,0.204,-1.443,1.16,1137.1,blue,271,TRUE
145,1661826084.248,2696.5752716833827,-2528.0439413813174,1000,5.488,-0.431,0.037,111.2,yellow,271,TRUE
146,1661826084.34,3272.8559307863998,-2427.3457665492847,1000,4.507,-0.789,0.049,109.7,green,271,TRUE
147,1661826095.769,3510.776411681598,5938.536793487218,1000,0.121,-1.467,0.098,105.5,blue,271,TRUE
148,1661826095.854,2682.419587668156,7457.040216106503,1000,1.106,-1.103,-3.003,126.1,red,271,TRUE
149,1661826095.959,2701.7484569357507,-2555.5909788478943,1000,5.479,-0.455,0.031,97.9,yellow,271,TRUE
150,1661826096.046,3304.8533246631564,-2438.571579969304,1000,4.538,-0.76,0.07,116.4,green,271,TRUE
151,1661826097.277,3829.667142808532,5826.052422588479,1000,0.128,-1.458,0.1,1148.0,blue,271,TRUE
152,1661826098.409,2760.298016721793,-2564.7605074204685,1000,5.483,-0.451,0.036,122.8,yellow,271,TRUE
153,1661826098.512,3237.9385763000337,-2437.739458394449,1000,4.539,-0.764,0.069,109.6,green,271,TRUE
154,1661826098.786,4027.281296502149,5688.032820894725,1000,0.12,-1.454,0.099,91.1,blue,271,TRUE
155,1661826098.864,3183.4530605665254,7199.159308031056,1000,1.148,-1.102,-3.003,105.7,red,271,TRUE
156,1661826098.956,2751.8864015241693,-2560.1786301379284,1000,5.483,-0.448,0.036,103.7,yellow,271,TRUE
157,1661826099.049,3241.2540091776677,-2444.4017604127416,1000,4.54,-0.755,0.065,100.4,green,271,TRUE
158,1661826099.315,4162.8144820405905,5623.029319129796,1000,0.113,-1.443,0.885,107.5,blue,271,TRUE
159,1661826099.409,3611.055842551436,6951.006458077427,1000,1.156,-1.094,-2.991,104.8,red,271,TRUE
160,1661826099.498,2746.467035865349,-2564.2599837118805,1000,5.483,-0.447,0.037,105.1,yellow,271,TRUE
161,1661826099.592,3234.8166343269913,-2447.661196093055,1000,4.54,-0.755,0.065,102.2,green,271,TRUE
162,1661826099.874,4194.734969363733,5508.881926461368,1000,0.08,-1.432,0.69,104.7,blue,271,TRUE
163,1661826099.965,4025.6714555632007,6643.160140158238,1000,1.134,-1.086,-2.992,104.9,red,271,TRUE
164,1661826100.059,2742.0754927857042,-2560.0342354954482,1000,5.476,-0.455,0.036,101.4,yellow,271,TRUE
165,1661826100.148,3207.3317907744345,-2444.7418302792544,1000,4.541,-0.752,0.063,103.2,green,271,TRUE
166,1661826100.433,4116.099379947685,5609.1701185128695,1000,0.089,-1.442,0.788,103.6,blue,271,TRUE
167,1661826100.523,4256.777510018944,6653.4632547469555,1000,1.155,-1.1,-3.016,105.0,red,271,TRUE
168,1661826100.617,2755.117864560871,-2559.2862252330474,1000,5.477,-0.463,0.033,101.7,yellow,271,TRUE
169,1661826100.703,3158.1480734150477,-2442.9964061092414,1000,4.541,-0.748,0.063,120.6,green,271,TRUE
170,1661826112.07,4124.188959419071,5640.872609106471,1000,0.081,-1.441,0.765,122.4,blue,271,TRUE
171,1661826112.179,4296.636251911891,6693.062894395887,1000,1.188,-1.105,-2.968,137.8,red,271,TRUE
172,1661826112.301,2825.297714594779,-2579.262451025929,1000,5.478,-0.553,0.137,123.6,yellow,271,TRUE
173,1661826117.925,4134.36185707642,5319.4833311634175,1000,0.077,-1.434,0.722,1141.1,blue,271,TRUE
174,1661826119.046,2864.243447214169,-2590.1450559513473,1000,5.479,-0.564,0.13,139.8,yellow,271,TRUE
175,1661826122.451,2928.2762730612685,-2610.3795759781992,1000,5.481,-0.559,0.132,1161.1,yellow,271,TRUE
176,1661826123.788,4278.44081568762,5355.462258284785,1000,0.094,-1.44,0.716,96.0,blue,271,TRUE
177,1661826123.871,4292.811896312515,6660.843815402969,1000,1.281,-1.088,-2.99,101.4,red,271,TRUE
178,1661826123.959,2990.6652860902864,-2622.9209026661406,1000,5.486,-0.553,0.135,119.8,yellow,271,TRUE
179,1661826127.378,3041.4793736881293,-2643.4315945692497,1000,5.484,-0.561,0.131,1121.7,yellow,271,TRUE
180,1661826128.675,4298.392502186195,5374.834388528355,1000,1.679,-1.357,0.603,112.0,blue,271,TRUE
181,1661826128.775,4142.712281816313,6443.083561094017,1000,2.465,-1.143,3.139,117.7,red,271,TRUE
182,1661826128.874,3085.7152923186027,-2653.5248220206304,1000,5.483,-0.56,0.132,106.8,yellow,271,TRUE
183,1661826128.97,3074.490292766401,-2473.7425243170064,1000,4.562,-0.777,0.074,86.5,green,271,TRUE
184,1661826129.241,4381.186709574504,5218.856606768117,1000,2.261,-1.369,0.491,102.7,blue,271,TRUE
185,1661826129.33,4020.1816545302413,6172.266004163819,1000,2.207,-1.215,-2.97,104.0,red,271,TRUE
186,1661826129.421,3078.649055342248,-2645.93982805757,1000,5.481,-0.56,0.133,103.2,yellow,271,TRUE
187,1661826129.51,3030.0725572766582,-2508.6774659916127,1000,4.563,-0.794,0.075,104.2,green,271,TRUE
188,1661826131.79,3983.995907533082,5518.453415658772,1000,1.671,-1.165,-2.991,1150.9,red,271,TRUE
189,1661826132.931,2985.728547211538,-2550.2901707866126,1000,4.577,-0.792,0.083,101.1,green,271,TRUE
190,1661826135.195,3866.0063100467755,4800.115228105213,1000,0.854,-1.031,-2.838,1142.1,red,271,TRUE
191,1661826136.315,3531.261048225377,-2204.327844190393,1000,4.59,-0.768,0.077,143.5,green,271,TRUE
192,1661826136.628,4419.268384235751,4816.392396079135,1000,1.742,-1.444,1.008,117.7,blue,271,TRUE
193,1661826136.733,3811.493001044344,4084.0300919589176,1000,0.862,-1.023,-2.857,119.2,red,271,TRUE
194,1661826136.835,3095.9587467202005,-2652.004690395747,1000,5.479,-0.556,0.132,108.8,yellow,271,TRUE
195,1661826136.929,3576.088338055186,-2210.7124024951568,1000,4.589,-0.752,0.069,106.3,green,271,TRUE
196,1661826138.245,3736.094646831702,3414.9976043226357,1000,0.852,-1.048,-2.824,1135.9,red,271,TRUE
197,1661826139.365,3606.487170203849,-2254.956961978406,1000,4.605,-0.719,0.082,119.3,green,271,TRUE
198,1661826140.588,4425.8577554408575,4310.771541708528,1000,1.74,-1.451,1.189,1130.0,blue,271,TRUE
199,1661826141.702,3093.952875470663,-2644.6700756813466,1000,5.479,-0.568,0.131,121.2,yellow,271,TRUE
200,1661826141.802,3650.244411539464,-2256.7740450683045,1000,4.615,-0.803,0.068,110.5,green,271,TRUE
201,1661826146.394,4418.183745318068,4019.4906797308345,1000,1.755,-1.444,1.262,126.8,blue,271,TRUE
202,1661826146.502,3877.4099333574304,2894.88432441339,1000,0.818,-1.044,-2.796,126.2,red,271,TRUE
203,1661826146.608,3089.8697171390545,-2645.22337129778,1000,5.479,-0.559,0.131,126.7,yellow,271,TRUE
204,1661826148.878,4361.991234796134,3496.247327813336,1000,1.755,-1.445,1.276,117.7,blue,271,TRUE
205,1661826149.004,2880.735832786714,-2665.7480859022417,1000,0.013,31.276,-25.57,1114.3,red,271,TRUE
206,1661826149.004,3096.1191153792174,-2637.343259966458,1000,0.013,31.276,-25.57,1117.4,yellow,271,TRUE
207,1661826149.004,3093.1572871352787,-2637.82838115573,1000,0.013,31.276,-25.57,1120.4,yellow,271,TRUE
208,1661826150.105,4240.736730456388,-1839.0924378312045,1000,4.638,-0.804,0.072,101.3,green,271,TRUE
209,1661826150.374,4384.638726526766,3124.904236034264,1000,1.752,-1.444,1.265,105.4,blue,271,TRUE
210,1661826150.467,3625.213090993954,-74.69130894665,1000,0.818,-1.055,-2.791,102.1,red,271,TRUE
211,1661826150.557,3093.2594577284012,-2638.1572562111655,1000,5.48,-0.557,0.128,102.4,yellow,271,TRUE
212,1661826150.649,4234.004831948038,-1834.135873092055,1000,4.64,-0.798,0.068,100.9,green,271,TRUE
213,1661826150.916,4361.048506738874,2849.4916217620653,1000,1.752,-1.446,1.307,106.5,blue,271,TRUE
214,1661826151.008,3873.776589294237,789.9422550994394,1000,0.827,-1.056,-2.796,104.9,red,271,TRUE
215,1661826151.102,3060.092923999626,-2614.0785636601613,1000,5.484,-0.553,0.128,99.9,yellow,271,TRUE
216,1661826151.19,3601.4840865222286,-2212.92813054011,1000,4.644,-0.795,0.07,88.5,green,271,TRUE
217,1661826151.447,4335.904536731107,2820.5936341775373,1000,1.756,-1.445,1.296,102.7,blue,271,TRUE
218,1661826151.537,3994.388066978355,1232.2295703777065,1000,0.809,-1.046,-2.793,119.3,red,271,TRUE
219,1661826151.659,3065.8341467126656,-2623.310735030633,1000,5.481,-0.554,0.125,1082.2,yellow,271,TRUE
220,1661826152.918,4408.715161745567,2792.1850922119615,1000,1.772,-1.438,1.17,94.0,blue,271,TRUE
221,1661826153.0,4006.19508188162,1469.4343942539558,1000,0.81,-1.048,-2.788,102.8,red,271,TRUE
222,1661826153.088,3078.938951999753,-2617.7282229542943,1000,5.48,-0.554,0.123,105.5,yellow,271,TRUE
223,1661826153.183,3679.495611637749,-2222.020171472192,1000,4.66,-0.762,0.083,100.8,green,271,TRUE
224,1661826153.438,4441.185475815852,2816.291168615133,1000,1.751,-1.439,1.136,103.3,blue,271,TRUE
225,1661826153.528,4013.3389493229206,1630.010181631529,1000,0.802,-1.045,-2.788,106.0,red,271,TRUE
226,1661826153.622,3087.7613176961045,-2623.9555878000856,1000,5.479,-0.555,0.123,103.5,yellow,271,TRUE
227,1661826153.711,3702.015057584334,-2187.6557508357105,1000,4.66,-0.77,0.073,118.1,green,271,TRUE
228,1661826153.997,4453.743192171601,2810.227341259151,1000,1.75,-1.441,1.175,105.6,blue,271,TRUE
229,1661826154.091,4212.427194420868,2473.358788350264,1000,0.797,-1.044,-2.787,101.6,red,271,TRUE
230,1661826154.18,3094.335633283922,-2625.15242961156,1000,5.48,-0.552,0.123,118.3,yellow,271,TRUE
231,1661826154.28,3790.9131554375654,-2162.8458174131097,1000,4.664,-0.769,0.069,107.6,green,271,TRUE
232,1661826154.541,4437.915368618049,2798.1094688810813,1000,1.75,-1.441,1.193,102.7,blue,271,TRUE
233,1661826154.634,4110.595961192316,2474.0910266294454,1000,0.802,-1.047,-2.798,115.4,red,271,TRUE
234,1661826154.736,3090.2356750822173,-2629.42470257377,1000,5.48,-0.547,0.127,118.8,yellow,271,TRUE
235,1661826154.837,3322.3155536623503,-2568.1541591481823,1000,4.663,-0.79,0.076,138.0,green,271,TRUE
236,1661826155.13,4344.184249543018,2812.6450290374046,1000,1.753,-1.441,1.189,102.7,blue,271,TRUE
237,1661826155.219,4071.423847963352,2467.573137268539,1000,0.845,-1.057,-2.791,103.6,red,271,TRUE
238,1661826155.308,3086.1744193709087,-2627.3676558210313,1000,5.481,-0.545,0.127,119.8,yellow,271,TRUE
239,1661826155.399,3422.3235205205583,-2539.869491445564,1000,4.665,-0.798,0.075,105.4,green,271,TRUE
240,1661826155.659,4412.625598668452,2829.5056982039387,1000,1.751,-1.44,1.163,102.4,blue,271,TRUE
241,1661826155.748,4015.8047234096684,2464.874237782025,1000,0.836,-1.047,-2.799,118.8,red,271,TRUE
242,1661826155.851,3091.8456790375835,-2627.5211638497644,1000,5.476,-0.541,0.127,108.0,yellow,271,TRUE
243,1661826158.059,4341.448938245404,2867.402454393048,1000,1.749,-1.445,1.26,1128.9,blue,271,TRUE
244,1661826159.177,3103.837716401373,-2634.541511763276,1000,5.48,-0.553,0.128,115.2,yellow,271,TRUE
245,1661826159.269,3533.1099888168956,-2518.596841463535,1000,4.68,-0.797,0.075,99.4,green,271,TRUE
246,1661826159.522,4360.672916710896,2819.0328879225726,1000,1.748,-1.439,1.299,103.1,blue,271,TRUE
247,1661826159.615,4050.3988011914494,2459.9075637588508,1000,0.874,-1.026,-2.957,101.1,red,271,TRUE
248,1661826159.702,3106.57694907917,-2629.657903043613,1000,5.48,-0.553,0.128,133.1,yellow,271,TRUE
249,1661826159.804,3476.732144982629,-2515.8393741491054,1000,4.682,-0.781,0.074,122.9,green,271,TRUE
250,1661826162.144,3085.3215042197867,-2617.822317144209,1000,5.477,-0.548,0.13,1148.3,yellow,271,TRUE
251,1661826165.514,3060.842578343349,-2604.546864508559,1000,5.477,-0.547,0.13,1142.8,yellow,271,TRUE
252,1661826168.904,3053.754219891585,-2597.347108104297,1000,5.478,-0.541,0.132,1148.7,yellow,271,TRUE
253,1661826172.35,3103.0542098361652,-2602.2556171917217,1000,5.473,-0.617,0.125,1141.7,yellow,271,TRUE
254,1661826173.687,4406.930076832482,2816.481426858841,1000,1.697,-1.446,1.271,107.8,blue,271,TRUE
255,1661826173.785,4047.0005174205285,2499.2383910888216,1000,0.826,-1.018,-2.921,100.9,red,271,TRUE
256,1661826173.872,3082.7010510267714,-2602.1379872744183,1000,5.475,-0.575,0.135,117.2,yellow,271,TRUE
257,1661826173.961,3440.682045692282,-2509.93500884047,1000,4.7,-0.788,0.063,106.5,green,271,TRUE
258,1661826174.205,4416.152028308156,2818.911422268351,1000,1.695,-1.446,1.276,120.3,blue,271,TRUE
259,1661826174.309,4034.5622327362257,2544.0214292528685,1000,0.828,-1.02,-2.92,105.5,red,271,TRUE
260,1661826174.401,3073.7713346448236,-2607.8730484192542,1000,5.481,-0.563,0.136,105.7,yellow,271,TRUE
261,1661826174.493,3398.1356318669023,-2502.2675357016933,1000,4.703,-0.802,0.065,104.0,green,271,TRUE
262,1661826174.747,4403.637883400655,2832.9963187400776,1000,1.7,-1.446,1.26,119.9,blue,271,TRUE
263,1661826174.851,4085.1231828905306,2568.0140897625447,1000,0.828,-1.022,-2.917,106.4,red,271,TRUE
264,1661826174.943,3091.886936846367,-2624.7043386222535,1000,5.479,-0.559,0.135,105.3,yellow,271,TRUE
265,1661826175.033,3342.6958069133575,-2489.341518228457,1000,4.704,-0.796,0.067,105.5,green,271,TRUE
266,1661826177.368,3156.3129383512073,-2674.3435939505375,1000,5.473,-0.556,0.14,1125.7,yellow,271,TRUE
267,1661826178.719,4335.848485123428,2799.4909137286304,1000,1.691,-1.45,1.36,109.4,blue,271,TRUE
268,1661826178.818,4076.754764433106,2600.2871661431273,1000,0.844,-1.025,-2.891,98.9,red,271,TRUE
269,1661826178.905,3165.092079782316,-2689.269636713787,1000,5.474,-0.556,0.14,104.5,yellow,271,TRUE
270,1661826178.995,3325.744383528736,-2489.5822248144186,1000,4.712,-0.797,0.073,105.5,green,271,TRUE
271,1661826183.566,4317.997254104573,2777.467143049655,1000,1.683,-1.451,1.374,115.3,blue,271,TRUE
272,1661826183.661,4094.1571580672594,2624.471195721389,1000,0.92,-1.033,-2.91,127.0,red,271,TRUE
273,1661826183.765,3106.260298900523,-2692.664287862649,1000,5.477,-0.549,0.137,113.8,yellow,271,TRUE
274,1661826183.866,3325.1467767860267,-2494.076584111515,1000,4.707,-0.819,0.074,101.8,green,271,TRUE
275,1661826185.09,4273.962497837992,2889.7297378100416,1000,1.68,-1.452,0.116,1127.2,blue,271,TRUE
276,1661826186.202,3115.657801868312,-2692.1150366859733,1000,5.477,-0.553,0.139,125.0,yellow,271,TRUE
277,1661826186.301,3445.9963828065506,-2499.9699739216567,1000,4.696,-0.795,0.106,112.9,green,271,TRUE
278,1661826188.638,3116.330886085216,-2707.1490995474946,1000,5.477,-0.552,0.139,1120.7,yellow,271,TRUE
279,1661826190.872,4202.899948389245,2977.2741566082914,1000,1.738,-1.454,0.115,1131.0,blue,271,TRUE
280,1661826191.989,3113.788002933886,-2702.1105502202854,1000,5.477,-0.552,0.139,104.7,yellow,271,TRUE
281,1661826192.083,3512.3121166227697,-2510.549851859197,1000,4.73,-0.757,0.108,113.7,green,271,TRUE
282,1661826192.345,4211.915656213264,2988.303256110366,1000,1.765,-1.446,1.223,106.4,blue,271,TRUE
283,1661826192.44,4049.8871919226917,2626.3618986876254,1000,0.911,-1.032,-2.934,100.6,red,271,TRUE
284,1661826192.528,3082.062275299258,-2666.7583171866713,1000,5.48,-0.551,0.135,103.6,yellow,271,TRUE
285,1661826192.618,3516.5560138133424,-2514.8641970342,1000,4.752,-0.738,0.118,101.7,green,271,TRUE
286,1661826194.96,3076.5526996990825,-2680.845888041516,1000,5.476,-0.551,0.136,1123.3,yellow,271,TRUE
287,1661826196.255,4254.265245393956,2944.4384682924065,1000,1.738,-1.452,0.111,97.7,blue,271,TRUE
288,1661826196.34,4051.2423068071075,2583.593696813883,1000,0.917,-1.05,-2.923,117.7,red,271,TRUE
289,1661826196.441,3079.5217933138106,-2669.7320129848504,1000,5.48,-0.55,0.14,106.7,yellow,271,TRUE
290,1661826196.534,3577.894155302583,-2541.331477800358,1000,4.729,-0.803,0.144,102.7,green,271,TRUE
291,1661826196.787,4265.100658383726,3035.095214309982,1000,1.738,-1.451,0.111,104.7,blue,271,TRUE
292,1661826196.879,4066.6180758867213,2546.734711291616,1000,0.913,-1.045,-2.923,101.8,red,271,TRUE
293,1661826196.968,3081.5091939416343,-2673.4699832436113,1000,5.48,-0.547,0.136,117.7,yellow,271,TRUE
294,1661826197.057,3676.307578485839,-2555.1912526562446,1000,4.725,-0.805,0.134,105.2,green,271,TRUE
295,1661826197.326,4308.841508274236,3048.1011517733587,1000,1.732,-1.455,0.109,122.2,blue,271,TRUE
296,1661826197.431,4105.714432835212,2510.7286890352666,1000,0.914,-1.037,-2.923,107.1,red,271,TRUE
297,1661826197.524,3085.0842357554016,-2658.762652843583,1000,5.48,-0.544,0.137,104.2,yellow,271,TRUE
298,1661826197.614,3795.659083746199,-2556.7684036310307,1000,4.724,-0.8,0.127,119.9,green,271,TRUE
299,1661826197.888,4343.017082867039,2958.072144310349,1000,1.728,-1.46,0.107,103.2,blue,271,TRUE
300,1661826197.978,4077.6781693757644,2464.7959126640885,1000,0.965,-0.982,-2.953,104.4,red,271,TRUE
301,1661826198.068,3090.83434544523,-2663.3968657422174,1000,5.48,-0.544,0.137,104.7,yellow,271,TRUE
302,1661826198.161,3745.3230903236963,-2563.789057973519,1000,4.73,-0.8,0.125,103.0,green,271,TRUE
303,1661826198.446,4397.049375567255,2872.2690000667517,1000,1.731,-1.46,0.107,106.6,blue,271,TRUE
304,1661826198.538,4049.5955236388672,2428.491995625263,1000,0.965,-1.012,-2.913,106.8,red,271,TRUE
305,1661826198.629,3096.0373121988855,-2666.5430310282295,1000,5.48,-0.545,0.137,105.3,yellow,271,TRUE
306,1661826198.722,3799.758308019778,-2563.201309183127,1000,4.73,-0.8,0.125,102.1,green,271,TRUE
307,1661826198.977,4393.931358752498,2858.224393856628,1000,1.734,-1.457,0.108,103.4,blue,271,TRUE
308,1661826199.067,4042.167729286916,2430.270345378078,1000,0.938,-1.014,-2.918,103.5,red,271,TRUE
309,1661826199.159,3102.299909120138,-2654.822676121426,1000,5.48,-0.545,0.137,103.4,yellow,271,TRUE
310,1661826199.248,3928.6596191421013,-2565.8057569652674,1000,4.736,-0.784,0.123,119.9,green,271,TRUE
311,1661826199.535,4395.906882268134,2861.281537758792,1000,1.731,-1.457,0.109,105.5,blue,271,TRUE
312,1661826199.628,4030.3435297725878,2430.6054488788786,1000,0.945,-1.031,-2.906,102.0,red,271,TRUE
313,1661826199.717,3116.4935200917594,-2662.387717761178,1000,5.48,-0.545,0.137,104.0,yellow,271,TRUE
314,1661826199.806,4003.8514070196074,-2544.042553349055,1000,4.732,-0.778,0.109,105.5,green,271,TRUE
315,1661826200.061,4441.65902979028,2790.706054777631,1000,1.73,-1.456,0.109,107.3,blue,271,TRUE
316,1661826200.156,4010.5099448570004,2433.9785599195266,1000,0.947,-1.033,-2.906,102.2,red,271,TRUE
317,1661826200.245,3115.4043261599995,-2664.306679012523,1000,5.48,-0.545,0.137,118.8,yellow,271,TRUE
318,1661826200.347,4046.7554737598434,-2544.865784403559,1000,4.732,-0.776,0.108,122.4,green,271,TRUE
319,1661826200.638,4433.69959813672,2786.8514095957544,1000,1.73,-1.456,0.109,103.4,blue,271,TRUE
320,1661826200.729,3957.008895944546,2427.9488681270964,1000,0.93,-1.035,-2.906,103.7,red,271,TRUE
321,1661826200.818,3115.84932304018,-2668.4610863700614,1000,5.48,-0.544,0.137,105.2,yellow,271,TRUE
322,1661826200.911,4080.816219117755,-2542.172821768391,1000,4.732,-0.773,0.107,102.6,green,271,TRUE
323,1661826201.167,4429.004297164101,2775.5025311476224,1000,1.73,-1.457,0.109,103.6,blue,271,TRUE
324,1661826201.257,3967.0989925701742,2435.630320954145,1000,0.923,-1.04,-2.913,120.7,red,271,TRUE
325,1661826201.362,3117.909758729311,-2666.6863950173342,1000,5.48,-0.544,0.137,106.1,yellow,271,TRUE
326,1661826201.455,4128.3623557903675,-2537.8196013297043,1000,4.732,-0.771,0.108,103.8,green,271,TRUE
327,1661826206.008,4427.158471807805,2786.760599101644,1000,1.737,-1.474,0.094,126.7,blue,271,TRUE
328,1661826206.113,3947.530585006924,2417.4727188996853,1000,0.357,-1.035,-2.879,126.7,red,271,TRUE
329,1661826206.218,3116.0649167918596,-2667.260441541785,1000,5.48,-0.547,0.136,110.7,yellow,271,TRUE
330,1661826206.317,4575.475827112135,-2180.8771505164073,1000,4.725,-0.786,0.096,102.5,green,271,TRUE
331,1661826208.671,3113.719880122379,-2652.3383260279484,1000,5.48,-0.547,0.136,1129.5,yellow,271,TRUE
332,1661826214.3,4440.187133666124,2728.1008419564946,1000,1.775,-1.436,2.063,111.9,blue,271,TRUE
333,1661826214.404,3908.963578372974,2447.452265839065,1000,5.656,-1.081,-2.861,113.5,red,271,TRUE
334,1661826214.52,3076.45695131587,-2628.9924035945223,1000,5.477,-0.55,0.143,1085.0,yellow,271,TRUE
335,1661826216.728,4423.018657753386,2690.824057990408,1000,1.762,-1.433,2.116,1127.5,blue,271,TRUE
336,1661826217.84,2818.541254399339,-2467.5781675078315,1000,5.468,-0.611,0.061,105.1,yellow,271,TRUE
337,1661826217.937,4515.747164431955,-2224.086537565829,1000,4.711,-0.81,0.089,99.4,green,271,TRUE
338,1661826220.268,2695.3566817252163,-2332.4046591106203,1000,5.464,-0.566,0.12,1130.3,yellow,271,TRUE
339,1661826222.525,4341.886576403041,2907.3750663713727,1000,3.755,-1.449,1.359,1127.4,blue,271,TRUE
340,1661826223.641,2788.209774523381,-2405.4015802343797,1000,5.471,-0.56,0.112,103.5,yellow,271,TRUE
341,1661826223.735,4532.070201022795,-2213.238788582699,1000,4.712,-0.814,0.086,98.8,green,271,TRUE
342,1661826228.354,4119.435597697781,3048.15914944438,1000,3.503,-1.449,0.781,100.0,blue,271,TRUE
343,1661826228.446,3860.624122582034,2608.9896362117593,1000,5.877,-1.124,-2.73,99.9,red,271,TRUE
344,1661826228.538,2794.9523392027927,-2423.376169540501,1000,5.473,-0.551,0.103,98.9,yellow,271,TRUE
345,1661826228.624,4463.972545308466,-2205.052479409951,1000,4.717,-0.818,0.092,103.7,green,271,TRUE
346,1661826228.891,3852.4973077317704,3075.233485630481,1000,3.151,-1.512,-0.032,108.2,blue,271,TRUE
347,1661826228.987,3873.349956786676,2784.5831192804603,1000,0.091,-1.141,-2.81,104.8,red,271,TRUE
348,1661826229.076,2825.8153305149985,-2444.683964539489,1000,5.474,-0.563,0.101,105.9,yellow,271,TRUE
349,1661826229.171,4903.01127811896,-1831.7686637189274,1000,4.716,-0.817,0.091,85.9,green,271,TRUE
350,1661826229.437,3656.187633755793,3154.459062665052,1000,3.372,-1.513,3.085,106.6,blue,271,TRUE
351,1661826229.53,3924.8481799520746,2988.415887891317,1000,0.296,-1.084,-2.806,104.1,red,271,TRUE
352,1661826229.619,2835.3353638425847,-2454.6001963938375,1000,5.469,-0.589,0.109,105.3,yellow,271,TRUE
353,1661826229.713,4808.9100002727255,-1836.3718201394506,1000,4.716,-0.806,0.088,103.6,green,271,TRUE
354,1661826234.336,3077.5572664959595,3254.140123115109,1000,5.715,-1.377,1.894,128.1,blue,271,TRUE
355,1661826234.472,2855.8042284180015,-2478.9930932867655,1000,5.476,-0.562,0.117,96.6,yellow,271,TRUE
356,1661826234.554,4383.066326640097,-2193.421027710862,1000,4.717,-0.838,0.099,104.6,green,271,TRUE
357,1661826239.18,2529.85862748807,3327.004121797197,1000,5.928,-0.908,2.307,115.4,blue,271,TRUE
358,1661826239.274,5327.393596782159,5902.040294658623,1000,5.383,-1.117,-2.943,125.1,red,271,TRUE
359,1661826239.401,2922.3739263527264,-2545.280141213941,1000,5.463,-0.552,0.117,1086.8,yellow,271,TRUE
360,1661826241.612,2018.53779787171,3154.317139381849,1000,5.742,-1.358,2.102,1128.0,blue,271,TRUE
361,1661826242.727,2969.7484653638767,-2552.4540095975344,1000,5.461,-0.551,0.119,119.7,yellow,271,TRUE
362,1661826243.991,1780.8776870647241,3128.092108199499,1000,5.811,-1.349,2.009,1120.2,blue,271,TRUE
363,1661826245.095,2975.41109684213,-2568.243768044876,1000,5.46,-0.55,0.119,122.9,yellow,271,TRUE
364,1661826245.197,3689.483311721642,-2543.265620702863,1000,4.707,-0.812,0.101,112.7,green,271,TRUE
365,1661826246.412,1654.7574964075677,3169.3702819902614,1000,5.593,-1.359,2.418,1144.3,blue,271,TRUE
366,1661826247.54,2968.8576697875287,-2564.1244607310928,1000,5.455,-0.552,0.124,106.8,yellow,271,TRUE
367,1661826247.639,3957.2786245522952,-2520.4141977613026,1000,4.703,-0.824,0.108,115.1,green,271,TRUE
368,1661826252.246,1454.3046851521883,3410.2649926112076,1000,4.927,-1.468,0.096,115.2,blue,271,TRUE
369,1661826252.342,5386.961459257194,5925.530413994198,1000,5.77,-1.124,-3.019,123.8,red,271,TRUE
370,1661826252.445,2971.4112778495055,-2576.190316170813,1000,5.457,-0.561,0.129,125.9,yellow,271,TRUE
371,1661826255.867,2919.685424120166,-2544.299552135515,1000,5.444,-0.555,0.116,1129.2,yellow,271,TRUE
372,1661826257.184,1545.3665004390257,3717.636874730302,1000,3.667,-1.441,-1.594,100.3,blue,271,TRUE
373,1661826257.274,5555.383421433253,5808.093196292786,1000,5.104,-0.899,-2.71,101.8,red,271,TRUE
374,1661826257.362,2928.1636593725057,-2540.510144501897,1000,5.441,-0.557,0.117,120.4,yellow,271,TRUE
375,1661826260.775,2894.7481006861635,-2531.857424302563,1000,5.44,-0.559,0.118,1131.3,yellow,271,TRUE
376,1661826264.142,2884.945746536401,-2525.597854390082,1000,5.44,-0.561,0.12,119.3,yellow,271,TRUE
377,1661826266.389,552.1921292849117,3499.9434028324836,1000,3.269,-1.204,-2.801,104.1,blue,271,TRUE
378,1661826266.485,5162.659532460842,5775.953731684716,1000,0.626,-1.07,-3.021,96.9,red,271,TRUE
379,1661826266.574,2880.636490707721,-2526.7321502960854,1000,5.444,-0.555,0.119,128.7,yellow,271,TRUE
380,1661826268.831,742.8591354329349,3560.8405685754296,1000,2.914,-1.42,2.662,106.8,blue,271,TRUE
381,1661826268.928,4895.146455142803,5710.071965514983,1000,0.461,-1.121,-2.997,99.2,red,271,TRUE
382,1661826269.019,2900.826678361255,-2529.1658249287584,1000,5.443,-0.555,0.119,113.8,yellow,271,TRUE
383,1661826271.269,860.781426186828,3670.251134303801,1000,2.965,-1.154,2.342,104.0,blue,271,TRUE
384,1661826271.364,4775.201467647178,5741.289080323444,1000,0.601,-1.132,-3.053,129.1,red,271,TRUE
385,1661826271.47,2950.332613992767,-2577.1336022277887,1000,5.447,-0.56,0.121,96.8,yellow,271,TRUE
386,1661826271.554,3901.974074779972,-2607.7313319301934,1000,4.709,-0.85,0.119,87.9,green,271,TRUE
387,1661826276.13,794.7835472983356,3562.0080804385884,1000,2.272,-1.308,-2.893,114.6,blue,271,TRUE
388,1661826276.223,4710.413392061957,5686.567355211559,1000,5.933,-1.134,-2.949,126.8,red,271,TRUE
389,1661826276.329,2962.772670352277,-2597.276042309148,1000,5.456,-0.557,0.118,126.2,yellow,271,TRUE
390,1661826278.61,814.5334659295253,3661.6221482690926,1000,2.481,-1.428,1.944,1151.0,blue,271,TRUE
391,1661826279.751,2985.405376484232,-2607.2774531842474,1000,5.466,-0.559,0.119,115.3,yellow,271,TRUE
392,1661826281.99,840.5329000802134,3654.994675647189,1000,2.998,-1.167,-3.03,117.9,blue,271,TRUE
393,1661826282.086,4263.45241776236,5618.486130222297,1000,4.411,-1.037,-2.702,114.7,red,271,TRUE
394,1661826282.192,3007.0525541675506,-2618.7419777081377,1000,5.467,-0.56,0.117,114.6,yellow,271,TRUE
395,1661826284.44,938.0964160529429,3680.9769131626413,1000,2.298,-1.504,3.077,106.4,blue,271,TRUE
396,1661826284.538,3907.6572304034476,5529.329886274532,1000,0.716,-1.117,-2.918,127.0,red,271,TRUE
397,1661826284.643,3028.708664342979,-2635.613345629125,1000,5.462,-0.555,0.118,127.5,yellow,271,TRUE
398,1661826286.92,977.3356560442598,3744.4127901792035,1000,2.351,-1.38,1.319,1123.1,blue,271,TRUE
399,1661826288.032,3007.8871108823528,-2628.2028097775233,1000,5.463,-0.562,0.116,118.5,yellow,271,TRUE
400,1661826290.285,931.3905696225648,3669.3955264255696,1000,2.561,-1.092,-2.803,102.5,blue,271,TRUE
401,1661826290.38,4151.534791372158,5044.726390187255,1000,0.926,-1.115,-2.707,113.9,red,271,TRUE
402,1661826290.472,3009.6661552824407,-2605.7432953565926,1000,5.463,-0.561,0.116,126.1,yellow,271,TRUE
403,1661826292.739,959.7169317125939,3703.5950960277846,1000,2.795,-1.019,-2.76,105.0,blue,271,TRUE
404,1661826292.836,4484.783776320014,4619.492289859096,1000,0.748,-1.104,-2.873,100.1,red,271,TRUE
405,1661826292.927,3006.062280193155,-2603.684380546919,1000,5.463,-0.557,0.116,127.9,yellow,271,TRUE
406,1661826295.19,943.598635115486,3585.5644049812704,1000,2.842,-1.049,-2.71,121.6,blue,271,TRUE
407,1661826295.291,4826.616243493037,4144.722449514276,1000,0.238,-0.958,-2.574,125.3,red,271,TRUE
408,1661826295.419,1777.7793299323705,-1772.026566397234,1000,5.463,-0.545,0.125,1099.4,yellow,271,TRUE
409,1661826297.636,885.8536686426518,3515.775216505497,1000,2.783,-1.048,-2.687,1124.3,blue,271,TRUE
410,1661826298.748,2368.6177032691385,-2172.058292826113,1000,5.456,-0.554,0.12,118.6,yellow,271,TRUE
411,1661826300.995,807.1752080829134,3474.487458997009,1000,3.019,-0.916,-2.795,105.1,blue,271,TRUE
412,1661826301.092,4964.225958823836,3564.3327687198853,1000,2.172,-1.009,-3.107,128.2,red,271,TRUE
413,1661826301.227,3127.8786207445005,-2675.111853224696,1000,5.457,-0.556,0.117,1089.6,yellow,271,TRUE
414,1661826302.501,757.5086935043382,3403.327058325222,1000,3.035,-0.961,-2.762,100.7,blue,271,TRUE
415,1661826302.589,5472.46293570268,3024.87585705333,1000,2.219,-1.01,-3.112,100.8,red,271,TRUE
416,1661826302.677,3111.2196633489334,-2671.0293106713098,1000,5.456,-0.553,0.118,118.3,yellow,271,TRUE
417,1661826304.922,730.5732996660907,3420.112715567013,1000,3.023,-0.975,-2.757,107.3,blue,271,TRUE
418,1661826305.021,5807.751715679261,2611.930354158272,1000,1.685,-1.068,-2.773,112.9,red,271,TRUE
419,1661826308.439,5894.169683588239,2519.1233780152115,1000,2.43,-0.986,-3.108,1144.1,red,271,TRUE
420,1661826311.717,972.6104516906425,3268.7924155108726,1000,3.642,-1.49,-3.076,113.1,blue,271,TRUE
421,1661826314.087,992.0411115360885,2898.784339162945,1000,5.044,-1.504,0.008,1133.0,blue,271,TRUE
422,1661826315.209,3141.045219915325,-2723.4264207904357,1000,5.467,-0.549,0.123,114.7,yellow,271,TRUE
423,1661826317.443,1088.8888194830927,2870.497337480383,1000,6.214,-0.987,1.871,103.7,blue,271,TRUE
424,1661826317.539,5910.327911255062,2374.597470278024,1000,2.475,-1.029,3.139,97.7,red,271,TRUE
425,1661826317.629,3089.0725486229608,-2681.4858272246393,1000,5.463,-0.564,0.116,128.0,yellow,271,TRUE
426,1661826319.886,1408.4071519941062,2802.713663339666,1000,5.673,-1.439,0.995,106.8,blue,271,TRUE
427,1661826319.985,5885.860940506442,2301.2883438290646,1000,2.495,-1.037,3.133,99.1,red,271,TRUE
428,1661826320.076,3105.5808197515366,-2677.2485406606497,1000,5.462,-0.575,0.118,114.4,yellow,271,TRUE
429,1661826322.32,1664.6295503500285,2655.4289879500884,1000,5.534,-1.413,0.398,103.9,blue,271,TRUE
430,1661826322.416,5869.611633224126,2279.0999397331802,1000,2.507,-1.035,3.138,112.8,red,271,TRUE
431,1661826322.508,3109.2336349718776,-2665.2197507507585,1000,5.448,-0.581,0.164,112.3,yellow,271,TRUE
432,1661826325.836,3106.8645631428553,-2657.665393618918,1000,5.468,-0.566,0.148,115.2,yellow,271,TRUE
433,1661826328.074,864.7068113923514,3395.617194081808,1000,3.292,-1.449,2.33,104.4,blue,271,TRUE
434,1661826328.17,5848.686786893465,2288.414298981222,1000,2.582,-1.057,3.138,113.3,red,271,TRUE
435,1661826328.263,3070.504817181191,-2636.5237730441045,1000,5.471,-0.564,0.148,126.9,yellow,271,TRUE
436,1661826331.638,3024.054064544456,-2603.20092598275,1000,5.475,-0.56,0.149,1121.4,yellow,271,TRUE
437,1661826333.877,782.0156779656656,3417.4272485490783,1000,1.89,-1.284,2.203,1126.6,blue,271,TRUE
438,1661826334.989,3017.792070193846,-2591.5200266853476,1000,5.473,-0.54,0.155,123.1,yellow,271,TRUE
439,1661826337.244,830.3596403165069,3657.2045105723714,1000,2.014,-1.197,2.785,103.4,blue,271,TRUE
440,1661826337.34,5817.0895625745125,2265.9671426310692,1000,2.637,-1.091,-3.131,126.7,red,271,TRUE
441,1661826337.445,3018.602721904013,-2595.2864784893063,1000,5.476,-0.548,0.149,113.1,yellow,271,TRUE
442,1661826337.53,3717.4705423079813,-2565.6016910380486,1000,4.619,-0.779,0.041,104.7,green,271,TRUE
443,1661826338.75,698.9856660500158,3576.8256813932476,1000,1.264,-1.093,2.819,1130.0,blue,271,TRUE
444,1661826339.865,2996.8040667179534,-2587.2238356750154,1000,5.476,-0.549,0.148,120.1,yellow,271,TRUE
445,1661826342.104,688.8138620118389,3663.1480641346957,1000,1.31,-1.033,2.631,106.1,blue,271,TRUE
446,1661826342.203,5840.2962909148255,2341.6533647108067,1000,1.446,-1.028,-3.036,128.8,red,271,TRUE
447,1661826342.309,2969.4989558093134,-2570.35525878868,1000,5.476,-0.547,0.148,126.6,yellow,271,TRUE
448,1661826344.56,725.7357593808832,3610.7080808728374,1000,2.565,-1.412,0.958,107.4,blue,271,TRUE
449,1661826344.659,5927.801336449076,2455.3096122064853,1000,0.35,-1.062,-2.592,114.1,red,271,TRUE
450,1661826344.753,2978.2021338685995,-2567.8276129834153,1000,5.476,-0.547,0.148,111.2,yellow,271,TRUE
451,1661826344.852,3588.753955049537,-2586.3662486823696,1000,4.614,-0.77,0.027,86.4,green,271,TRUE
452,1661826346.073,753.7993368882331,3604.364316865189,1000,1.61,-1.48,3.098,1133.2,blue,271,TRUE
453,1661826347.19,2961.1911128103366,-2551.185723441034,1000,5.478,-0.542,0.145,122.4,yellow,271,TRUE
454,1661826349.443,1095.4720622640596,3515.7454595672402,1000,3.16,-1.395,1.101,105.3,blue,271,TRUE
455,1661826349.539,5988.06326848637,2574.408311805238,1000,0.369,-1.101,-2.569,129.4,red,271,TRUE
456,1661826349.647,2951.985492404894,-2551.5212532743394,1000,5.475,-0.538,0.145,127.9,yellow,271,TRUE
457,1661826351.9,1181.1511265162314,3160.419878371425,1000,4.717,-1.296,0.464,104.4,blue,271,TRUE
458,1661826351.995,5955.0396593809355,2653.162610773294,1000,0.32,-1.113,-2.556,113.4,red,271,TRUE
459,1661826352.087,2908.0027084172293,-2522.8012071013122,1000,5.475,-0.539,0.146,127.6,yellow,271,TRUE
460,1661826354.357,1180.5273701555595,2867.7718605154137,1000,4.808,-1.206,0.591,1122.7,blue,271,TRUE
461,1661826355.47,2909.5184637488296,-2523.6215182763085,1000,5.32,-0.649,0.076,116.2,yellow,271,TRUE
462,1661826357.719,1315.8148949645824,2563.5931350904925,1000,4.817,-1.206,0.64,120.2,blue,271,TRUE
463,1661826357.817,5759.159449425428,3265.325188353841,1000,0.072,-1.104,-2.982,127.4,red,271,TRUE
464,1661826357.922,2869.331037555501,-2509.4379273351283,1000,5.345,-0.279,0.093,127.2,yellow,271,TRUE
465,1661826360.181,1401.3030300180208,2527.0899703138457,1000,4.773,-1.445,1.551,1135.3,blue,271,TRUE
466,1661826361.306,2835.048962239763,-2498.958388040733,1000,5.346,-0.285,0.105,116.6,yellow,271,TRUE
467,1661826363.553,1436.9838367259347,2413.497074218511,1000,4.663,-1.469,0.079,106.1,blue,271,TRUE
468,1661826363.65,5670.169264635544,3814.87017815206,1000,5.329,-0.949,-2.844,99.4,red,271,TRUE
469,1661826363.742,2827.195942407574,-2499.6181137637664,1000,5.345,-0.268,0.105,128.2,yellow,271,TRUE
470,1661826366.016,1103.5587300612376,2312.9533137007716,1000,4.135,-1.46,3.041,122.0,blue,271,TRUE
471,1661826366.116,5512.389490737453,4283.040157615068,1000,5.356,-0.93,-2.824,99.3,red,271,TRUE
472,1661826366.207,2804.919240391813,-2486.884756150714,1000,5.344,-0.293,0.106,113.0,yellow,271,TRUE
473,1661826368.445,1030.9891269338962,2375.156019403075,1000,4.176,-1.425,2.283,105.6,blue,271,TRUE
474,1661826368.542,5251.529791190113,4819.321492460593,1000,5.92,-1.13,-2.928,100.1,red,271,TRUE
475,1661826368.633,2792.835888199419,-2478.2748598251615,1000,5.345,-0.293,0.106,128.2,yellow,271,TRUE
476,1661826370.887,1165.5590554738553,2497.8870001175874,1000,4.731,-1.342,1.746,106.2,blue,271,TRUE
477,1661826370.985,4952.62350092139,5254.83873595908,1000,6.017,-1.158,-2.826,113.3,red,271,TRUE
478,1661826371.077,2743.4232739537056,-2452.706311945369,1000,5.345,-0.311,0.109,127.3,yellow,271,TRUE
479,1661826374.476,2776.996041001636,-2474.709463044522,1000,5.344,-0.3,0.109,1140.2,yellow,271,TRUE
480,1661826375.789,4968.856877619991,5767.673123944148,1000,4.487,-0.876,-2.557,113.4,red,271,TRUE
481,1661826375.889,2772.6993769609267,-2469.0249907450943,1000,5.342,-0.292,0.111,134.3,yellow,271,TRUE
482,1661826379.288,3330.1564642955345,-1708.5199938105368,1000,5.343,-0.287,0.11,1127.4,yellow,271,TRUE
483,1661826380.53,2281.300534825738,-552.16778612926,1000,3.175,-1.453,0.108,98.9,blue,271,TRUE
484,1661826380.614,5023.791191220624,5794.707833132473,1000,5.916,-1.125,-3.086,104.2,red,271,TRUE
485,1661826380.704,3314.311178056802,-1694.5119222768742,1000,5.343,-0.287,0.111,120.6,yellow,271,TRUE
486,1661826382.943,2313.5325434976867,-303.86715052828214,1000,3.107,-1.427,1.265,120.5,blue,271,TRUE
487,1661826383.04,5052.441701117862,5823.958890747716,1000,4.994,-1.074,-2.757,114.4,red,271,TRUE
488,1661826383.158,2739.8495073764325,-2441.6602549016666,1000,5.342,-0.283,0.11,1101.9,yellow,271,TRUE
489,1661826384.432,2405.1112169900707,-301.7102574361896,1000,3.109,-1.431,1.409,97.8,blue,271,TRUE
490,1661826384.516,4903.046034982847,5720.275050037209,1000,3.659,-1.052,-2.683,104.5,red,271,TRUE
491,1661826384.61,2835.1872749206455,-2487.6884553256496,1000,5.328,-0.458,0.148,115.3,yellow,271,TRUE
492,1661826386.868,2394.7857917062292,-25.93469432937829,1000,3.049,-1.418,1.198,1132.3,blue,271,TRUE
493,1661826387.99,2790.1394892056574,-2457.950088277966,1000,5.352,-0.341,0.106,117.1,yellow,271,TRUE
494,1661826390.235,2491.6170349311915,-9.814408646585441,1000,4.41,-1.275,0.65,119.4,blue,271,TRUE
495,1661826390.363,2759.443617506789,-2305.3474664840587,1000,0.04,-0.559,0.107,1139.5,red,271,TRUE
496,1661826390.363,2782.3470803077007,-2419.692606345772,1000,0.04,-0.559,0.107,1140.5,yellow,271,TRUE
497,1661826390.363,2777.792367808888,-2396.839938772547,1000,0.04,-0.559,0.107,1141.5,yellow,271,TRUE
498,1661826393.663,2456.897122145083,-55.40796389331582,1000,4.316,-1.368,0.767,1126.5,blue,271,TRUE
499,1661826394.78,2767.03381257508,-2394.923995677554,1000,5.351,-0.309,0.11,113.9,yellow,271,TRUE
500,1661826397.01,2584.948623178501,-82.18549809838454,1000,2.267,-1.464,3.054,103.9,blue,271,TRUE
501,1661826397.105,3333.6673254912275,1888.4621868787194,1000,0.782,-1.205,-2.806,98.8,red,271,TRUE
502,1661826397.195,2747.6942097276733,-2385.1993345764513,1000,5.351,-0.305,0.11,99.8,yellow,271,TRUE
503,1661826397.281,3607.237432272343,-2571.584500200897,1000,4.675,-0.777,0.028,118.3,green,271,TRUE
504,1661826397.593,2737.765049048139,-176.28944367566905,1000,1.74,-1.369,2.632,105.7,blue,271,TRUE
505,1661826397.686,3579.393975941839,3356.238464720564,1000,0.814,-1.203,-2.794,103.4,red,271,TRUE
506,1661826397.776,2709.0933251038705,-2364.240926390192,1000,5.351,-0.305,0.11,119.3,yellow,271,TRUE
507,1661826397.87,3492.4776252315437,-2545.272185590569,1000,4.677,-0.76,0.025,100.0,green,271,TRUE
508,1661826398.15,2896.9262698777875,-264.0029738401599,1000,1.565,-1.371,2.628,104.1,blue,271,TRUE
509,1661826398.241,3623.3843638802236,3844.894224878083,1000,0.771,-1.194,-2.799,87.8,red,271,TRUE
510,1661826398.316,2709.5451373766778,-2369.4131402443054,1000,5.351,-0.303,0.11,117.8,yellow,271,TRUE
511,1661826400.547,3016.335474692016,-511.5075286320136,1000,2.353,-1.445,0.954,119.6,blue,271,TRUE
512,1661826400.674,2279.517281227663,-2161.525231723432,1000,0.04,-0.559,0.11,1145.1,red,271,TRUE
513,1661826400.674,2629.583753827395,-2345.509903851302,1000,0.04,-0.559,0.11,1147.0,yellow,271,TRUE
514,1661826400.674,2549.5515415564,-2321.500360434575,1000,0.04,-0.559,0.11,1149.0,yellow,271,TRUE
515,1661826403.952,2919.035764494193,-56.35014188534743,1000,6.06,-1.362,2.266,114.1,blue,271,TRUE
516,1661826404.045,3081.8036075594837,1948.744027181054,1000,0.793,-1.201,-2.844,111.7,red,271,TRUE
517,1661826404.159,2644.2089789407974,-2396.4455073471718,1000,5.352,-0.317,0.11,1093.6,yellow,271,TRUE
518,1661826405.423,2917.254312987277,191.25252773801927,1000,2.365,-1.481,0.079,113.3,blue,271,TRUE
519,1661826405.523,3356.4199272917413,3324.7987131687664,1000,0.791,-1.202,-2.843,118.1,red,271,TRUE
520,1661826405.625,2648.956488734985,-2391.800158845529,1000,5.351,-0.3,0.112,105.6,yellow,271,TRUE
521,1661826405.718,3860.0644695996743,-2175.586284110342,1000,4.681,-0.782,0.033,89.2,green,271,TRUE
522,1661826405.974,2856.624631412394,405.2499835945955,1000,2.314,-1.379,1.377,116.7,blue,271,TRUE
523,1661826406.075,3493.0271109625605,4002.7637744849453,1000,0.803,-1.198,-2.857,106.0,red,271,TRUE
524,1661826406.167,2731.2720289304852,-2454.1494143695413,1000,5.351,-0.297,0.112,118.9,yellow,271,TRUE
525,1661826406.258,3853.8094906751594,-2124.5930193133695,1000,4.681,-0.772,0.034,103.1,green,271,TRUE
526,1661826406.54,2777.9140134991717,499.13441620232743,1000,2.146,-1.405,1.127,105.7,blue,271,TRUE
527,1661826406.632,3582.1178821171256,4421.948967345668,1000,0.809,-1.204,-2.854,103.0,red,271,TRUE
528,1661826406.722,2709.823012643238,-2436.584518079548,1000,5.351,-0.304,0.112,118.3,yellow,271,TRUE
529,1661826406.815,3939.1970093995556,-2140.9426400699454,1000,4.682,-0.759,0.035,131.9,green,271,TRUE
530,1661826407.126,2681.7573646791416,598.8139101580476,1000,1.971,-1.403,1.895,105.7,blue,271,TRUE
531,1661826407.218,3634.7408351692247,4700.99211614144,1000,0.814,-1.21,-2.85,103.7,red,271,TRUE
532,1661826407.308,2694.5573272242755,-2424.110197449853,1000,5.352,-0.322,0.113,117.6,yellow,271,TRUE
533,1661826409.556,2572.5599282715843,683.3174009894934,1000,1.324,-1.496,-0.009,1123.2,blue,271,TRUE
534,1661826410.668,2688.3247401722765,-2418.1784641748513,1000,5.351,-0.305,0.115,115.2,yellow,271,TRUE
535,1661826410.762,4515.550477170303,-1740.7055418749035,1000,4.684,-0.759,0.037,127.4,green,271,TRUE
536,1661826411.955,2573.000173056225,203.816286476065,1000,0.748,-1.526,-3.103,104.4,blue,271,TRUE
537,1661826412.046,3912.7006699635112,6072.7057608040495,1000,0.925,-1.179,-3.026,117.6,red,271,TRUE
538,1661826412.166,2627.282396121067,-2587.366287692633,1000,4.686,-0.779,0.039,1124.4,yellow,271,TRUE
539,1661826412.166,4336.933137946547,-1755.7080553627495,1000,4.686,-0.779,0.039,1126.4,green,271,TRUE
540,1661826412.166,4274.8818211869475,-1789.3703677968088,1000,4.686,-0.779,0.039,1127.3,green,271,TRUE
541,1661826415.524,2880.8989005213525,-2508.813028204904,1000,5.33,-0.433,0.179,1125.0,yellow,271,TRUE
542,1661826416.821,2617.5638374452033,-10.539098048439156,1000,0.567,-1.489,-0.079,99.5,blue,271,TRUE
543,1661826416.909,3895.638979878677,5759.425104394948,1000,2.027,-1.286,-2.637,99.8,red,271,TRUE
544,1661826416.997,2882.0740120200458,-2487.731852563218,1000,5.334,-0.475,0.16,116.7,yellow,271,TRUE
545,1661826419.255,2850.037020858497,1.7831067058517267,1000,0.617,-1.425,1.594,1138.4,blue,271,TRUE
546,1661826420.383,2893.6900823878113,-2499.869597183102,1000,5.351,-0.417,0.154,114.3,yellow,271,TRUE
547,1661826420.478,3635.803107013015,-2163.1694797509067,1000,4.7,-0.785,0.025,94.6,green,271,TRUE
548,1661826420.767,2788.028859943937,30.324873587446913,1000,0.624,-1.428,1.91,105.2,blue,271,TRUE
549,1661826420.86,3735.9309972695914,4811.671589081126,1000,1.415,-1.153,-2.515,100.9,red,271,TRUE
550,1661826420.948,2896.7101110620124,-2507.5428131665913,1000,5.352,-0.413,0.151,118.9,yellow,271,TRUE
551,1661826421.041,4148.297927393626,-1780.287013940355,1000,4.737,-0.785,0.049,86.3,green,271,TRUE
552,1661826421.324,2606.170762153158,65.19576891817987,1000,0.484,-1.502,3.075,103.8,blue,271,TRUE
553,1661826421.415,3579.312901804526,3846.6197166879374,1000,1.664,-1.247,-2.704,101.7,red,271,TRUE
554,1661826421.505,2894.964977799654,-2505.248698738759,1000,5.352,-0.413,0.151,133.1,yellow,271,TRUE
555,1661826424.885,2966.5584705887827,-2509.3277797224823,1000,5.358,-0.392,0.143,1120.5,yellow,271,TRUE
556,1661826426.232,2394.280853714539,3492.2185893914225,1000,3.614,-1.463,3.066,1093.3,blue,271,TRUE
557,1661826427.312,2904.8384504426226,-2509.4619604629875,1000,5.361,-0.382,0.142,103.9,yellow,271,TRUE
558,1661826427.404,4029.224604884744,-1777.9030133052083,1000,4.72,-0.783,0.05,87.8,green,271,TRUE
559,1661826427.671,2724.9707088197383,3723.887178042916,1000,3.584,-1.442,2.283,103.0,blue,271,TRUE
560,1661826427.76,3361.1688576168804,2867.602367534943,1000,0.804,-1.16,-2.654,105.0,red,271,TRUE
561,1661826427.854,2878.771235788076,-2512.936162855023,1000,5.363,-0.382,0.142,101.4,yellow,271,TRUE
562,1661826427.942,3445.677469779422,-2156.7842967263878,1000,4.721,-0.773,0.049,87.8,green,271,TRUE
563,1661826428.196,2778.8452394870164,3787.154145322462,1000,3.598,-1.443,2.235,103.8,blue,271,TRUE
564,1661826428.287,3154.3338256697366,1896.0313792235745,1000,0.671,-1.145,-2.585,102.8,red,271,TRUE
565,1661826428.378,2850.923186793429,-2494.69828527768,1000,5.363,-0.395,0.145,101.6,yellow,271,TRUE
566,1661826428.465,3507.684893498594,-2157.1830643275794,1000,4.724,-0.769,0.048,118.6,green,271,TRUE
567,1661826428.765,2860.5629507387175,3825.2519613977415,1000,3.596,-1.443,2.213,105.6,blue,271,TRUE
568,1661826428.857,2912.703260204283,939.3712463858225,1000,0.807,-1.083,-2.928,102.2,red,271,TRUE
569,1661826428.946,2835.685496397967,-2481.2304978770194,1000,5.361,-0.408,0.152,103.1,yellow,271,TRUE
570,1661826429.039,3489.1527662770827,-2151.3122828725477,1000,4.724,-0.77,0.05,86.3,green,271,TRUE
571,1661826429.292,2893.031346849135,3817.633455666511,1000,3.6,-1.433,2.295,104.8,blue,271,TRUE
572,1661826429.385,2703.4267943093746,292.4552961370409,1000,0.749,-1.216,-2.905,103.4,red,271,TRUE
573,1661826429.474,2832.132503281417,-2486.354660627176,1000,5.364,-0.397,0.146,118.7,yellow,271,TRUE
574,1661826429.576,3583.3603199069516,-2175.861952958961,1000,4.724,-0.776,0.051,90.8,green,271,TRUE
575,1661826431.905,2628.4586254691944,-2385.699304224069,1000,5.369,-0.388,0.142,1135.5,yellow,271,TRUE
576,1661826435.262,2621.378828009387,-2388.0155786743094,1000,5.363,-0.44,0.155,1123.4,yellow,271,TRUE
577,1661826438.603,2705.797672129499,-2451.044920247418,1000,5.381,-0.403,0.165,1121.9,yellow,271,TRUE
578,1661826439.92,2927.4469125663895,3843.908797759366,1000,3.746,-1.442,2.039,89.8,blue,271,TRUE
579,1661826439.997,2648.8740874143386,256.12578698678175,1000,0.562,-1.172,-2.797,102.7,red,271,TRUE
580,1661826440.089,2712.3185535067346,-2449.6300979323055,1000,5.388,-0.387,0.153,116.4,yellow,271,TRUE
581,1661826440.176,3078.553024349398,-2564.5026748610617,1000,4.748,-0.794,0.059,103.1,green,271,TRUE
582,1661826440.445,3042.7547689132716,3941.7044621820473,1000,3.747,-1.444,2.011,104.1,blue,271,TRUE
583,1661826440.533,2589.821271139342,243.386317271468,1000,0.564,-1.176,-2.796,121.6,red,271,TRUE
584,1661826440.638,2712.492913444252,-2445.660661213411,1000,5.39,-0.388,0.154,105.7,yellow,271,TRUE
585,1661826440.73,3204.8262647849424,-2566.368049074663,1000,4.753,-0.777,0.059,118.7,green,271,TRUE
586,1661826441.015,3050.477176622329,3956.6577422160785,1000,3.758,-1.449,1.893,105.1,blue,271,TRUE
587,1661826441.107,2588.962961382455,225.2839119767409,1000,0.575,-1.175,-2.803,101.7,red,271,TRUE
588,1661826441.196,2695.627219381499,-2429.3804311190206,1000,5.392,-0.381,0.152,117.6,yellow,271,TRUE
589,1661826441.286,3295.0754179117357,-2592.5841121804465,1000,4.754,-0.776,0.057,102.7,green,271,TRUE
590,1661826441.567,3077.0465167200878,3949.8986202823057,1000,3.758,-1.449,1.827,105.7,blue,271,TRUE
591,1661826441.66,2585.489012948972,203.9917978572154,1000,0.58,-1.172,-2.808,117.7,red,271,TRUE
592,1661826445.018,2597.53067403843,148.106096559473,1000,0.599,-1.169,-2.82,1118.9,red,271,TRUE
593,1661826446.127,3335.8309804115265,-2566.6455408615516,1000,4.663,-0.772,0.023,114.7,green,271,TRUE
594,1661826446.409,2765.641905658394,3691.071993122152,1000,3.84,-1.439,0.868,101.8,blue,271,TRUE
