,timestamp,x,y,z,yaw,roll,pitch,latency,student,session,success
0,1661840214.138,2273.5492225343496,1968.845448948106,1000,3.647,-1.446,-1.984,124.9,blue,274,TRUE
1,1661840218.97,2477.5564613650076,2673.4902614510843,1000,2.488,-1.456,-3.054,1172.8,blue,274,TRUE
2,1661840220.143,6583.838377759644,142.45736934791347,1000,5.236,-0.43,0.179,157.7,green,274,TRUE
3,1661840220.379,2535.314428504673,2960.8649196597394,1000,2.607,-1.494,-0.074,109.3,blue,274,TRUE
4,1661840220.472,2446.512323349711,3334.9096304088657,1000,3.901,-1.277,2.466,93.8,red,274,TRUE
5,1661840220.566,6599.831906739813,127.63598923048067,1000,5.233,-0.42,0.176,78.1,green,274,TRUE
6,1661840220.754,2544.6334789970424,3128.7482476451673,1000,2.643,-1.432,-2.355,124.8,blue,274,TRUE
7,1661840220.863,2562.209881332707,3382.0939593074354,1000,3.854,-1.289,2.493,109.4,red,274,TRUE
8,1661840220.988,6601.658667589614,155.45335545581034,1000,5.243,-0.416,0.176,78.1,green,274,TRUE
9,1661840221.144,2568.7597887976103,3267.7268279820623,1000,2.742,-1.44,-2.448,109.3,blue,274,TRUE
10,1661840221.238,2605.377203379278,3379.7200665985706,1000,3.767,-1.283,2.554,95.1,red,274,TRUE
11,1661840221.364,-1405.4464182864906,909.1022335388952,1000,6.069,0.358,-0.022,1109.1,green,274,TRUE
12,1661840222.458,2678.798082537616,3840.995279174507,1000,2.526,-1.462,-3.035,109.4,blue,274,TRUE
13,1661840222.551,2629.227126942767,3421.346749019112,1000,3.675,-1.274,2.357,157.6,red,274,TRUE
14,1661840222.896,2690.3318357854355,3874.2311544903205,1000,2.56,-1.466,-3.041,109.3,blue,274,TRUE
15,1661840222.99,2640.8497592730846,3374.107558987334,1000,3.635,-1.302,2.417,93.4,red,274,TRUE
16,1661840223.084,2823.8606340056026,-2612.2698233206083,1000,5.201,-0.533,0.178,94.1,green,274,TRUE
17,1661840223.271,2638.4902841018243,3815.3908115795343,1000,2.582,-1.44,-2.319,109.4,blue,274,TRUE
18,1661840223.365,2659.883547882869,3342.3716982468395,1000,3.631,-1.263,2.495,93.8,red,274,TRUE
19,1661840223.459,2618.8185984071024,-2547.8483406518844,1000,5.189,-0.502,0.158,109.3,green,274,TRUE
20,1661840223.662,2645.137150906676,3824.7223913668045,1000,2.56,-1.446,-2.282,124.6,blue,274,TRUE
21,1661840223.803,3012.375180163078,-2749.470171037203,1000,5.18,-0.497,0.156,1142.1,red,274,TRUE
22,1661840223.803,2750.3071857390587,-2614.9633613809824,1000,5.18,-0.497,0.156,1142.1,green,274,TRUE
23,1661840223.803,2816.0577730912937,-2648.498560341118,1000,5.18,-0.497,0.156,1142.1,green,274,TRUE
24,1661840225.977,2660.4178701574315,3939.3252232541527,1000,2.731,-1.458,-0.107,1173.1,blue,274,TRUE
25,1661840227.15,2850.5368470220556,-2644.0782965726385,1000,5.065,-0.404,-0.02,156.1,green,274,TRUE
26,1661840228.402,2911.6406628722752,331.95260423847435,1000,3.725,-1.252,2.441,156.2,red,274,TRUE
27,1661840228.573,2840.1461776938286,-2647.1039066104768,1000,5.063,-0.411,-0.007,156.6,green,274,TRUE
28,1661840228.808,2694.3459464264674,3956.3747366623193,1000,2.698,-1.458,-0.106,109.4,blue,274,TRUE
29,1661840228.902,2847.3217968230542,1313.759941251162,1000,3.728,-1.25,2.458,109.3,red,274,TRUE
30,1661840229.026,2831.063893415347,-2656.2310537409267,1000,5.067,-0.415,-0.005,93.7,green,274,TRUE
31,1661840229.214,2737.6029161867923,4001.394807675509,1000,2.705,-1.466,-0.099,109.3,blue,274,TRUE
32,1661840229.308,2830.310463353397,1803.3075818126135,1000,3.728,-1.254,2.45,93.7,red,274,TRUE
33,1661840229.417,2899.1910365676836,-2680.6616749970544,1000,5.068,-0.425,0.003,94.1,green,274,TRUE
34,1661840229.62,2737.1932054669574,4017.123289866218,1000,2.687,-1.474,-3.045,109.4,blue,274,TRUE
35,1661840229.714,2807.3307605572454,2083.472460419706,1000,3.726,-1.253,2.454,156.3,red,274,TRUE
36,1661840229.87,2863.5125994656278,-2664.898174892955,1000,5.067,-0.428,0.004,93.4,green,274,TRUE
37,1661840230.073,2803.8444223666174,4077.658224929782,1000,2.662,-1.475,-3.046,109.4,blue,274,TRUE
38,1661840230.167,2759.6691589480147,2260.168980809501,1000,3.725,-1.254,2.454,93.8,red,274,TRUE
39,1661840230.465,2673.4547507073303,3801.9944248112597,1000,2.656,-1.477,-3.049,1110.7,blue,274,TRUE
40,1661840231.576,2811.327526534376,-2622.0675825178914,1000,5.068,-0.427,0.005,156.1,green,274,TRUE
41,1661840231.826,2683.8439190100235,3813.25512775853,1000,2.581,-1.468,-0.095,109.3,blue,274,TRUE
42,1661840231.92,2710.0475007402015,3293.208058785654,1000,3.689,-1.281,2.369,109.4,red,274,TRUE
43,1661840232.045,2832.5700538492883,-2636.4115914855342,1000,5.068,-0.427,0.005,93.7,green,274,TRUE
44,1661840232.216,2680.8190160426702,3846.446754976218,1000,2.585,-1.468,-0.097,124.9,blue,274,TRUE
45,1661840232.341,3044.0423438062603,-2791.209739473524,1000,5.068,-0.425,0.005,1171.3,red,274,TRUE
46,1661840232.341,2903.1973655168895,-2687.921490381865,1000,5.068,-0.425,0.005,1171.3,green,274,TRUE
47,1661840232.341,2938.904972236489,-2713.6755910293687,1000,5.068,-0.425,0.005,1171.3,green,274,TRUE
48,1661840233.64,2492.607683926232,3521.917176245551,1000,2.522,-1.46,-3.041,1140.3,blue,274,TRUE
49,1661840234.78,2922.2360346747946,-2700.741428494591,1000,5.067,-0.423,0.005,157.8,green,274,TRUE
50,1661840235.047,2574.1573783774347,3711.4837246872976,1000,2.39,-1.419,-1.932,125.0,blue,274,TRUE
51,1661840235.156,2829.6962117846842,265.66501130683105,1000,3.691,-1.244,2.472,78.0,red,274,TRUE
52,1661840235.235,2903.1660569681376,-2692.5599045552462,1000,5.07,-0.424,0.007,110.7,green,274,TRUE
53,1661840235.47,2633.2053283084106,3869.2564213038154,1000,2.392,-1.421,-1.942,1126.3,blue,274,TRUE
54,1661840236.597,2906.382778547497,-2692.8510837749795,1000,5.07,-0.428,0.007,156.2,green,274,TRUE
55,1661840237.8,2612.8652336840228,3601.4280190602412,1000,2.39,-1.425,-1.918,1157.3,blue,274,TRUE
56,1661840238.957,2899.6141513378047,-2690.04751830499,1000,5.07,-0.43,0.004,157.4,green,274,TRUE
57,1661840239.224,2638.465153167246,3707.6827520343377,1000,2.388,-1.429,-1.913,109.3,blue,274,TRUE
58,1661840239.318,2786.3316445951023,1293.8530684971595,1000,3.68,-1.235,2.51,93.7,red,274,TRUE
59,1661840239.427,2843.4995093760986,-2667.6969189776923,1000,5.07,-0.43,0.001,94.0,green,274,TRUE
60,1661840239.63,2661.085943936552,3765.643810458524,1000,2.399,-1.43,-1.886,109.0,blue,274,TRUE
61,1661840239.724,2738.3822718405872,1784.853638811639,1000,3.674,-1.235,2.514,93.8,red,274,TRUE
62,1661840239.818,2802.842613693858,-2643.56907594754,1000,5.07,-0.429,0.002,93.7,green,274,TRUE
63,1661840240.021,2648.76864484258,3792.2045385676734,1000,2.403,-1.431,-1.873,124.9,blue,274,TRUE
64,1661840240.13,2686.014367822353,2040.2962877075806,1000,3.672,-1.242,2.496,157.4,red,274,TRUE
65,1661840240.287,2785.734096824042,-2645.4221684116906,1000,5.07,-0.431,0.002,156.5,green,274,TRUE
66,1661840240.553,2653.291223547836,3779.302444401088,1000,2.413,-1.438,-1.834,109.3,blue,274,TRUE
67,1661840240.647,2647.3573890351327,2223.8882511695074,1000,3.683,-1.246,2.475,93.7,red,274,TRUE
68,1661840240.741,2761.7437197860204,-2645.2897192799105,1000,5.069,-0.433,0.001,93.4,green,274,TRUE
69,1661840240.913,2665.428907072834,3775.6653939517782,1000,2.424,-1.438,-1.834,124.9,blue,274,TRUE
70,1661840241.022,2545.9009918267925,3203.4212616487343,1000,3.68,-1.254,2.445,93.8,red,274,TRUE
71,1661840241.131,2749.0873346157155,-2652.9057654832177,1000,5.069,-0.433,0.0,93.7,green,274,TRUE
72,1661840242.32,2539.7653756318177,3166.146590046328,1000,3.654,-1.253,2.461,156.2,red,274,TRUE
73,1661840242.476,2754.8847317643845,-2651.0518531228217,1000,5.067,-0.44,0.004,156.2,green,274,TRUE
74,1661840242.726,2675.122830150336,3842.8583827128746,1000,2.412,-1.44,-1.836,109.0,blue,274,TRUE
75,1661840242.82,2511.787630048214,3159.398583200226,1000,3.651,-1.251,2.47,93.7,red,274,TRUE
76,1661840242.929,2767.861235810186,-2645.0610335922925,1000,5.067,-0.44,0.005,94.0,green,274,TRUE
77,1661840244.085,3587.996597530195,3355.416549504024,1000,2.425,-1.44,-1.766,1173.1,blue,274,TRUE
78,1661840246.386,3510.4385862779473,3307.640123510164,1000,2.441,-1.451,-1.894,1188.8,blue,274,TRUE
79,1661840247.668,2744.715426273867,-2661.327840004402,1000,5.064,-0.441,0.004,1048.3,green,274,TRUE
80,1661840248.701,3491.9830130909127,3260.358990765277,1000,2.561,-1.438,-1.43,109.4,blue,274,TRUE
81,1661840248.794,2589.5294714764236,3210.613440529969,1000,3.666,-1.261,2.438,156.5,red,274,TRUE
82,1661840248.951,2768.9772342946317,-2649.2605144769923,1000,5.064,-0.446,0.005,156.3,green,274,TRUE
83,1661840249.217,3451.3958058247135,3236.21081020456,1000,2.521,-1.438,-1.625,109.3,blue,274,TRUE
84,1661840249.31,2643.137520245032,3236.090374467336,1000,3.674,-1.264,2.431,93.4,red,274,TRUE
85,1661840249.404,2804.2370079452025,-2641.400836352793,1000,5.061,-0.447,0.005,93.9,green,274,TRUE
86,1661840252.847,3529.946093998747,3235.1654732570846,1000,2.544,-1.438,-1.791,1173.1,blue,274,TRUE
87,1661840254.035,2807.211900343796,-2638.0628919205456,1000,5.06,-0.43,0.0,156.5,green,274,TRUE
88,1661840255.239,3538.6086684418283,3205.0456702307006,1000,2.51,-1.437,-1.808,1188.6,blue,274,TRUE
89,1661840256.427,2776.445013105722,-2638.1573387913318,1000,5.057,-0.427,0.0,156.3,green,274,TRUE
90,1661840266.785,-62.80725442234287,5195.752899695301,1000,4.872,-1.485,-0.072,1173.3,blue,274,TRUE
91,1661840267.959,2582.7281505376973,-2635.308757882776,1000,5.051,-0.442,0.015,156.1,green,274,TRUE
92,1661840269.161,907.9266539910839,6052.882269469912,1000,4.626,-1.512,-3.083,1188.4,blue,274,TRUE
93,1661840270.35,2611.217219998958,-2646.781410670451,1000,5.044,-0.445,0.013,156.6,green,274,TRUE
94,1661840271.553,1144.7118286674959,6215.635978429059,1000,4.646,-1.52,-3.09,1172.9,blue,274,TRUE
95,1661840272.726,2646.9070862934905,-2648.514216039799,1000,5.042,-0.44,0.022,156.5,green,274,TRUE
96,1661840273.915,1340.8881281377385,6323.076716193342,1000,4.72,-1.533,-3.106,1157.6,blue,274,TRUE
97,1661840275.166,3027.245998946632,-2624.631319948286,1000,5.036,-0.382,0.015,1050.0,green,274,TRUE
98,1661840276.201,1485.3336773039523,6403.453537890846,1000,4.661,-1.526,-3.103,109.4,blue,274,TRUE
99,1661840276.294,2591.8669753466124,3828.800234226066,1000,4.439,-1.259,2.418,171.8,red,274,TRUE
100,1661840276.466,2855.3484425471415,-2600.1817028090927,1000,5.034,-0.397,0.016,156.2,green,274,TRUE
101,1661840277.669,1574.105127817382,6411.787495019847,1000,4.669,-1.533,-3.106,1157.6,blue,274,TRUE
102,1661840280.045,1887.1529199016704,6675.472765087149,1000,4.72,-1.53,-0.031,109.6,blue,274,TRUE
103,1661840280.139,2559.829711205579,4439.659928413306,1000,4.431,-1.286,2.356,156.3,red,274,TRUE
104,1661840281.498,1917.5106580916365,6615.337414265087,1000,4.659,-1.523,-0.046,109.3,blue,274,TRUE
105,1661840281.591,2494.7059012656287,5047.251125411495,1000,4.394,-1.29,2.343,156.1,red,274,TRUE
106,1661840282.935,2001.7501169115628,6611.408655079506,1000,4.709,-1.526,-0.035,125.0,blue,274,TRUE
107,1661840284.341,2025.8971390408885,6622.671240859755,1000,4.694,-1.532,-0.037,125.2,blue,274,TRUE
108,1661840284.45,2113.365977868515,6783.598063849275,1000,4.415,-1.274,2.414,156.6,red,274,TRUE
109,1661840285.825,2021.1260286742054,6637.759610999415,1000,4.704,-1.535,-0.034,124.9,blue,274,TRUE
110,1661840285.934,2013.383564624421,6898.188967649625,1000,4.37,-1.283,2.379,156.2,red,274,TRUE
111,1661840287.277,2003.7236876512895,6678.706476935072,1000,4.703,-1.536,-0.033,109.4,blue,274,TRUE
112,1661840287.371,2072.555713431693,6802.095211542371,1000,4.373,-1.286,2.333,156.2,red,274,TRUE
113,1661840288.714,2106.8282085557635,6669.890165980046,1000,5.364,-1.541,-3.121,109.4,blue,274,TRUE
114,1661840288.809,2137.0105843319216,6859.86572319076,1000,4.363,-1.284,2.363,156.1,red,274,TRUE
115,1661840290.171,2099.799360757546,6722.004868696244,1000,4.743,-1.515,-0.053,124.8,blue,274,TRUE
116,1661840290.28,2160.564560960231,6899.52964290336,1000,4.352,-1.297,2.367,156.5,red,274,TRUE
117,1661840291.623,2061.8792583829713,6773.287392168458,1000,4.686,-1.524,-0.045,125.1,blue,274,TRUE
118,1661840291.717,2174.6651440519836,6866.792663441163,1000,4.387,-1.287,2.439,109.6,red,274,TRUE
119,1661840293.014,2031.6741430408547,6709.084031601448,1000,4.64,-1.371,-0.203,109.4,blue,274,TRUE
120,1661840293.107,2212.172321559441,6854.073723147812,1000,4.387,-1.28,2.37,156.2,red,274,TRUE
121,1661840294.466,1971.0329347876634,6533.072808935717,1000,3.283,-1.439,-1.246,124.8,blue,274,TRUE
122,1661840294.654,2758.5686745639928,-2604.070736874403,1000,5.041,-0.359,0.022,78.4,green,274,TRUE
123,1661840294.794,1920.8904237873392,6369.801346534318,1000,3.336,-1.464,-0.101,109.1,blue,274,TRUE
124,1661840294.888,2302.6721511482488,6749.704100346524,1000,3.821,-1.227,2.586,109.3,red,274,TRUE
125,1661840296.2,1776.7750952912227,6189.144895406685,1000,3.563,-1.493,-3.072,125.3,blue,274,TRUE
126,1661840297.577,1865.029173767655,6042.861947934645,1000,0.652,-1.509,-0.061,124.7,blue,274,TRUE
127,1661840297.686,2507.3001352382216,6730.959011676729,1000,2.699,-1.166,2.637,156.5,red,274,TRUE
128,1661840299.046,1975.0934963015231,5829.408736109032,1000,0.771,-1.431,-1.953,109.1,blue,274,TRUE
129,1661840299.14,2611.5568037718654,6424.850522344555,1000,2.04,-1.205,2.541,156.2,red,274,TRUE
130,1661840300.499,2207.179477942422,5592.154511862452,1000,1.354,-1.501,-0.063,125.1,blue,274,TRUE
131,1661840301.889,2546.899088107912,5326.156539835196,1000,1.947,-1.478,-0.036,140.9,blue,274,TRUE
132,1661840302.108,2758.81449684034,-2602.8856116322877,1000,5.032,-0.356,0.024,109.6,green,274,TRUE
133,1661840302.28,2950.1218471769876,4981.522877109991,1000,1.824,-1.551,3.122,109.4,blue,274,TRUE
134,1661840302.374,4126.201760054049,4135.442013269426,1000,2.304,-1.217,2.76,109.1,red,274,TRUE
135,1661840303.702,3558.6650616446054,4574.340508913178,1000,1.272,-1.508,0.004,124.9,blue,274,TRUE
136,1661840303.811,4663.599455454876,3936.935455695301,1000,1.664,-1.18,2.633,156.2,red,274,TRUE
137,1661840305.17,4210.271463258574,3979.964563860958,1000,1.503,-1.546,-0.015,125.0,blue,274,TRUE
138,1661840305.357,2724.1715878129053,-2604.870621919198,1000,5.029,-0.352,0.025,109.2,green,274,TRUE
139,1661840305.545,4823.363958010068,3524.4836673988516,1000,1.992,-1.511,3.124,109.2,blue,274,TRUE
140,1661840305.639,6948.820680162078,2913.8666735012393,1000,2.164,-1.078,2.806,93.6,red,274,TRUE
141,1661840306.935,5252.648117464948,3188.261250999772,1000,2.414,-1.527,-0.016,125.0,blue,274,TRUE
142,1661840308.325,5609.529491109486,2914.7024083894903,1000,2.321,-1.492,-3.063,125.0,blue,274,TRUE
143,1661840309.731,5942.824838969634,2708.4950014298242,1000,2.028,-1.496,-3.087,124.9,blue,274,TRUE
144,1661840311.123,6060.181595984749,2589.350647226924,1000,2.04,-1.477,-3.114,109.3,blue,274,TRUE
145,1661840311.217,6247.776545827379,2881.1702907063527,1000,2.679,-0.869,2.839,156.0,red,274,TRUE
146,1661840312.576,5985.434213864566,2464.319739032766,1000,2.191,-1.484,-3.094,109.0,blue,274,TRUE
147,1661840312.67,6402.181983709052,2869.266282011069,1000,2.629,-0.937,2.773,156.3,red,274,TRUE
148,1661840314.041,5922.914143135694,2338.283571350897,1000,2.546,-1.458,3.031,109.4,blue,274,TRUE
149,1661840314.135,6367.66510675669,2859.6492927371096,1000,2.605,-0.928,2.786,155.9,red,274,TRUE
150,1661840315.528,5767.724822674468,3083.797104093298,1000,2.606,-0.923,2.771,1142.2,blue,274,TRUE
151,1661840315.528,6228.47685536677,2933.5241733427733,1000,2.606,-0.923,2.771,1142.2,red,274,TRUE
152,1661840315.528,6137.878240012162,2954.4847826403075,1000,2.606,-0.923,2.771,1142.2,red,274,TRUE
153,1661840317.861,5925.823894035211,3022.8756475656883,1000,2.356,-1.533,-3.112,124.7,blue,274,TRUE
154,1661840317.97,6191.511186702203,2927.9942213108993,1000,2.666,-0.921,2.778,172.1,red,274,TRUE
155,1661840319.331,5920.868569701613,2909.9920296611185,1000,2.332,-1.53,-3.112,124.7,blue,274,TRUE
156,1661840320.721,5895.881855845744,2803.2630984276648,1000,2.373,-1.533,-3.111,124.9,blue,274,TRUE
157,1661840320.862,6158.433867712198,2683.6773535848515,1000,2.538,-0.88,2.855,1095.0,red,274,TRUE
158,1661840323.145,5858.637510196868,2759.5974181023644,1000,2.082,-1.472,-3.05,109.5,blue,274,TRUE
159,1661840323.239,6326.885023389523,2784.6974946217206,1000,2.389,-0.878,2.923,125.2,red,274,TRUE
160,1661840325.614,6310.208574731041,2786.851335714818,1000,2.553,-0.933,2.882,124.9,red,274,TRUE
161,1661840327.959,6434.392181687076,2144.759670626335,1000,2.622,-0.922,2.871,125.0,red,274,TRUE
162,1661840330.336,6398.857560054077,2300.8063238641807,1000,2.652,-1.199,2.64,125.3,red,274,TRUE
163,1661840331.712,5578.066576111997,2854.036502974506,1000,4.496,-1.511,-0.039,109.1,blue,274,TRUE
164,1661840331.806,6395.662151923928,2411.7614619862416,1000,2.691,-1.189,2.686,124.9,red,274,TRUE
165,1661840333.276,3946.669989873335,2414.330313496511,1000,2.457,-1.493,3.098,1110.7,blue,274,TRUE
166,1661840339.012,5116.026954747755,1582.3149588637975,1000,5.426,-1.335,-2.356,125.0,blue,274,TRUE
167,1661840339.137,5375.516221647235,1850.5095769439693,1000,2.521,-1.173,2.735,1140.4,red,274,TRUE
168,1661840343.857,6624.522745998598,1186.1324115508494,1000,5.95,-1.491,-3.064,1096.4,blue,274,TRUE
169,1661840347.187,6704.066605796836,1275.6827294759264,1000,5.628,-1.444,-2.537,1156.0,blue,274,TRUE
170,1661840350.562,6510.807253105561,1131.3596102603728,1000,5.447,-1.253,-2.634,1171.9,blue,274,TRUE
171,1661840353.938,6332.353078464783,1072.5544835805442,1000,4.773,-1.469,-3.084,1157.7,blue,274,TRUE
172,1661840357.302,6129.728459458265,930.939805341815,1000,0.16,-1.529,-3.132,1156.2,blue,274,TRUE
173,1661840360.676,5827.831734250555,1019.2737167062411,1000,5.453,-1.453,-3.121,1155.6,blue,274,TRUE
174,1661840364.066,5182.41732033757,829.0248012030238,1000,3.51,-1.468,-3.101,1155.9,blue,274,TRUE
175,1661840366.44,4616.348815475377,438.25387173972695,1000,1.822,-1.444,-1.486,125.0,blue,274,TRUE
176,1661840366.581,4852.2268620689,3466.422491537064,1000,1.406,-1.114,2.691,1109.1,red,274,TRUE
177,1661840367.831,4046.468907283146,166.13108294036365,1000,2.541,-1.479,-0.081,109.4,blue,274,TRUE
178,1661840367.924,5607.145367471305,3269.1734405601374,1000,1.832,-1.18,2.678,125.0,red,274,TRUE
179,1661840369.299,3517.03142754484,-103.85654499704522,1000,2.807,-1.516,-0.039,125.1,blue,274,TRUE
180,1661840371.675,3152.4534392444,-280.13063030162317,1000,2.206,-1.477,-3.048,111.1,blue,274,TRUE
181,1661840371.77,5990.819550147328,3067.723978381033,1000,2.173,-1.136,2.446,156.4,red,274,TRUE
182,1661840372.067,2950.3303130781715,-636.9928817788197,1000,2.224,-1.484,-3.054,109.3,blue,274,TRUE
183,1661840372.161,6058.046330969628,2964.729931472405,1000,2.437,-1.153,2.542,93.8,red,274,TRUE
184,1661840372.364,3001.4702977659217,-746.1631584653288,1000,2.164,-1.475,-3.047,124.7,blue,274,TRUE
185,1661840372.647,2943.7612419704346,-697.542830221007,1000,1.828,-1.429,-1.666,124.7,blue,274,TRUE
186,1661840372.756,6053.77118460725,2614.700264850311,1000,2.207,-1.145,2.874,93.6,red,274,TRUE
187,1661840372.959,2961.562400786395,-606.7003315701746,1000,1.593,-1.438,-1.481,125.0,blue,274,TRUE
188,1661840373.256,3033.243576303967,-554.3233329218955,1000,1.54,-1.443,-1.371,111.1,blue,274,TRUE
189,1661840373.351,6493.046454677545,2459.503412089448,1000,2.344,-1.137,2.695,156.0,red,274,TRUE
190,1661840373.679,3037.7226714464596,-538.3705913547672,1000,1.511,-1.442,-1.263,109.4,blue,274,TRUE
191,1661840373.773,6306.450395477107,2529.419251112968,1000,2.449,-1.125,2.777,94.0,red,274,TRUE
192,1661840373.96,3009.5265898338625,-543.3070745825818,1000,1.623,-1.45,-1.119,109.4,blue,274,TRUE
193,1661840374.054,6111.4034092109905,2550.971659338234,1000,2.31,-1.1,2.905,109.1,red,274,TRUE
194,1661840374.273,2987.539274734101,-533.0297927188321,1000,1.73,-1.444,-0.875,109.3,blue,274,TRUE
195,1661840374.367,6047.197012257822,2576.517369896139,1000,2.325,-1.094,2.891,93.7,red,274,TRUE
196,1661840374.632,2915.901894987673,-443.88416148076107,1000,1.526,-1.478,-0.089,125.1,blue,274,TRUE
197,1661840374.742,6015.337989645602,2575.2224402189886,1000,2.297,-1.113,2.846,156.2,red,274,TRUE
198,1661840375.04,2891.550943515083,-381.04121104611914,1000,1.128,-1.453,-0.116,109.4,blue,274,TRUE
199,1661840375.134,5999.877863774457,2552.617506286783,1000,2.283,-1.122,2.831,93.8,red,274,TRUE
200,1661840375.352,2805.1405273553614,-292.8316821387106,1000,1.045,-1.474,-3.045,124.7,blue,274,TRUE
201,1661840375.509,6071.882550528094,2274.629315841241,1000,2.254,-1.112,2.829,1062.2,red,274,TRUE
202,1661840376.555,2712.5267585140364,-125.42944001808273,1000,1.368,-1.517,-3.095,93.7,blue,274,TRUE
203,1661840376.633,6077.358186933303,1979.6853602305478,1000,2.549,-1.097,2.855,171.8,red,274,TRUE
204,1661840377.008,2678.129653779359,-8.065964109147487,1000,1.512,-1.532,-0.037,124.6,blue,274,TRUE
205,1661840377.164,5886.8968645831665,2066.3783733235846,1000,2.606,-1.196,2.773,1062.5,red,274,TRUE
206,1661840378.211,2600.265684908344,144.0368005407984,1000,1.079,-1.5,-3.076,93.7,blue,274,TRUE
207,1661840378.289,5836.516355294354,2170.1082658975247,1000,2.505,-1.193,2.796,156.1,red,274,TRUE
208,1661840378.664,2617.5247662674024,193.85397420652362,1000,1.417,-1.542,-3.126,126.3,blue,274,TRUE
209,1661840378.775,5876.520934918987,2167.7025519235226,1000,2.388,-1.224,2.722,93.8,red,274,TRUE
210,1661840378.962,2707.426534001295,63.73634313085197,1000,2.327,-1.513,0.048,109.4,blue,274,TRUE
211,1661840379.056,5977.605936487366,2170.1389069883653,1000,2.356,-1.251,2.646,93.5,red,274,TRUE
212,1661840379.275,2697.7410767215047,-21.674051809339137,1000,2.897,-1.513,0.036,110.7,blue,274,TRUE
213,1661840379.37,6044.008615382486,2204.138349149944,1000,2.345,-1.251,2.614,93.7,red,274,TRUE
214,1661840379.573,2723.2992860972013,-162.49405264729253,1000,3.023,-1.477,0.049,124.9,blue,274,TRUE
215,1661840379.682,6039.404206619306,2263.580477060239,1000,2.37,-1.237,2.641,172.0,red,274,TRUE
216,1661840380.168,-1601.7030389631614,2995.0824381013995,1000,1.621,0.423,-0.032,1095.0,blue,274,TRUE
217,1661840381.247,828.5557752184941,1252.3356770126557,1000,2.127,-1.43,-3.134,109.1,blue,274,TRUE
218,1661840381.341,6028.103364127728,2537.2390023457133,1000,2.962,-1.064,2.619,155.9,red,274,TRUE
219,1661840381.732,1466.7377560331,658.07453106509,1000,2.028,-1.394,-2.569,93.8,blue,274,TRUE
220,1661840381.81,5688.473563432205,2636.8038952801985,1000,3.622,-1.032,2.542,93.8,red,274,TRUE
221,1661840382.216,3313.871546925905,-712.5350030865679,1000,1.886,-1.37,-2.401,109.1,blue,274,TRUE
222,1661840382.309,5380.335301009915,3278.974822642925,1000,4.136,-1.122,2.551,94.0,red,274,TRUE
223,1661840382.513,3150.327336151375,-504.41582847926486,1000,1.326,-1.365,-2.382,125.0,blue,274,TRUE
224,1661840382.622,5225.880878813201,3267.580598078127,1000,4.106,-1.089,2.417,109.3,red,274,TRUE
225,1661840382.856,3092.249054753372,-108.80059352347855,1000,0.608,-1.353,-2.127,109.4,blue,274,TRUE
226,1661840382.95,5110.705759443818,3220.173184157091,1000,3.414,-1.042,2.464,156.2,red,274,TRUE
227,1661840383.341,2903.927667384189,897.1956058508028,1000,0.236,-1.473,-3.106,1126.1,blue,274,TRUE
228,1661840387.11,4534.487660239701,1031.739565037677,1000,5.149,-1.186,-2.262,126.5,blue,274,TRUE
229,1661840387.22,5077.8333105485235,3197.6505690595827,1000,1.476,-1.164,2.656,156.2,red,274,TRUE
230,1661840387.533,5040.972992917259,1035.5389751073255,1000,5.353,-1.203,-2.429,126.5,blue,274,TRUE
231,1661840387.644,5059.653904423807,3183.8880129748272,1000,1.472,-1.162,2.663,93.7,red,274,TRUE
232,1661840387.894,6074.650453156833,1210.0666375803664,1000,5.405,-1.241,-2.424,1126.2,blue,274,TRUE
233,1661840389.239,6124.639822152573,1363.4800497083875,1000,5.433,-1.528,-3.102,125.0,blue,274,TRUE
234,1661840389.348,5045.145369827508,3163.65325873835,1000,1.502,-1.142,2.681,93.7,red,274,TRUE
235,1661840389.551,6200.3341113487595,1267.867185583792,1000,5.488,-1.477,-3.12,125.0,blue,274,TRUE
236,1661840389.66,4976.418468132158,3132.595918712445,1000,1.508,-1.15,2.674,93.7,red,274,TRUE
237,1661840389.879,6266.533727779076,1217.5780131137662,1000,5.553,-1.502,-3.081,109.4,blue,274,TRUE
238,1661840389.973,4976.589510627554,3111.60437645107,1000,1.55,-1.133,2.634,93.7,red,274,TRUE
239,1661840390.113,6359.467964736888,1214.2013290834464,1000,5.632,-1.497,-0.073,109.3,blue,274,TRUE
240,1661840390.207,5001.05001311181,3095.705585193273,1000,1.491,-1.152,2.596,156.2,red,274,TRUE
241,1661840390.566,6421.914721686701,1232.0481099482072,1000,5.592,-1.424,-1.556,109.4,blue,274,TRUE
242,1661840390.66,4991.902914401049,3072.1156173390814,1000,1.466,-1.203,2.454,109.3,red,274,TRUE
243,1661840390.894,6636.4099932724685,1295.0119054068007,1000,5.631,-1.434,-1.469,109.7,blue,274,TRUE
244,1661840390.988,4990.271040372171,3059.6214348546505,1000,1.419,-1.218,2.446,93.7,red,274,TRUE
245,1661840392.177,4996.223940330536,3083.1274552437667,1000,1.449,-1.189,2.543,157.8,red,274,TRUE
246,1661840392.538,6820.954448436313,1204.0156638601375,1000,5.933,-1.362,-1.537,109.4,blue,274,TRUE
247,1661840392.631,5006.678041992916,3089.298798669058,1000,1.437,-1.205,2.52,109.0,red,274,TRUE
248,1661840396.196,6835.743218886307,1358.0341003134756,1000,5.406,-1.474,-3.077,1173.3,blue,274,TRUE
249,1661840397.572,6786.129364144591,1418.1269451998398,1000,5.465,-1.47,3.097,109.4,blue,274,TRUE
250,1661840397.666,5007.217145017567,3073.85882595096,1000,1.388,-1.221,2.486,93.6,red,274,TRUE
251,1661840397.9,6719.5843586684205,1390.1931568572463,1000,5.553,-1.414,2.513,109.4,blue,274,TRUE
252,1661840397.994,5015.0225638792435,3075.018084645469,1000,1.389,-1.22,2.489,93.7,red,274,TRUE
253,1661840399.135,6829.221439518157,1325.6925965378744,1000,5.726,-1.518,-3.093,1159.1,blue,274,TRUE
254,1661840403.874,6727.698956279984,1355.1241653009356,1000,5.665,-1.472,-3.057,1188.8,blue,274,TRUE
255,1661840418.183,5722.465674887169,1124.4889250061103,1000,5.605,-1.538,-3.109,1173.2,blue,274,TRUE
256,1661840422.875,5776.740031001801,1132.512070115022,1000,5.379,-1.517,-3.133,1173.3,blue,274,TRUE
257,1661840425.207,6656.0633580805215,1228.2769752652941,1000,5.594,-1.564,-0.002,1173.4,blue,274,TRUE
258,1661840428.663,5626.947662913226,-33.745382353746244,1000,4.857,-0.185,0.136,1172.7,yellow,274,TRUE
259,1661840432.009,5750.468589826677,-222.1184402116614,1000,4.851,-0.218,0.173,1159.1,yellow,274,TRUE
260,1661840437.562,5096.6508626063505,867.9869249249148,1000,4.068,-1.478,-3.06,1126.5,blue,274,TRUE
261,1661840438.673,5523.254068512141,-821.0093902576727,1000,4.848,-0.211,0.139,140.5,yellow,274,TRUE
262,1661840441.019,5157.726383954174,-1250.0893570493238,1000,4.851,-0.205,0.137,1171.7,yellow,274,TRUE
263,1661840442.285,3861.6148562620847,92.80074562188668,1000,3.16,-1.504,-3.079,125.2,blue,274,TRUE
264,1661840442.411,5700.143335976033,1959.9167304881164,1000,1.857,-1.246,2.619,1110.6,red,274,TRUE
265,1661840443.693,3301.329125314879,-494.38926486495274,1000,2.155,-1.501,-0.06,1093.4,blue,274,TRUE
266,1661840444.771,4988.183748824602,-1704.219514751606,1000,4.853,-0.217,0.139,157.7,yellow,274,TRUE
267,1661840445.085,3351.4071988444903,-449.60235482989015,1000,1.885,-1.526,-0.031,109.3,blue,274,TRUE
268,1661840445.179,5683.384173440395,2183.4906621926866,1000,1.9,-1.26,2.476,109.4,red,274,TRUE
269,1661840445.272,4638.034495967659,-2126.172793498216,1000,4.855,-0.225,0.148,78.1,yellow,274,TRUE
270,1661840445.46,3391.1222594356823,-484.71741117508265,1000,2.021,-1.517,-0.012,125.0,blue,274,TRUE
271,1661840446.586,4214.654139149495,-2787.7139380907006,1000,4.855,-0.224,0.146,1159.1,yellow,274,TRUE
272,1661840447.777,2173.6774707450068,358.08112003168594,1000,1.306,0.252,-0.207,93.7,blue,274,TRUE
273,1661840447.855,5791.280626756674,2173.492879511079,1000,1.885,-1.272,2.49,109.3,red,274,TRUE
274,1661840447.948,4487.387632819122,-2779.341708113718,1000,4.855,-0.224,0.145,140.6,yellow,274,TRUE
275,1661840448.198,2428.6447822677737,134.87541306320117,1000,1.995,-1.5,-0.046,109.4,blue,274,TRUE
276,1661840448.292,5853.1832647364245,2165.1292614447148,1000,1.876,-1.264,2.51,125.0,red,274,TRUE
277,1661840448.542,2598.035575975961,-4.458867942089436,1000,1.977,-1.498,-0.046,124.9,blue,274,TRUE
278,1661840448.651,5850.583109604418,2195.59113151739,1000,1.882,-1.256,2.512,109.4,red,274,TRUE
279,1661840448.745,4546.4448757404425,-2871.2333870380007,1000,4.855,-0.225,0.145,93.8,yellow,274,TRUE
280,1661840448.95,2620.366451505462,-25.636517880273686,1000,1.989,-1.5,-0.046,140.6,blue,274,TRUE
281,1661840449.059,5863.02191996318,2223.810723761753,1000,1.89,-1.248,2.505,125.0,red,274,TRUE
282,1661840449.168,4502.947665440708,-2858.824067750679,1000,4.855,-0.225,0.145,78.0,yellow,274,TRUE
283,1661840449.403,2640.3462607765946,-71.09424708596133,1000,1.982,-1.502,-0.046,125.0,blue,274,TRUE
284,1661840449.512,5909.462717627565,2290.1369077590784,1000,1.906,-1.25,2.479,124.9,red,274,TRUE
285,1661840449.621,4506.993960664496,-2858.597116379989,1000,4.855,-0.225,0.145,140.3,yellow,274,TRUE
286,1661840449.856,2649.027386205667,-90.6768919209163,1000,1.98,-1.498,-0.046,109.4,blue,274,TRUE
287,1661840449.949,5991.071500589372,2265.5894456134597,1000,1.911,-1.259,2.451,125.0,red,274,TRUE
288,1661840450.059,4539.924824233101,-2866.6056288972277,1000,4.855,-0.225,0.145,93.7,yellow,274,TRUE
289,1661840450.246,3482.0706240273853,-675.8329893372334,1000,1.984,-1.499,-0.045,125.0,blue,274,TRUE
290,1661840452.628,3469.6748984935293,-576.0534830410916,1000,1.634,-1.509,-0.047,109.3,blue,274,TRUE
291,1661840452.721,5975.42438779708,2243.8055031244576,1000,2.032,-1.269,2.388,109.4,red,274,TRUE
292,1661840452.815,4554.7420058066555,-2842.3601580345576,1000,4.855,-0.225,0.145,155.9,yellow,274,TRUE
293,1661840453.08,3469.1524823353125,-546.908872221648,1000,1.638,-1.528,-0.032,109.4,blue,274,TRUE
294,1661840453.174,5954.644273969828,2334.267312768084,1000,2.674,-1.127,2.68,110.5,red,274,TRUE
295,1661840453.269,4569.397660374156,-2854.117498937055,1000,4.855,-0.225,0.145,78.1,yellow,274,TRUE
296,1661840453.456,3477.9039535267743,-524.3695042560555,1000,1.623,-1.534,-0.027,125.0,blue,274,TRUE
297,1661840453.566,5963.953710170554,2391.5713366319906,1000,2.985,-1.233,2.599,125.3,red,274,TRUE
298,1661840453.675,4573.586925260535,-2850.7138668821112,1000,4.855,-0.225,0.145,78.3,yellow,274,TRUE
299,1661840453.785,3490.7131193334776,-474.2631415194103,1000,1.617,-1.532,-0.032,126.7,blue,274,TRUE
300,1661840453.896,5915.499207783879,2436.834933421637,1000,3.178,-1.145,2.877,124.9,red,274,TRUE
301,1661840454.005,4567.277597426173,-2848.0962896559013,1000,4.855,-0.225,0.145,93.7,yellow,274,TRUE
302,1661840454.257,3490.085309178526,-473.7553322256536,1000,1.82,-1.505,-0.033,110.5,blue,274,TRUE
303,1661840454.35,5834.896674688138,2545.1666421828704,1000,3.899,-1.137,2.609,126.4,red,274,TRUE
304,1661840454.461,4562.6086033223055,-2852.9594613533927,1000,4.855,-0.225,0.145,156.5,yellow,274,TRUE
305,1661840454.742,3388.8906245805356,-416.8490217316994,1000,2.75,-1.534,0.035,109.0,blue,274,TRUE
306,1661840454.836,5641.769791029031,2751.1764361842565,1000,4.174,-1.212,2.703,109.3,red,274,TRUE
307,1661840454.93,4569.396541606637,-2855.2168655095643,1000,4.855,-0.223,0.145,93.7,yellow,274,TRUE
308,1661840455.149,3311.0385442552792,-520.356741558803,1000,2.687,-1.529,3.118,124.7,blue,274,TRUE
309,1661840455.273,4612.046599751019,3710.249112833104,1000,4.241,-1.263,2.854,1126.9,red,274,TRUE
310,1661840456.494,3216.6327403252403,-254.6929601202631,1000,0.499,-1.405,-2.009,125.0,blue,274,TRUE
311,1661840456.603,3680.605318958552,4107.689306197841,1000,4.345,-1.286,2.519,125.1,red,274,TRUE
312,1661840456.713,4574.829974915354,-2857.091353532045,1000,4.855,-0.224,0.145,78.0,yellow,274,TRUE
313,1661840456.869,3093.5367383850225,11.412372737119085,1000,6.197,-1.51,-3.131,125.0,blue,274,TRUE
314,1661840456.978,3296.1923619276427,4185.760681881968,1000,4.178,-1.239,2.459,126.5,red,274,TRUE
315,1661840457.088,4576.065451190447,-2851.182314297661,1000,4.855,-0.226,0.145,95.1,yellow,274,TRUE
316,1661840457.276,3056.408775194204,345.62994427079667,1000,6.007,-1.517,-3.09,109.7,blue,274,TRUE
317,1661840457.37,2992.523900428696,4204.530844491532,1000,3.883,-1.142,2.62,109.3,red,274,TRUE
318,1661840457.464,4581.657116414296,-2854.2935693900613,1000,4.855,-0.226,0.145,93.7,yellow,274,TRUE
319,1661840458.621,3114.365333527787,884.4062452126777,1000,0.359,-1.418,-2.037,1140.4,blue,274,TRUE
320,1661840459.746,4586.9249185537265,-2864.194676091449,1000,4.855,-0.225,0.143,142.2,yellow,274,TRUE
321,1661840462.11,4564.204515781158,-2875.5197207642564,1000,4.855,-0.228,0.143,1159.1,yellow,274,TRUE
322,1661840463.394,5754.257501783676,2344.7149172221293,1000,3.178,-1.509,3.12,1095.1,blue,274,TRUE
323,1661840464.473,4654.6913837907005,-2898.215222595447,1000,4.854,-0.228,0.142,140.5,yellow,274,TRUE
324,1661840468.069,5754.557955170653,2441.244938161474,1000,2.501,-1.497,-3.13,125.3,blue,274,TRUE
325,1661840468.178,3463.4085543202223,3765.3975740809155,1000,2.83,-0.848,2.781,125.3,red,274,TRUE
326,1661840468.444,5737.511952164376,2479.764406726846,1000,2.441,-1.509,-3.122,109.7,blue,274,TRUE
327,1661840468.538,3775.691754046266,3514.8758119627114,1000,2.833,-0.856,2.769,125.1,red,274,TRUE
328,1661840468.647,957.4362307770652,-816.6189646988175,1000,4.695,-1.301,-0.545,109.3,yellow,274,TRUE
329,1661840470.959,1525.169841285635,-326.5348556145129,1000,6.133,-1.292,-0.626,1189.1,yellow,274,TRUE
330,1661840473.179,6012.675274194942,1962.3960969152388,1000,3.414,-1.49,0.037,1140.7,blue,274,TRUE
331,1661840474.304,2101.3592711088877,204.99508959897204,1000,6.084,-1.364,-0.68,140.6,yellow,274,TRUE
332,1661840474.429,2657.361909762132,-2088.1237981901095,1000,0.626,-1.524,0.004,156.2,green,274,TRUE
333,1661840478.121,4118.398422502206,1863.6915848020228,1000,1.548,-1.518,-3.134,1079.4,blue,274,TRUE
334,1661840479.184,2452.7043134381584,487.5516924963687,1000,5.832,-1.39,-0.344,109.4,yellow,274,TRUE
335,1661840479.278,2719.2523801305783,-1358.0431393475749,1000,0.326,-1.469,0.094,171.9,green,274,TRUE
336,1661840480.497,3919.144077597598,2040.5912341473386,1000,1.517,-1.52,3.136,1156.8,blue,274,TRUE
337,1661840481.638,2679.1004371173563,568.842099053001,1000,5.821,-1.389,-0.713,125.3,yellow,274,TRUE
338,1661840481.747,2807.2335103870487,-673.3646334025935,1000,0.176,-1.5,0.043,172.1,green,274,TRUE
339,1661840484.092,3076.629628982482,627.9552659003976,1000,5.781,-1.388,-0.676,1190.1,yellow,274,TRUE
340,1661840488.739,3814.872368595444,3230.9305812948237,1000,3.416,-0.746,2.642,109.4,red,274,TRUE
341,1661840488.833,3524.4377753351873,984.1432062819857,1000,5.767,-1.398,-0.74,124.9,yellow,274,TRUE
342,1661840488.943,2924.625388337161,29.771992803865675,1000,0.211,-1.516,0.044,93.8,green,274,TRUE
343,1661840490.069,3422.0142991618854,2304.2076657254393,1000,1.475,-1.54,-3.134,1141.9,blue,274,TRUE
344,1661840491.195,3755.9150040129625,1174.2690581139263,1000,5.761,-1.398,-0.728,124.9,yellow,274,TRUE
345,1661840491.46,3755.86544149371,2025.6632003196646,1000,1.462,-1.482,-3.106,109.4,blue,274,TRUE
346,1661840491.554,4251.195346802408,2807.2301481414856,1000,3.6,-0.731,2.637,109.4,red,274,TRUE
347,1661840491.648,3801.1132702864575,1151.1594627628463,1000,5.76,-1.385,-0.687,109.4,yellow,274,TRUE
348,1661840491.742,3570.302850338487,1819.1296008961585,1000,0.405,-1.54,3.139,93.7,green,274,TRUE
349,1661840491.945,3982.8620482242736,1997.4809200729244,1000,1.551,-1.536,-3.124,109.1,blue,274,TRUE
350,1661840492.038,4712.055493486558,2420.5943760012524,1000,3.614,-0.731,2.634,109.7,red,274,TRUE
351,1661840492.132,3797.314762249292,1113.5141791523704,1000,5.772,-1.39,-0.729,109.3,yellow,274,TRUE
352,1661840492.226,3655.5874726870584,1786.418561851236,1000,0.554,-1.538,0.022,93.6,green,274,TRUE
353,1661840492.398,4012.117314518705,1965.075785420539,1000,1.537,-1.511,-3.125,109.3,blue,274,TRUE
354,1661840492.491,5256.699040226967,2043.4837788574148,1000,3.632,-0.732,2.629,110.6,red,274,TRUE
355,1661840492.586,3778.0980389942874,1167.0523636387004,1000,5.773,-1.389,-0.732,109.3,yellow,274,TRUE
356,1661840492.68,3667.4532251374785,1828.5844562370949,1000,0.591,-1.541,3.118,156.2,green,274,TRUE
357,1661840494.994,3570.449727613896,1243.5919489914068,1000,5.792,-1.379,-0.788,1202.8,yellow,274,TRUE
358,1661840497.229,4245.327119256854,2027.0251928737293,1000,1.466,-1.45,-2.367,1145.3,blue,274,TRUE
359,1661840498.359,3702.034466200435,1359.490453426157,1000,0.012,-1.322,-0.784,124.9,yellow,274,TRUE
360,1661840499.594,4113.158968907178,2201.9146296405333,1000,0.868,-1.52,-3.102,1157.5,blue,274,TRUE
361,1661840500.736,3835.306789673084,1351.9512443475464,1000,6.138,-1.364,-0.773,109.3,yellow,274,TRUE
362,1661840505.304,4460.621713790212,2142.607529666615,1000,1.972,-1.44,3.088,1126.0,blue,274,TRUE
363,1661840506.414,4124.381515494378,1533.6682027042846,1000,6.058,-1.383,-0.865,125.0,yellow,274,TRUE
364,1661840506.602,5599.101660021792,1840.529961559839,1000,0.567,-1.46,0.083,1048.1,green,274,TRUE
365,1661840507.634,4746.648208835269,2240.259020798577,1000,1.926,-1.418,-2.757,109.4,blue,274,TRUE
366,1661840507.728,5255.905665714166,2180.717176024374,1000,1.498,-1.302,2.397,124.9,red,274,TRUE
367,1661840507.837,3773.9717756472855,1665.3920106165665,1000,5.068,-1.398,-1.528,126.5,yellow,274,TRUE
368,1661840507.931,5481.554195584669,1688.9506393094896,1000,0.576,-1.462,0.08,173.1,green,274,TRUE
369,1661840510.291,4165.989608037299,2346.3252055869825,1000,0.05,-1.377,-0.685,1171.3,yellow,274,TRUE
370,1661840512.495,5202.275755429251,2059.568026503001,1000,2.185,-1.547,3.141,1126.3,blue,274,TRUE
371,1661840513.606,4290.114511028994,2605.8302031680128,1000,0.021,-1.385,-0.984,125.0,yellow,274,TRUE
372,1661840513.794,6204.194051400744,-681.8735111629626,1000,0.496,-1.472,0.024,1048.0,green,274,TRUE
373,1661840514.826,5483.362127236768,2053.4413841762093,1000,2.105,-1.537,3.139,109.4,blue,274,TRUE
374,1661840514.92,5295.211897539996,2234.9729093432416,1000,1.93,-1.137,2.499,124.9,red,274,TRUE
375,1661840515.045,4898.759497255102,3499.670787632942,1000,0.041,-1.385,-0.985,1126.3,yellow,274,TRUE
376,1661840517.203,5576.730595004355,2040.4812617979053,1000,2.01,-1.534,-3.125,1127.9,blue,274,TRUE
377,1661840518.316,4778.079882746975,3494.351334974037,1000,0.59,-1.52,-0.05,126.1,yellow,274,TRUE
378,1661840518.505,5021.5626397177175,1122.930090580396,1000,5.84,-1.511,0.057,1062.3,green,274,TRUE
379,1661840519.551,5944.495956624184,1857.2245916277082,1000,1.979,-1.546,-3.12,109.4,blue,274,TRUE
380,1661840519.645,5370.905760564452,2286.7223178185827,1000,2.074,-0.989,2.851,125.0,red,274,TRUE
381,1661840519.77,4583.544387031193,973.1026097713926,1000,5.592,-1.491,0.031,1127.9,yellow,274,TRUE
382,1661840519.77,4801.951863371983,1048.5750374911868,1000,5.592,-1.491,0.031,1127.9,green,274,TRUE
383,1661840519.77,6263.849212033495,1071.1720547379716,1000,5.592,-1.491,0.031,1127.9,green,274,TRUE
384,1661840521.008,5969.499059987158,1896.4050204365465,1000,1.941,-1.509,-3.099,1095.0,blue,274,TRUE
385,1661840522.087,4489.247430808442,1577.3298694196665,1000,0.98,-1.416,-0.471,93.7,yellow,274,TRUE
386,1661840522.165,6116.757882380178,993.4867722715197,1000,0.737,-1.529,-0.002,156.3,green,274,TRUE
387,1661840523.355,5978.270453180242,2015.4287290153925,1000,1.969,-1.511,-3.101,1141.8,blue,274,TRUE
388,1661840524.482,4573.000752308513,1855.2388694708695,1000,0.35,-1.398,-1.434,125.0,yellow,274,TRUE
389,1661840524.591,5897.955006862765,1063.747030353315,1000,0.585,-1.497,0.044,172.2,green,274,TRUE
390,1661840525.809,5965.089460084749,2039.1609964359639,1000,1.96,-1.521,-3.101,1141.9,blue,274,TRUE
391,1661840526.936,4579.444331437601,1987.8410898489574,1000,0.469,-1.43,-0.609,125.0,yellow,274,TRUE
392,1661840529.312,4595.265646002783,2113.899055561148,1000,0.183,-1.353,-0.906,1190.0,yellow,274,TRUE
393,1661840531.534,5558.3788829939085,2320.5156084896676,1000,4.202,-1.527,0.025,1141.9,blue,274,TRUE
394,1661840532.66,4696.278540128732,2253.5861480327726,1000,0.483,-1.422,-0.853,125.0,yellow,274,TRUE
395,1661840532.754,4862.068951858532,1432.222508366397,1000,6.004,-1.48,-0.037,171.6,green,274,TRUE
396,1661840535.099,4954.910296316831,2586.4693713059596,1000,1.232,-1.38,-0.765,1173.3,yellow,274,TRUE
397,1661840537.334,5627.348630776988,2073.285342991757,1000,5.447,-1.331,-0.457,1142.0,blue,274,TRUE
398,1661840538.46,5102.907934299183,2651.9779921034133,1000,2.635,-1.329,-0.696,125.4,yellow,274,TRUE
399,1661840538.648,5266.46896605841,2241.5506814422733,1000,0.012,-1.676,0.035,1095.1,green,274,TRUE
400,1661840539.728,5718.264154307155,1992.2317891461905,1000,4.921,-1.533,-0.026,109.4,blue,274,TRUE
401,1661840539.821,5301.498725388941,2452.76826870332,1000,2.051,-1.199,2.496,125.0,red,274,TRUE
402,1661840539.93,5035.887195863444,2724.8100594354387,1000,4.566,-1.277,-0.839,109.7,yellow,274,TRUE
403,1661840540.024,5191.883057307857,2014.5277924927545,1000,0.566,-1.475,0.046,156.2,green,274,TRUE
404,1661840540.26,5704.488667049333,1936.5594124030658,1000,4.616,-1.497,-0.069,125.0,blue,274,TRUE
405,1661840540.37,5247.651729781246,2532.7448171483156,1000,2.182,-1.333,2.387,125.1,red,274,TRUE
406,1661840540.495,4453.276377831473,2992.5068141430215,1000,5.796,-1.388,-1.621,1141.4,yellow,274,TRUE
407,1661840541.73,5651.385525109587,1866.952533812433,1000,4.747,-1.487,-3.062,109.3,blue,274,TRUE
408,1661840541.824,5188.79461852837,2657.3223507162324,1000,2.411,-1.319,2.063,126.2,red,274,TRUE
409,1661840541.934,4455.461505063449,2857.7107411140287,1000,0.53,-1.4,-0.731,109.3,yellow,274,TRUE
410,1661840542.028,5163.1085738616985,1909.7477735487803,1000,0.695,-1.467,0.058,93.7,green,274,TRUE
411,1661840542.2,5624.988072811855,1740.8733624117237,1000,4.701,-1.491,-3.063,125.1,blue,274,TRUE
412,1661840542.309,5232.362060942952,2598.238332128381,1000,2.126,-1.308,2.509,126.5,red,274,TRUE
413,1661840542.42,4537.707495904386,2842.1829370204737,1000,0.616,-1.414,-0.951,109.4,yellow,274,TRUE
414,1661840542.514,5100.851343723214,1777.9467843846637,1000,0.699,-1.452,0.065,93.6,green,274,TRUE
415,1661840542.701,5909.3798578413125,1454.2760389922412,1000,5.141,-1.491,3.099,124.9,blue,274,TRUE
416,1661840542.811,5297.724758421816,2584.154105908315,1000,2.395,-1.203,2.495,125.0,red,274,TRUE
417,1661840542.92,4560.6635418661035,2834.3021339847883,1000,0.672,-1.419,-0.922,110.7,yellow,274,TRUE
418,1661840543.015,5068.103104188883,1706.0580105375532,1000,0.726,-1.456,0.05,156.2,green,274,TRUE
419,1661840543.249,5999.920033551914,1438.2793049209351,1000,5.498,-1.488,3.105,124.9,blue,274,TRUE
420,1661840543.359,5404.075581078229,2602.190598025741,1000,2.381,-1.172,2.416,125.0,red,274,TRUE
421,1661840543.468,4563.468688188963,2818.692484576234,1000,0.695,-1.439,-0.98,109.3,yellow,274,TRUE
422,1661840543.562,5052.066043994578,1681.2552888676921,1000,0.617,-1.465,0.029,93.6,green,274,TRUE
423,1661840543.78,5545.002532262014,2515.4103337673314,1000,2.327,-1.175,2.409,125.0,red,274,TRUE
424,1661840543.89,4587.767654286152,2827.1822210958003,1000,0.774,-1.466,-0.067,140.7,yellow,274,TRUE
425,1661840543.999,4983.388932251613,1585.2104304317866,1000,0.6,-1.46,0.034,93.6,green,274,TRUE
426,1661840544.171,6207.622969698131,876.6117363854507,1000,5.388,-1.513,3.106,109.3,blue,274,TRUE
427,1661840544.265,5713.5178354790905,2532.643748000066,1000,2.266,-1.168,2.452,126.6,red,274,TRUE
428,1661840544.376,4731.275643910726,2834.6920902966904,1000,0.862,-1.457,-0.053,125.0,yellow,274,TRUE
429,1661840545.594,6225.87381447194,1083.0760922484624,1000,5.24,-1.541,3.115,124.9,blue,274,TRUE
430,1661840545.719,5818.009302867629,2236.22444886143,1000,2.95,-1.196,2.437,1093.5,red,274,TRUE
431,1661840546.797,4965.556957351214,1515.4101094798425,1000,0.552,-1.489,0.026,156.2,green,274,TRUE
432,1661840547.047,6256.306644219342,1168.0324960225366,1000,5.21,-1.535,3.107,110.8,blue,274,TRUE
433,1661840547.142,5573.950896713139,2525.562455722861,1000,3.701,-1.341,2.266,109.3,red,274,TRUE
434,1661840547.236,4847.416015121961,2831.5414641432785,1000,1.154,-1.421,-0.647,109.3,yellow,274,TRUE
435,1661840547.33,4984.8500891856265,1439.9808660687586,1000,0.554,-1.488,0.026,109.3,green,274,TRUE
436,1661840547.533,6254.250880737667,1177.3534589153282,1000,5.226,-1.533,3.107,109.4,blue,274,TRUE
437,1661840547.626,5570.764120234842,2601.968846737585,1000,3.572,-1.362,2.162,125.0,red,274,TRUE
438,1661840547.751,4887.24811175899,2841.347757390849,1000,1.062,-1.407,-0.651,1127.9,yellow,274,TRUE
439,1661840548.973,6234.404477975919,1177.282092689816,1000,5.245,-1.494,3.113,109.7,blue,274,TRUE
440,1661840549.067,5452.526154276323,2605.4067359812675,1000,3.743,-1.276,2.357,109.3,red,274,TRUE
441,1661840549.16,4885.73201798699,2802.659446300202,1000,1.168,-1.393,-0.759,109.4,yellow,274,TRUE
442,1661840549.254,4957.37271812767,1457.3850099632043,1000,0.369,-1.491,3.063,93.8,green,274,TRUE
443,1661840549.442,6217.477205168468,1092.8510279738364,1000,5.27,-1.344,3.082,109.4,blue,274,TRUE
444,1661840549.535,5417.640636339791,2615.7886032488977,1000,3.675,-1.272,2.367,109.3,red,274,TRUE
445,1661840549.629,4883.391729681519,2775.7367516380637,1000,1.282,-1.421,-0.597,109.4,yellow,274,TRUE
446,1661840549.723,4962.7377331099,1512.378661793242,1000,0.697,-1.422,0.506,95.3,green,274,TRUE
447,1661840549.928,6228.961274481998,1135.0690284664481,1000,5.283,-1.334,-3.123,125.1,blue,274,TRUE
448,1661840550.021,5467.727800469155,2602.360629889587,1000,3.602,-1.28,2.395,109.4,red,274,TRUE
449,1661840550.115,4910.87096704768,2762.681573756294,1000,1.259,-1.424,-0.68,109.3,yellow,274,TRUE
450,1661840550.209,4920.2546596071115,1535.7907178593368,1000,0.673,-1.392,0.677,156.2,green,274,TRUE
451,1661840550.49,6180.771043449182,1129.711622812921,1000,5.307,-1.328,3.132,109.4,blue,274,TRUE
452,1661840550.584,5434.333412472882,2672.0192013615547,1000,3.581,-1.277,2.411,109.3,red,274,TRUE
453,1661840550.677,4866.247588136847,2747.0848205636257,1000,1.328,-1.46,-0.076,109.4,yellow,274,TRUE
454,1661840550.771,4911.685162684888,1548.6538971900288,1000,0.725,-1.393,0.709,93.7,green,274,TRUE
455,1661840550.974,6119.62098384623,1100.8057740313052,1000,5.259,-1.366,-3.093,109.4,blue,274,TRUE
456,1661840551.068,5491.162727394617,2641.301930972835,1000,3.56,-1.284,2.399,111.0,red,274,TRUE
457,1661840551.163,4837.17421873365,2741.2208065984946,1000,1.341,-1.454,-0.069,109.4,yellow,274,TRUE
458,1661840551.257,4897.694901833176,1582.4788227990884,1000,0.725,-1.424,0.627,93.7,green,274,TRUE
459,1661840551.46,6102.196775460924,1103.129121600569,1000,5.154,-1.428,-3.017,109.4,blue,274,TRUE
460,1661840551.554,5520.833203528546,2619.0442770909012,1000,3.532,-1.288,2.402,109.4,red,274,TRUE
461,1661840551.648,4864.694095154257,2701.4699337007282,1000,1.451,-1.482,-0.076,109.3,yellow,274,TRUE
462,1661840551.741,4801.748459246227,1640.4866911268853,1000,0.658,-1.414,0.444,156.2,green,274,TRUE
463,1661840552.007,6123.103073555324,1091.0043719956852,1000,5.139,-1.46,-3.131,109.3,blue,274,TRUE
464,1661840552.101,5645.3827162825755,2626.7386986078013,1000,3.528,-1.29,2.407,109.4,red,274,TRUE
465,1661840552.194,4821.973622294682,2612.3524324774035,1000,1.762,-1.504,-0.058,109.3,yellow,274,TRUE
466,1661840552.288,4795.072752704272,1661.388747286176,1000,0.567,-1.419,0.372,93.7,green,274,TRUE
467,1661840552.491,6145.44707576785,1238.886748886767,1000,5.153,-1.485,-3.133,109.4,blue,274,TRUE
468,1661840552.585,5710.079371304535,2623.590589973292,1000,3.524,-1.286,2.417,124.9,red,274,TRUE
469,1661840552.71,4119.837330675779,2853.8061404923037,1000,1.846,-1.407,-0.696,1126.3,yellow,274,TRUE
470,1661840553.931,6142.7481679735165,1247.4010155359017,1000,5.682,-1.54,0.022,109.6,blue,274,TRUE
471,1661840554.025,5643.879713228162,2649.8435670277527,1000,3.504,-1.287,2.338,109.3,red,274,TRUE
472,1661840554.119,4202.982504762407,2676.4319847293937,1000,1.383,-1.422,-0.648,111.0,yellow,274,TRUE
473,1661840554.214,4387.8867306602515,1360.2648520104997,1000,3.265,-1.465,0.084,93.8,green,274,TRUE
474,1661840554.418,6176.128366613058,1213.339441903807,1000,5.169,-1.501,0.001,126.3,blue,274,TRUE
475,1661840554.544,5427.689874802033,2539.1252078411558,1000,3.421,-1.276,2.388,1079.5,red,274,TRUE
476,1661840555.608,4130.288793532884,971.4318436855948,1000,2.313,-1.426,-0.052,156.1,green,274,TRUE
477,1661840555.92,6214.767906156726,1246.5509787697063,1000,5.449,-1.517,-0.004,1079.0,blue,274,TRUE
478,1661840556.984,4375.783837024192,2678.7311941664016,1000,0.785,-1.441,-0.773,109.4,yellow,274,TRUE
479,1661840557.077,3859.529442529713,573.6698296535689,1000,2.493,-1.452,0.038,156.1,green,274,TRUE
480,1661840557.265,6632.455824886278,1358.0274275055972,1000,5.854,-1.51,-0.012,93.8,blue,274,TRUE
481,1661840557.343,5480.336653774888,2577.743935064467,1000,3.377,-1.305,2.41,125.0,red,274,TRUE
482,1661840557.452,4456.0233140146265,2680.5764844281866,1000,0.808,-1.451,-0.081,109.4,yellow,274,TRUE
483,1661840557.546,3552.329388091095,224.72576506495352,1000,2.535,-1.454,0.041,93.7,green,274,TRUE
484,1661840557.733,6677.362653043576,1408.9511993892156,1000,5.773,-1.514,-0.021,109.3,blue,274,TRUE
485,1661840557.827,5456.255855694224,2539.452312985092,1000,3.418,-1.283,2.431,109.4,red,274,TRUE
486,1661840557.921,4520.852269925955,2690.2652237897482,1000,0.862,-1.453,-0.081,142.2,yellow,274,TRUE
487,1661840558.032,3310.2136207777535,-148.4888915227462,1000,2.513,-1.453,0.04,109.4,green,274,TRUE
488,1661840558.235,6656.364024050377,1404.3141262542563,1000,5.671,-1.53,0.002,109.4,blue,274,TRUE
489,1661840558.329,5440.477891892948,2526.941622823861,1000,3.438,-1.297,2.537,124.9,red,274,TRUE
490,1661840558.438,4565.308975569403,2698.4581293129927,1000,0.767,-1.437,-0.724,124.9,yellow,274,TRUE
491,1661840558.532,3062.9315012143466,-549.3057144259186,1000,2.544,-1.461,0.041,156.2,green,274,TRUE
492,1661840558.782,6597.856160274886,1349.5559748884266,1000,5.483,-1.522,-0.019,109.3,blue,274,TRUE
493,1661840558.875,5442.489994792171,2523.9735166859928,1000,3.293,-1.161,2.546,124.9,red,274,TRUE
494,1661840558.985,4613.918716227742,2679.440862863014,1000,0.749,-1.436,-0.814,124.7,yellow,274,TRUE
495,1661840559.094,3149.442912467526,-622.2234523474591,1000,2.527,-1.463,0.037,93.7,green,274,TRUE
496,1661840559.282,6554.962761644368,1331.739454833091,1000,5.467,-1.513,-0.031,110.9,blue,274,TRUE
497,1661840559.377,5459.214231104191,2486.0560105317045,1000,2.902,-1.133,2.719,125.0,red,274,TRUE
498,1661840559.486,4679.784350543948,2729.741935349518,1000,0.747,-1.439,-0.838,125.1,yellow,274,TRUE
499,1661840559.58,3124.152131154177,-595.4128822526567,1000,2.525,-1.466,0.036,93.7,green,274,TRUE
500,1661840559.767,6566.669785630152,1346.9813457317541,1000,5.48,-1.502,-0.032,109.3,blue,274,TRUE
501,1661840559.861,5512.367034132253,2459.4224512304595,1000,2.858,-1.15,2.784,109.4,red,274,TRUE
502,1661840559.955,4684.6140894273385,2751.289695211202,1000,0.792,-1.446,-0.849,125.0,yellow,274,TRUE
503,1661840560.064,3103.839051459539,-566.4457507279905,1000,2.526,-1.467,0.036,156.3,green,274,TRUE
504,1661840560.314,6492.49320921862,1291.6257527228627,1000,5.705,-1.521,0.0,109.4,blue,274,TRUE
505,1661840560.408,5529.253006215459,2450.461159657058,1000,2.933,-1.15,2.771,109.3,red,274,TRUE
506,1661840560.502,4682.555651285378,2764.0389337210254,1000,0.788,-1.473,-0.081,109.3,yellow,274,TRUE
507,1661840560.595,3109.255257133827,-571.5109761642226,1000,2.525,-1.468,0.036,95.0,green,274,TRUE
508,1661840560.784,6468.931638612738,1184.9112532587535,1000,5.865,-1.481,-0.019,109.4,blue,274,TRUE
509,1661840560.878,5501.031704139282,2422.136825769055,1000,3.077,-1.168,2.763,124.9,red,274,TRUE
510,1661840560.987,4670.617209846444,2774.59899015324,1000,0.728,-1.446,-0.677,125.0,yellow,274,TRUE
511,1661840561.097,3101.945727117607,-564.3353604564463,1000,2.525,-1.47,0.036,109.3,green,274,TRUE
512,1661840561.284,6492.018342670722,1149.5770400684753,1000,5.858,-1.475,-0.05,109.1,blue,274,TRUE
513,1661840561.378,5513.926860413646,2412.5189346794764,1000,3.142,-1.172,2.741,125.0,red,274,TRUE
514,1661840561.487,4642.073159963104,2766.1071305303035,1000,0.726,-1.403,-0.689,109.4,yellow,274,TRUE
515,1661840561.581,3081.8120429285004,-524.6965261287346,1000,2.525,-1.47,0.036,156.1,green,274,TRUE
516,1661840561.815,6613.899063184996,1200.358733439384,1000,5.876,-1.432,-1.036,109.3,blue,274,TRUE
517,1661840561.909,5520.118304507198,2386.865953241737,1000,3.62,-1.178,2.53,109.3,red,274,TRUE
518,1661840562.003,4695.703589171334,2763.736475737735,1000,0.683,-1.412,-0.613,126.4,yellow,274,TRUE
519,1661840562.114,3092.3351561685936,-540.2927612004564,1000,2.509,-1.472,0.035,93.8,green,274,TRUE
520,1661840562.301,6618.034316824817,1192.038420947394,1000,5.498,-1.469,-0.096,109.4,blue,274,TRUE
521,1661840562.395,5513.67672281485,2399.103605716228,1000,4.152,-1.174,2.409,124.9,red,274,TRUE
522,1661840562.504,4708.058972175321,2741.57069564984,1000,0.738,-1.394,-0.671,125.0,yellow,274,TRUE
523,1661840562.598,3109.5768662139594,-549.3716259526219,1000,2.509,-1.472,0.035,93.8,green,274,TRUE
524,1661840562.817,6354.095935660214,819.4337424263204,1000,5.284,-1.551,-3.135,1096.5,blue,274,TRUE
525,1661840563.898,4710.8548608109,2725.052520797871,1000,0.809,-1.388,-0.628,109.4,yellow,274,TRUE
526,1661840563.991,3107.729440786951,-596.4040303201822,1000,2.489,-1.481,0.026,171.9,green,274,TRUE
527,1661840564.257,6065.305269264691,1410.7734028497175,1000,4.857,-1.463,-3.09,109.4,blue,274,TRUE
528,1661840564.351,5452.132789797254,2409.26283821692,1000,3.411,-1.14,2.638,109.4,red,274,TRUE
529,1661840564.444,4725.710180998657,2716.6037930347647,1000,0.81,-1.388,-0.65,109.3,yellow,274,TRUE
530,1661840564.538,3101.7832816849027,-632.0063406424993,1000,2.499,-1.485,0.026,93.7,green,274,TRUE
531,1661840565.741,5410.628819589174,2358.321362405342,1000,3.722,-1.156,2.524,109.6,red,274,TRUE
532,1661840565.834,4749.826439344257,2687.1051680414134,1000,0.813,-1.385,-0.653,125.2,yellow,274,TRUE
533,1661840565.944,3085.98426268727,-650.2243337160513,1000,2.259,-1.51,-0.019,156.5,green,274,TRUE
534,1661840566.196,5773.399485336248,1524.2335897786454,1000,5.392,-1.475,3.138,109.3,blue,274,TRUE
535,1661840566.289,5456.543758617449,2393.2943080536193,1000,3.734,-1.16,2.513,109.3,red,274,TRUE
536,1661840566.383,4759.032458568888,2626.9352855689244,1000,0.814,-1.388,-0.662,109.3,yellow,274,TRUE
537,1661840566.477,3024.0673880547834,-586.2305347282935,1000,1.199,-1.443,-1.758,93.6,green,274,TRUE
538,1661840566.664,5811.172766109512,1605.1749398317493,1000,5.468,-1.355,2.903,109.3,blue,274,TRUE
539,1661840566.758,5435.0237576608415,2336.796832403497,1000,3.766,-1.165,2.524,125.0,red,274,TRUE
540,1661840566.883,2803.6427209703975,-33.66580909537949,1000,0.032,-1.676,-3.026,1143.7,yellow,274,TRUE
541,1661840566.883,2973.1069484960935,-493.6354634712022,1000,0.032,-1.676,-3.026,1143.7,green,274,TRUE
542,1661840566.883,2919.859813678562,-411.06133051549637,1000,0.032,-1.676,-3.026,1143.7,green,274,TRUE
543,1661840568.152,5464.464502357167,2071.1847847590766,1000,5.316,-1.416,2.966,1079.4,blue,274,TRUE
544,1661840569.215,3886.6372320172377,1278.3363133856426,1000,0.868,-1.391,-0.485,93.8,yellow,274,TRUE
545,1661840569.293,2861.012773338282,-331.6757314471064,1000,2.22,-1.501,3.087,156.2,green,274,TRUE
546,1661840569.543,5489.06728418455,2039.3136080486747,1000,5.267,-1.467,3.124,109.4,blue,274,TRUE
547,1661840569.637,5372.882388675655,2296.6763245053457,1000,3.611,-1.208,2.485,109.4,red,274,TRUE
548,1661840569.731,4228.894425625993,1845.877942343328,1000,0.921,-1.398,-0.564,109.5,yellow,274,TRUE
549,1661840569.825,2847.480623053289,-343.1799619661952,1000,2.521,-1.49,0.065,109.0,green,274,TRUE
550,1661840570.028,5462.4181192294855,1918.9881247201058,1000,5.224,-1.486,3.13,109.4,blue,274,TRUE
551,1661840570.121,5271.013989243008,2261.7233254849966,1000,3.581,-1.202,2.544,109.4,red,274,TRUE
552,1661840570.215,4359.30538484495,2048.0840723321853,1000,0.935,-1.407,-0.599,109.3,yellow,274,TRUE
553,1661840570.309,2873.328099431357,-350.7360160863966,1000,2.462,-1.492,0.075,93.7,green,274,TRUE
554,1661840570.449,5540.1557490534005,1811.487960520363,1000,5.198,-1.492,3.132,109.4,blue,274,TRUE
555,1661840570.543,5226.3834950093615,2203.381213171613,1000,3.578,-1.198,2.557,109.4,red,274,TRUE
556,1661840570.637,4507.73719405895,2182.8461831166064,1000,1.018,-1.386,-0.509,109.4,yellow,274,TRUE
557,1661840570.731,2914.510441896913,-486.15742552720394,1000,2.466,-1.496,0.074,156.2,green,274,TRUE
558,1661840571.982,5183.84160090692,2178.157815338599,1000,3.582,-1.206,2.539,109.4,red,274,TRUE
559,1661840572.076,4571.075504052714,2261.5736467007855,1000,0.876,-1.446,-0.391,124.7,yellow,274,TRUE
560,1661840572.372,5645.278093041156,1613.4016287272761,1000,5.221,-1.487,3.132,1095.2,blue,274,TRUE
561,1661840573.452,4894.019849407571,2729.714118911497,1000,0.845,-1.449,-0.307,109.3,yellow,274,TRUE
562,1661840573.546,2826.4094379245375,-640.1528687779313,1000,2.411,-1.521,3.112,156.1,green,274,TRUE
563,1661840573.795,5551.701060602606,1846.2900071661197,1000,5.208,-1.503,3.134,124.7,blue,274,TRUE
564,1661840573.92,5219.3822147350775,2362.7195078681493,1000,3.656,-1.194,2.53,1081.1,red,274,TRUE
565,1661840574.986,2906.427214976745,50.071646530174576,1000,0.657,-1.442,-3.125,156.1,green,274,TRUE
566,1661840575.236,5510.226252077448,1758.5545131323781,1000,5.21,-1.514,3.133,109.4,blue,274,TRUE
567,1661840575.329,5189.963691345916,2401.0202086599897,1000,3.832,-1.179,2.508,109.4,red,274,TRUE
568,1661840575.423,4845.520896848841,2753.6675861377953,1000,0.828,-1.441,-0.411,109.3,yellow,274,TRUE
569,1661840575.517,3081.999147474439,388.826667244588,1000,0.506,-1.444,-3.046,93.8,green,274,TRUE
570,1661840575.704,5485.577170757,1707.4931949877869,1000,5.04,-1.503,-3.114,109.3,blue,274,TRUE
571,1661840575.798,5200.94554184641,2390.7913474666516,1000,3.749,-1.184,2.508,124.9,red,274,TRUE
572,1661840575.923,4309.919664527908,2888.6969981002476,1000,0.824,-1.439,-0.386,1142.0,yellow,274,TRUE
573,1661840577.158,5435.39998333901,1699.5550630338016,1000,4.933,-1.511,-3.091,109.7,blue,274,TRUE
574,1661840577.252,5141.228208026628,2354.4743052434137,1000,3.666,-1.196,2.503,109.4,red,274,TRUE
575,1661840577.346,4474.234388673298,2645.214819942462,1000,0.822,-1.444,-0.536,93.7,yellow,274,TRUE
576,1661840577.424,3469.20126726625,630.2366117575523,1000,0.002,-1.514,-0.046,93.7,green,274,TRUE
577,1661840577.612,5397.478062497453,1688.419510260516,1000,4.973,-1.514,-3.089,109.0,blue,274,TRUE
578,1661840577.705,5149.222006116479,2337.176481686717,1000,3.697,-1.186,2.507,109.3,red,274,TRUE
579,1661840577.799,4524.436557597132,2672.206556776922,1000,0.824,-1.444,-0.572,124.9,yellow,274,TRUE
580,1661840577.94,4419.975119733437,1765.6593922989077,1000,0.014,-1.539,-3.111,1067.0,green,274,TRUE
581,1661840578.991,5324.073833118816,1690.8583113122506,1000,4.899,-1.502,-0.065,109.3,blue,274,TRUE
582,1661840579.085,5164.868090559044,2362.2926220938984,1000,3.71,-1.182,2.493,109.2,red,274,TRUE
583,1661840579.179,4533.203945201404,2689.5739705001697,1000,0.818,-1.444,-0.562,109.3,yellow,274,TRUE
584,1661840579.272,4342.108830323938,1356.6911395934014,1000,5.669,-1.525,-3.121,156.2,green,274,TRUE
585,1661840579.522,5270.125715449301,1650.012264613386,1000,4.983,-1.509,-0.058,109.3,blue,274,TRUE
586,1661840579.616,5189.280769545493,2430.643582448032,1000,3.792,-1.191,2.465,109.3,red,274,TRUE
587,1661840579.71,4532.619273810344,2634.7366339565447,1000,0.82,-1.442,-0.555,109.4,yellow,274,TRUE
588,1661840579.803,4365.685534477051,1281.411964351437,1000,5.755,-1.557,3.141,94.0,green,274,TRUE
589,1661840579.944,4068.9148949566074,1800.64845299577,1000,2.009,0.361,-0.01,77.8,blue,274,TRUE
590,1661840580.006,5192.027053776194,2408.6496542534146,1000,3.716,-1.192,2.554,125.2,red,274,TRUE
591,1661840580.115,4565.3424131064385,2657.3223908852615,1000,0.816,-1.436,-0.509,109.3,yellow,274,TRUE
592,1661840580.209,4353.438637668876,1266.9853939520933,1000,5.684,-1.547,-3.126,93.5,green,274,TRUE
593,1661840580.397,4060.2853089027126,1850.0140664138596,1000,4.917,-1.506,-0.061,125.0,blue,274,TRUE
594,1661840580.506,5203.1947379920375,2433.5272140999446,1000,3.67,-1.206,2.584,109.6,red,274,TRUE
595,1661840580.6,4618.823600767927,2633.281270346563,1000,0.645,-1.416,-0.54,109.5,yellow,274,TRUE
596,1661840580.693,4318.809141781563,1282.6455240227,1000,5.625,-1.554,-3.134,156.5,green,274,TRUE
597,1661840581.881,4067.7907562865566,1863.5747969087859,1000,4.977,-1.504,-0.061,1140.7,blue,274,TRUE
598,1661840583.006,4648.385528554111,2748.3402614556503,1000,0.304,-1.428,-0.924,109.4,yellow,274,TRUE
