,timestamp,x,y,z,yaw,roll,pitch,latency,student,session,success
0,1661900543.825,2103.4488702236426,622.4786594964571,1000,5.839,-1.474,3.095,1143.4,blue,275,TRUE
1,1661900547.096,1951.9381698070454,627.1676639022944,1000,4.396,-1.412,-2.627,1156.0,blue,275,TRUE
2,1661900549.474,2553.754064178765,2991.673142335282,1000,4.313,-1.426,3.019,1096.5,blue,275,TRUE
3,1661900552.699,2591.7769142430634,2990.0761898875494,1000,4.443,-1.458,3.111,1145.0,blue,275,TRUE
4,1661900555.972,2411.1982937365324,2910.457040881092,1000,4.249,-1.482,3.123,1142.0,blue,275,TRUE
5,1661900559.255,2262.636927386733,2833.754309998236,1000,4.247,-1.498,3.125,1141.9,blue,275,TRUE
6,1661900562.525,2305.6518891979676,2991.1309930933185,1000,4.254,-1.479,3.124,1141.6,blue,275,TRUE
7,1661900564.887,2351.5122618154505,3020.044004917973,1000,4.228,-1.492,3.133,109.5,blue,275,TRUE
8,1661900564.981,1580.9766344714164,-477.00087988062165,1000,2.933,-1.422,2.242,125.1,red,275,TRUE
9,1661900567.271,2403.503681317776,2975.7661732054107,1000,4.227,-1.489,3.133,1141.8,blue,275,TRUE
10,1661900570.54,2408.659701459512,3075.120624045471,1000,4.229,-1.49,3.133,1142.0,blue,275,TRUE
11,1661900573.838,2492.4711251067106,3128.255879729535,1000,4.235,-1.486,3.134,1159.2,blue,275,TRUE
12,1661900576.17,2626.1597825923386,3219.436022822316,1000,4.239,-1.487,3.136,109.3,blue,275,TRUE
13,1661900576.264,1755.6182836727621,429.90600101717905,1000,2.93,-1.43,2.262,125.0,red,275,TRUE
14,1661900578.516,2648.80824513351,3134.987560417269,1000,4.271,-1.488,3.134,1173.0,blue,275,TRUE
15,1661900585.283,2672.2355838784847,3136.506358017421,1000,4.378,-1.469,3.122,125.0,blue,275,TRUE
16,1661900588.173,2645.5720436354823,3208.332645406399,1000,4.35,-1.482,3.102,109.3,blue,275,TRUE
17,1661900588.267,2272.502512690793,3650.638462384932,1000,2.822,-1.437,2.113,93.8,red,275,TRUE
18,1661900589.595,2573.076233216451,2690.0133563354884,1000,5.027,-1.396,1.915,1156.0,blue,275,TRUE
19,1661900591.969,2789.893374334695,2668.423928781182,1000,5.681,-1.49,3.079,1171.3,blue,275,TRUE
20,1661900599.192,2517.015937455625,3279.2432193752866,1000,4.183,-1.474,3.111,1171.7,blue,275,TRUE
21,1661900606.331,2367.4855676846573,3876.033621517074,1000,4.236,-1.484,3.108,1156.2,blue,275,TRUE
22,1661900607.518,2806.0871238419936,-2571.6430142145887,1000,5.029,-0.652,0.339,109.1,green,275,TRUE
23,1661900611.111,2248.0380712510655,4460.308191415235,1000,4.181,-1.494,3.114,1187.1,blue,275,TRUE
24,1661900612.33,5611.478623097884,7623.128159186472,1000,3.548,-0.619,0.268,1110.4,green,275,TRUE
25,1661900616.783,2165.834505503697,5045.056165042824,1000,4.193,-1.49,3.115,109.6,blue,275,TRUE
26,1661900616.877,2003.4205170993132,4487.285282616689,1000,4.557,-1.397,2.309,156.1,red,275,TRUE
27,1661900617.033,4162.631499713323,2507.1684247132407,1000,5.022,-0.653,0.338,125.2,green,275,TRUE
28,1661900618.282,2110.2411604207255,6065.043768390967,1000,4.204,-1.5,3.114,1156.0,blue,275,TRUE
29,1661900621.594,1837.4715410477659,6730.198930962272,1000,4.192,-1.509,3.115,125.1,blue,275,TRUE
30,1661900621.782,3704.330642268093,800.8982333442483,1000,5.073,-0.668,0.331,124.9,green,275,TRUE
31,1661900623.031,1977.4099513369865,6715.518504925211,1000,4.192,-1.523,3.115,1203.1,blue,275,TRUE
32,1661900625.39,1998.7583500984074,6738.976110562285,1000,4.123,-1.516,3.117,1177.4,blue,275,TRUE
33,1661900627.583,4096.090009248859,-1826.132581838078,1000,5.046,-0.617,0.334,1155.9,green,275,TRUE
34,1661900629.739,1715.1401599534222,6485.369461228028,1000,4.107,-1.51,3.115,1155.7,blue,275,TRUE
35,1661900631.91,5618.9529781325145,-400.42817276967094,1000,5.059,-0.619,0.346,1155.9,green,275,TRUE
36,1661900634.081,1554.8823726357302,6238.660689168701,1000,4.129,-1.522,3.115,1156.0,blue,275,TRUE
37,1661900636.268,5243.145961134036,2023.4183285898264,1000,5.065,-0.622,0.339,1142.1,green,275,TRUE
38,1661900638.413,1051.917745032935,6119.800697700721,1000,4.145,-1.52,3.115,1157.3,blue,275,TRUE
39,1661900642.844,1658.28787201335,5088.438868497335,1000,4.439,-1.482,3.105,1141.7,red,275,TRUE
40,1661900646.111,994.1810286278752,6069.314786286071,1000,4.14,-1.518,3.114,124.9,blue,275,TRUE
41,1661900646.252,1511.3380818384492,5543.026392255376,1000,4.433,-1.478,3.105,1081.6,red,275,TRUE
42,1661900649.475,1003.0726755795372,6055.434809682789,1000,4.121,-1.526,3.117,140.6,blue,275,TRUE
43,1661900649.616,1680.6634151959595,5174.924152979366,1000,4.405,-1.425,2.064,1095.2,red,275,TRUE
44,1661900652.852,1125.9963041904819,5978.392493286402,1000,1.418,-1.468,-3.096,1142.0,blue,275,TRUE
45,1661900667.375,1615.6020685326778,6146.876860078771,1000,1.203,-1.472,0.086,1142.1,blue,275,TRUE
46,1661900673.07,1980.547129047537,6325.871057272099,1000,1.229,-1.46,0.091,118.0,blue,275,TRUE
47,1661900673.172,3704.720627135893,5692.701957604342,1000,0.634,-1.509,0.061,125.0,red,275,TRUE
48,1661900674.472,3173.56005636581,6546.938508071667,1000,1.215,-1.456,0.093,1096.6,blue,275,TRUE
49,1661900674.472,3439.026071827112,6120.04525696346,1000,1.215,-1.456,0.093,1096.6,red,275,TRUE
50,1661900674.472,3350.752543988143,6262.336763185929,1000,1.215,-1.456,0.093,1096.6,red,275,TRUE
51,1661900676.711,3435.1657676548293,6419.765883373073,1000,1.254,-1.456,0.097,109.4,blue,275,TRUE
52,1661900676.804,3472.39973570487,6139.857909792191,1000,0.664,-1.498,3.07,124.9,red,275,TRUE
53,1661900678.087,3497.510081756853,6343.836022107869,1000,1.273,-1.455,0.095,109.3,blue,275,TRUE
54,1661900678.181,3516.92253140843,6047.607850554954,1000,0.65,-1.496,3.066,124.7,red,275,TRUE
55,1661900679.479,3242.1766976651274,5437.650474953978,1000,0.646,-1.485,0.081,1110.3,blue,275,TRUE
56,1661900679.479,3471.1433552004605,5945.9731148905985,1000,0.646,-1.485,0.081,1110.3,red,275,TRUE
57,1661900679.479,3394.028897338229,5903.568803183815,1000,0.646,-1.485,0.081,1110.3,red,275,TRUE
58,1661900681.778,3654.1562840214146,6201.698008940875,1000,1.265,-1.458,0.094,1110.6,blue,275,TRUE
59,1661900684.046,3462.5512755739987,6260.591645943785,1000,1.273,-1.449,0.934,109.4,blue,275,TRUE
60,1661900684.139,3471.114833577549,5756.657020488984,1000,0.625,-1.503,0.065,124.9,red,275,TRUE
61,1661900685.454,3572.8622309483217,6253.805833248446,1000,1.274,-1.445,0.897,1114.2,blue,275,TRUE
62,1661900687.74,3471.1906513297536,6277.56140437809,1000,1.275,-1.443,0.862,109.4,blue,275,TRUE
63,1661900687.834,3545.098409883329,5698.510669529825,1000,0.616,-1.51,0.06,125.3,red,275,TRUE
64,1661900689.148,3518.5548920357814,5751.941748076403,1000,0.622,-1.509,3.079,125.0,red,275,TRUE
65,1661900690.353,3637.398485577679,6127.082247369726,1000,1.224,-1.453,0.101,109.6,blue,275,TRUE
66,1661900690.447,3512.204080327702,5788.453662102158,1000,0.629,-1.502,0.068,124.9,red,275,TRUE
67,1661900691.699,3524.0565321901813,6312.578941454598,1000,1.248,-1.453,0.101,1095.0,blue,275,TRUE
68,1661900694.972,3354.1784503174085,6307.049144676061,1000,1.256,-1.452,0.097,1141.8,blue,275,TRUE
69,1661900704.891,3907.1237127745944,6255.372164335126,1000,1.224,-1.458,0.091,1157.7,blue,275,TRUE
70,1661900711.617,3945.240660058577,6293.167930756648,1000,1.235,-1.463,0.089,1126.2,blue,275,TRUE
71,1661900713.946,3775.5921327088213,6236.835568150575,1000,1.247,-1.458,0.099,1172.8,blue,275,TRUE
72,1661900716.319,3667.7198005582773,6213.239108185221,1000,1.191,-1.475,0.092,1190.2,blue,275,TRUE
73,1661900718.698,3580.647920971574,6251.514767190164,1000,1.208,-1.476,0.091,1173.2,blue,275,TRUE
74,1661900721.06,3538.632905435731,6262.430645462675,1000,1.216,-1.477,0.089,1173.5,blue,275,TRUE
75,1661900723.422,3501.0449935321026,6263.946947724315,1000,1.345,-1.526,3.102,1160.6,blue,275,TRUE
76,1661900725.772,3407.4951125703915,6010.3035608843975,1000,2.568,-1.487,3.067,1171.6,blue,275,TRUE
77,1661900728.117,3435.3658644119264,5438.932216605409,1000,2.475,-1.508,3.089,109.3,blue,275,TRUE
78,1661900728.21,3614.825958852019,5187.169715480802,1000,1.018,-1.323,2.65,125.1,red,275,TRUE
79,1661900728.32,3745.169322432274,-1820.8642501244724,1000,4.819,-1.409,-2.272,157.8,yellow,275,TRUE
80,1661900733.026,3734.5889061660237,1836.4945477618935,1000,1.045,-1.332,2.534,1126.3,red,275,TRUE
81,1661900735.28,3985.7337185152974,2801.890131403578,1000,1.452,-1.47,0.096,1124.8,blue,275,TRUE
82,1661900742.958,3800.5942467229797,2139.113598306657,1000,1.049,-1.344,2.549,1173.5,red,275,TRUE
83,1661900745.258,4184.89973051947,2541.7142085161736,1000,1.461,-1.479,0.088,1170.5,blue,275,TRUE
84,1661900748.569,4899.869737931093,1588.699542474941,1000,1.469,-1.48,0.087,1157.6,blue,275,TRUE
85,1661900751.855,4601.052593385914,1759.8989381676508,1000,1.488,-1.478,0.088,1142.1,blue,275,TRUE
86,1661900763.344,3817.7041976881533,2012.4662901382908,1000,1.15,-1.293,2.217,156.0,red,275,TRUE
87,1661900768.494,4530.938472950041,1862.2151717776385,1000,1.536,-1.476,0.091,1176.0,blue,275,TRUE
88,1661900770.843,4444.013915905551,1950.417430354346,1000,1.534,-1.475,0.092,125.1,blue,275,TRUE
89,1661900770.937,3815.9027536208864,1967.827806844323,1000,1.154,-1.288,2.257,156.1,red,275,TRUE
90,1661900779.541,4414.85568713729,1886.6151832067774,1000,1.654,-1.445,1.148,1174.4,blue,275,TRUE
91,1661900787.553,4303.92938613816,1760.0826953999838,1000,1.457,-1.499,-3.083,1173.0,blue,275,TRUE
92,1661900792.351,3909.33389385471,2176.5618053639773,1000,1.59,-1.5,3.118,110.8,blue,275,TRUE
93,1661900792.447,3938.147525325078,1890.9883947747664,1000,0.154,-1.299,2.67,156.2,red,275,TRUE
94,1661900803.62,3693.308962569226,2221.9161020510037,1000,1.297,-1.467,0.098,1173.0,blue,275,TRUE
95,1661900813.28,3950.0725840038795,2467.4922628930726,1000,0.585,-1.432,-2.652,1188.7,blue,275,TRUE
96,1661900815.674,3737.7598871609407,3106.981633985335,1000,5.688,-1.468,3.114,1187.5,blue,275,TRUE
97,1661900820.43,3717.177719732853,3747.803333176512,1000,1.491,-1.485,3.076,109.4,blue,275,TRUE
98,1661900820.523,5765.262168452463,1541.6161759996794,1000,5.61,-1.271,2.477,156.2,red,275,TRUE
99,1661900821.868,3662.0614192272465,4140.954006785438,1000,1.288,-1.496,3.137,1188.9,blue,275,TRUE
100,1661900823.307,3686.41420004021,4444.314795641094,1000,1.282,-1.488,-3.137,109.5,blue,275,TRUE
101,1661900823.401,5738.326457928761,1587.4797996600919,1000,5.536,-1.294,2.453,93.7,red,275,TRUE
102,1661900824.682,3631.2945086774894,5114.814966492087,1000,1.27,-1.481,3.136,1174.8,blue,275,TRUE
103,1661900831.83,3542.614465599708,5621.8144288584335,1000,1.181,-1.49,-3.129,109.3,blue,275,TRUE
104,1661900831.924,5710.173497514738,1700.1786164401603,1000,5.502,-1.284,2.658,173.4,red,275,TRUE
105,1661900833.315,3666.0798493910133,5840.643246957211,1000,1.217,-1.487,-3.141,1156.3,blue,275,TRUE
106,1661900834.739,3671.9049632631486,5851.472051278698,1000,1.222,-1.491,3.141,109.1,blue,275,TRUE
107,1661900834.832,5722.783877509518,1686.8481115389384,1000,5.327,-1.344,2.613,93.7,red,275,TRUE
108,1661900836.035,3733.746553342835,5853.45864770826,1000,1.235,-1.498,3.138,110.8,blue,275,TRUE
109,1661900836.13,5704.947445372307,1665.8610675973086,1000,5.402,-1.293,2.285,175.8,red,275,TRUE
110,1661900836.54,3719.3884554261804,5879.856660716557,1000,1.216,-1.487,3.138,125.0,blue,275,TRUE
111,1661900836.65,5706.3159912355195,1648.7546732701212,1000,5.389,-1.293,2.323,109.3,red,275,TRUE
112,1661900837.9,3823.8131315361206,5767.8027671620375,1000,1.22,-1.481,3.136,1188.7,blue,275,TRUE
113,1661900840.247,3886.2878922110544,5762.172129365116,1000,1.312,-1.5,3.115,109.4,blue,275,TRUE
114,1661900840.341,5575.3911464510975,1606.5675118762686,1000,4.263,-1.329,2.722,171.8,red,275,TRUE
115,1661900844.17,3737.227040348196,5842.762933094309,1000,1.199,-1.476,0.087,1159.3,blue,275,TRUE
116,1661900846.518,3664.355001076412,6049.9195809494,1000,1.176,-1.468,0.097,1173.1,blue,275,TRUE
117,1661900848.909,3598.3703553053106,6096.152698175424,1000,1.173,-1.476,0.093,1157.6,blue,275,TRUE
118,1661900851.257,3508.4734300471305,6110.972752101089,1000,1.166,-1.472,0.095,1157.8,blue,275,TRUE
119,1661900858.465,3485.072507819537,6187.014813354076,1000,1.16,-1.477,3.048,109.3,blue,275,TRUE
120,1661900858.559,4819.332146791573,2184.898368675767,1000,4.842,-1.324,2.33,171.8,red,275,TRUE
121,1661900859.935,3529.7443022880984,6266.260805531153,1000,1.16,-1.476,0.093,1173.2,blue,275,TRUE
122,1661900867.134,3603.451842944696,6233.213283376684,1000,1.141,-1.484,3.055,1173.1,blue,275,TRUE
123,1661900879.115,3946.941665272658,6370.536225086475,1000,1.056,-1.49,3.123,109.3,blue,275,TRUE
124,1661900879.209,4824.9886663649095,2111.8793641534944,1000,5.457,-1.36,2.937,156.3,red,275,TRUE
125,1661900879.631,3804.235234874727,6136.031769280405,1000,1.149,-1.51,3.108,126.1,blue,275,TRUE
126,1661900879.788,5799.223712865134,1631.8967577440349,1000,5.561,-1.389,2.821,1048.0,red,275,TRUE
127,1661900880.899,3831.417995939513,6005.935786769492,1000,1.216,-1.504,3.077,109.4,blue,275,TRUE
128,1661900880.993,5702.465114735092,1599.1437452820487,1000,5.624,-1.412,2.551,156.4,red,275,TRUE
129,1661900881.352,3803.0791127724465,5969.630400390995,1000,1.182,-1.524,3.1,125.0,blue,275,TRUE
130,1661900881.461,5647.182609565813,1583.436870282222,1000,5.545,-1.398,2.366,93.7,red,275,TRUE
131,1661900881.758,3773.99203675015,5932.819320621734,1000,1.103,-1.549,0.021,125.1,blue,275,TRUE
132,1661900881.868,5690.4846962639185,1616.7420036552548,1000,5.452,-1.328,2.28,93.8,red,275,TRUE
133,1661900882.149,3791.040080688382,5940.503277811872,1000,1.011,-1.54,0.028,109.4,blue,275,TRUE
134,1661900882.243,5711.291551117385,1548.9399536168976,1000,5.301,-1.336,2.354,93.7,red,275,TRUE
135,1661900882.555,3738.6201091765324,5899.103083492336,1000,1.049,-1.534,3.105,109.4,blue,275,TRUE
136,1661900882.649,5716.511630435848,1609.9258048480585,1000,5.209,-1.341,2.462,156.2,red,275,TRUE
137,1661900883.055,3753.5723740189965,5906.061436432249,1000,1.074,-1.527,3.099,109.3,blue,275,TRUE
138,1661900883.148,5710.436306083969,1638.751019144517,1000,5.232,-1.345,2.393,93.7,red,275,TRUE
139,1661900883.461,3705.4432558267195,5933.209552829197,1000,1.097,-1.527,3.101,109.2,blue,275,TRUE
140,1661900883.554,5745.07212821003,1684.7020736490642,1000,5.222,-1.345,2.377,93.7,red,275,TRUE
141,1661900883.851,3713.3216103936743,5898.467172949872,1000,1.113,-1.526,3.1,109.3,blue,275,TRUE
142,1661900883.945,5791.225708587869,1725.2440212551353,1000,5.204,-1.349,2.359,93.9,red,275,TRUE
143,1661900884.226,3720.037321046196,5909.225672067397,1000,1.118,-1.525,3.099,109.4,blue,275,TRUE
144,1661900884.32,5790.94637864044,1746.5059159213342,1000,5.208,-1.346,2.358,156.5,red,275,TRUE
145,1661900884.742,3707.3365886485394,5884.257185139217,1000,1.13,-1.525,3.1,109.3,blue,275,TRUE
146,1661900884.836,5804.487843617746,1860.1538107141548,1000,5.168,-1.356,2.339,93.4,red,275,TRUE
147,1661900885.117,3731.686733450954,5839.507538850078,1000,1.137,-1.529,3.105,109.4,blue,275,TRUE
148,1661900885.21,5822.624311998833,1847.7447479250047,1000,5.149,-1.36,2.289,93.8,red,275,TRUE
149,1661900885.539,3728.610245699126,5842.58014785136,1000,1.057,-1.512,-3.134,109.4,blue,275,TRUE
150,1661900885.632,5805.154486585495,1780.028146033572,1000,5.189,-1.35,2.215,156.2,red,275,TRUE
151,1661900885.976,3716.665591269513,5817.639328698293,1000,1.26,-1.484,3.071,124.7,blue,275,TRUE
152,1661900887.475,3695.230522831795,5869.770312444335,1000,1.581,-1.405,2.126,125.2,blue,275,TRUE
153,1661900887.585,5544.2629236033,1632.6008229531078,1000,3.342,-1.502,3.097,93.7,red,275,TRUE
154,1661900890.35,3694.147121791055,5880.652762884937,1000,1.108,-1.48,3.052,109.3,blue,275,TRUE
155,1661900890.443,5065.138243007755,1250.520688677829,1000,2.277,-1.391,2.146,109.6,red,275,TRUE
156,1661900890.834,4586.346966233607,819.4551524190115,1000,2.447,-1.39,2.004,109.3,red,275,TRUE
157,1661900891.131,3687.5433338328835,5908.000057011386,1000,1.127,-1.454,0.115,109.2,blue,275,TRUE
158,1661900891.224,4143.408214831536,371.23524364252904,1000,2.298,-1.424,2.272,156.2,red,275,TRUE
159,1661900891.599,3683.8909454038603,5942.889463174577,1000,1.12,-1.453,0.112,109.7,blue,275,TRUE
160,1661900891.693,3703.2301706263784,-41.463533102571944,1000,2.194,-1.444,2.33,94.0,red,275,TRUE
161,1661900892.038,3740.721124089183,6011.324138294627,1000,1.152,-1.462,0.104,1126.3,blue,275,TRUE
162,1661900893.493,3773.091187016498,5875.55825679934,1000,1.084,-1.462,0.105,1124.7,blue,275,TRUE
163,1661900894.867,3742.498710659469,5885.7784956259875,1000,1.08,-1.462,0.106,125.2,blue,275,TRUE
164,1661900894.976,3269.184430548708,-403.02442021758,1000,2.159,-1.448,2.379,109.4,red,275,TRUE
165,1661900895.367,5294.72298134792,-1329.8677306723143,1000,2.159,-1.448,2.389,1064.3,red,275,TRUE
166,1661900896.494,3669.205450768442,5897.648897074891,1000,1.046,-1.469,0.097,124.9,blue,275,TRUE
167,1661900896.931,3692.1502450603684,5921.560198367217,1000,1.02,-1.478,0.091,109.5,blue,275,TRUE
168,1661900897.025,3079.3285577554598,-783.5434014687165,1000,2.158,-1.43,2.486,93.5,red,275,TRUE
169,1661900898.228,3713.3530412920477,5923.204127000496,1000,1.068,-1.481,3.091,125.0,blue,275,TRUE
170,1661900898.337,3068.0051832342797,-774.1723632124736,1000,2.152,-1.436,2.469,156.5,red,275,TRUE
171,1661900898.759,3726.4868777804686,5921.952334915962,1000,1.049,-1.446,2.787,109.6,blue,275,TRUE
172,1661900898.853,3054.9775871868915,-741.7726319162501,1000,2.135,-1.43,2.518,93.5,red,275,TRUE
173,1661900900.18,3024.845810084526,-745.4281885913654,1000,2.141,-1.427,2.518,156.0,red,275,TRUE
174,1661900900.618,3731.3505707185127,5923.935261621964,1000,1.198,-1.431,2.333,109.3,blue,275,TRUE
175,1661900900.711,3031.9591945286993,-737.8222664566176,1000,2.139,-1.429,2.509,109.3,red,275,TRUE
176,1661900901.024,3723.2927352563324,5911.383423861812,1000,1.208,-1.437,2.335,109.6,blue,275,TRUE
177,1661900901.118,3034.121989806484,-658.3037394913227,1000,2.095,-1.44,2.381,93.5,red,275,TRUE
178,1661900902.32,3759.261549498426,5939.17346162159,1000,1.152,-1.449,2.405,109.6,blue,275,TRUE
179,1661900902.414,3031.679623810371,-603.8551099810782,1000,2.015,-1.445,2.272,156.5,red,275,TRUE
180,1661900905.259,3752.060530529299,5926.941297521138,1000,1.126,-1.454,3.067,109.4,blue,275,TRUE
181,1661900905.352,3038.7313777469785,-546.2524080848144,1000,2.04,-1.444,2.282,109.2,red,275,TRUE
182,1661900905.743,3750.386183411925,5914.478916194512,1000,1.124,-1.456,3.069,109.2,blue,275,TRUE
183,1661900905.837,3049.6687966085647,-505.90742611028253,1000,2.042,-1.446,2.263,109.4,red,275,TRUE
184,1661900906.18,3746.0415870272277,5911.233973783025,1000,1.121,-1.461,3.069,109.1,blue,275,TRUE
185,1661900906.274,3073.3460549456636,-456.74615635334567,1000,2.043,-1.446,2.242,156.4,red,275,TRUE
186,1661900910.054,3051.125400528523,-436.4162140912012,1000,2.301,-1.343,2.174,156.2,red,275,TRUE
187,1661900910.461,3732.9913995509414,5906.875680821063,1000,1.125,-1.462,3.07,109.7,blue,275,TRUE
188,1661900910.554,3026.997822324815,-475.0827214010266,1000,1.926,-1.407,2.71,109.6,red,275,TRUE
189,1661900910.882,3733.1917601909004,5927.540904598932,1000,1.129,-1.463,3.069,125.0,blue,275,TRUE
190,1661900910.976,2976.1550246281404,-341.2503311569971,1000,0.8,-1.314,-3.09,109.6,red,275,TRUE
191,1661900912.226,3661.4970469605746,5899.961645784121,1000,1.132,-1.466,3.069,1150.1,blue,275,TRUE
192,1661900914.594,3616.9881137029347,5920.274748886405,1000,1.141,-1.465,3.069,1171.9,blue,275,TRUE
193,1661900919.374,3672.263389981048,5952.652303745527,1000,1.126,-1.466,3.072,109.4,blue,275,TRUE
194,1661900919.468,3393.983220567279,3.3153674438063567,1000,5.753,-1.35,2.337,156.3,red,275,TRUE
195,1661900920.858,3698.25713226044,5970.678974709349,1000,1.125,-1.467,3.073,1203.0,blue,275,TRUE
196,1661900923.248,3754.4932036798796,5984.225368464721,1000,1.126,-1.473,3.076,109.3,blue,275,TRUE
197,1661900923.342,3838.769246238258,366.7213082733174,1000,5.524,-1.33,2.47,171.9,red,275,TRUE
198,1661900927.151,3713.4871757077176,5975.330369797249,1000,1.128,-1.479,3.079,1187.1,blue,275,TRUE
199,1661900931.915,3766.0051098980753,5985.041473108903,1000,1.114,-1.472,3.098,109.4,blue,275,TRUE
200,1661900932.009,4262.401065037941,710.376930798936,1000,5.814,-1.332,2.064,171.8,red,275,TRUE
201,1661900933.384,3938.852492134473,6022.715351596312,1000,1.112,-1.47,3.091,1188.3,blue,275,TRUE
202,1661900935.759,3881.331441342214,5984.543674750392,1000,1.128,-1.478,3.096,109.1,blue,275,TRUE
203,1661900935.853,4725.771846764431,1062.9530718245285,1000,5.677,-1.328,2.039,171.6,red,275,TRUE
204,1661900937.228,3817.2843496102214,5993.322528830056,1000,1.138,-1.477,3.098,1187.2,blue,275,TRUE
205,1661900939.649,4838.954732072384,5934.191158679138,1000,1.343,-1.466,3.055,1172.9,blue,275,TRUE
206,1661900942.025,4857.464238919908,5894.395332997609,1000,0.942,-1.552,3.132,1188.6,blue,275,TRUE
207,1661900949.222,2836.943259272065,3857.443127086159,1000,2.544,-1.503,0.065,1187.3,blue,275,TRUE
208,1661900954.005,3437.671854014303,3010.7419901726107,1000,0.834,-1.46,3.135,109.4,blue,275,TRUE
209,1661900954.099,4931.199775704884,1431.698157316763,1000,5.675,-1.329,2.598,156.2,red,275,TRUE
210,1661900955.458,3550.0312469832584,2592.2323017778485,1000,1.712,-1.314,2.057,1178.8,blue,275,TRUE
211,1661900960.279,3355.6867362843473,2074.477403645101,1000,2.082,-1.526,3.124,1174.4,blue,275,TRUE
212,1661900962.625,3313.221830036958,1793.3315837117952,1000,1.963,-1.53,3.123,109.4,blue,275,TRUE
213,1661900962.719,5680.667367055658,1688.4126566520333,1000,1.312,-1.021,2.279,157.6,red,275,TRUE
214,1661900964.08,3266.637646306428,1631.1469548209589,1000,1.958,-1.524,3.123,1187.2,blue,275,TRUE
215,1661900966.424,3340.6065897641397,1336.192725155818,1000,0.297,-1.43,2.27,109.4,blue,275,TRUE
216,1661900966.518,5692.676046729893,1659.1866715110666,1000,6.265,-1.345,2.002,171.8,red,275,TRUE
217,1661900967.879,3218.8891483322327,1626.3224019574182,1000,5.643,-1.524,0.004,1157.5,blue,275,TRUE
218,1661900969.27,3157.8842598844562,2309.7799006350656,1000,6.187,-1.511,3.084,125.0,blue,275,TRUE
219,1661900969.38,5735.573281741364,1589.263973447027,1000,0.115,-1.256,2.558,93.7,red,275,TRUE
220,1661900969.693,3269.8680038403313,3285.4699757771195,1000,0.244,-1.5,3.109,109.4,blue,275,TRUE
221,1661900969.787,5809.993876471382,1603.6098039985027,1000,0.133,-1.256,2.518,94.0,red,275,TRUE
222,1661900970.131,3339.614469978324,4242.214040045384,1000,0.139,-1.477,-3.054,124.9,blue,275,TRUE
223,1661900970.24,5865.460660601738,1633.4203738087326,1000,0.141,-1.256,2.49,156.1,red,275,TRUE
224,1661900973.916,3353.6040285270387,6054.228427892602,1000,1.053,-1.488,-3.133,1188.8,blue,275,TRUE
225,1661900976.278,3599.939138406089,6104.232382076654,1000,1.154,-1.431,1.89,109.4,blue,275,TRUE
226,1661900976.372,5635.759926343625,1354.6619125517539,1000,4.056,-1.26,2.5,173.4,red,275,TRUE
227,1661900976.826,3650.774356268859,6104.762697583707,1000,0.854,-1.526,-3.133,109.3,blue,275,TRUE
228,1661900976.92,4951.162238079401,1186.106928556014,1000,5.15,-1.321,2.477,93.7,red,275,TRUE
229,1661900977.232,3680.9127251736572,6071.280155595239,1000,1.078,-1.499,0.067,109.4,blue,275,TRUE
230,1661900977.326,4584.3741171776155,1128.488655319053,1000,5.863,-1.354,2.904,93.7,red,275,TRUE
231,1661900979.966,3623.1161287685973,6040.234319553015,1000,1.394,-1.46,0.095,125.0,blue,275,TRUE
232,1661900980.075,4443.1938931289,1201.9875369434878,1000,0.339,-1.494,3.133,109.3,red,275,TRUE
233,1661900980.435,3696.607723996321,6036.532828359374,1000,1.398,-1.458,0.096,110.6,blue,275,TRUE
234,1661900980.528,4350.728289754516,1200.8058039729294,1000,0.352,-1.442,2.64,95.4,red,275,TRUE
235,1661900981.732,3748.344705069929,5986.434446345506,1000,1.443,-1.461,0.096,109.4,blue,275,TRUE
236,1661900981.827,4515.617484595209,1278.420582891267,1000,0.962,-1.105,2.308,155.9,red,275,TRUE
237,1661900985.552,3753.583899660125,5889.479394114904,1000,1.3,-1.482,0.079,124.9,blue,275,TRUE
238,1661900985.646,5234.8961249465165,1654.8289194736071,1000,1.662,-0.88,2.184,187.4,red,275,TRUE
239,1661900986.116,3760.053347769784,5825.582981479293,1000,1.317,-1.485,0.079,115.3,blue,275,TRUE
240,1661900986.215,5861.8452267936855,1909.3821413910227,1000,1.681,-0.892,2.164,109.4,red,275,TRUE
241,1661900986.543,3762.8230287127203,5781.59610981094,1000,1.317,-1.485,0.079,109.3,blue,275,TRUE
242,1661900986.637,6429.213312395474,2123.7694107520456,1000,1.674,-0.89,2.179,109.1,red,275,TRUE
243,1661900986.95,3853.558418205878,5743.098534916669,1000,1.318,-1.485,0.079,109.4,blue,275,TRUE
244,1661900987.043,6725.765573576206,2240.209482938882,1000,1.649,-0.89,2.207,156.2,red,275,TRUE
245,1661900987.496,3808.6188648439506,5679.253632066255,1000,1.318,-1.48,0.08,125.0,blue,275,TRUE
246,1661900987.59,6949.875956644281,2368.3316861332887,1000,1.656,-0.888,2.21,124.7,red,275,TRUE
247,1661900987.918,3836.4675342531777,5671.910995730759,1000,1.316,-1.478,0.081,125.0,blue,275,TRUE
248,1661900992.703,3763.1001124518352,5693.899743926283,1000,1.093,-1.527,3.112,110.6,blue,275,TRUE
249,1661900992.797,6705.060651121331,2308.3250771454855,1000,5.696,-1.36,2.71,173.4,red,275,TRUE
250,1661900998.914,3458.8622780173073,5877.225041287933,1000,1.182,-1.486,3.09,109.4,blue,275,TRUE
251,1661900999.007,6588.767430027055,2220.099933881526,1000,6.176,-1.156,3.04,156.1,red,275,TRUE
252,1661900999.429,3515.6087157779048,5793.873140736139,1000,1.187,-1.494,3.091,109.4,blue,275,TRUE
253,1661900999.523,6493.730364689381,2123.151738618446,1000,6.177,-1.157,3.041,93.7,red,275,TRUE
254,1661900999.82,3448.6241032968464,5781.66078039449,1000,1.211,-1.493,3.088,125.0,blue,275,TRUE
255,1661900999.929,6400.944615852426,2019.3683061972176,1000,6.184,-1.161,3.034,93.3,red,275,TRUE
256,1661901000.21,3430.489145211865,5746.336154870076,1000,1.23,-1.485,3.076,126.3,blue,275,TRUE
257,1661901000.321,6309.263368009016,1906.7480612182214,1000,6.189,-1.16,3.026,156.2,red,275,TRUE
258,1661901001.745,6232.624957949646,1804.8936656377366,1000,6.201,-1.176,3.017,156.2,red,275,TRUE
259,1661901002.152,3381.50450589564,5512.998824221038,1000,2.194,-1.428,-2.704,109.4,blue,275,TRUE
260,1661901002.245,6321.546757969118,1774.6676208835515,1000,6.153,-1.192,3.067,94.9,red,275,TRUE
261,1661901002.559,3355.2300299870863,5370.432328272255,1000,2.669,-1.44,3.001,109.4,blue,275,TRUE
262,1661901002.653,6261.179305230729,1691.8384190381519,1000,5.793,-1.294,2.827,93.7,red,275,TRUE
263,1661901006.312,3251.7771334866466,4483.4399512360405,1000,2.733,-1.549,3.125,109.4,blue,275,TRUE
264,1661901006.405,6154.461444841054,1629.75326841537,1000,5.189,-1.224,3.091,157.7,red,275,TRUE
265,1661901006.813,3229.886433736598,3506.0309415310408,1000,2.058,-1.467,-3.124,125.0,blue,275,TRUE
266,1661901006.922,6086.117952997415,1553.8010947621706,1000,4.912,-1.064,-2.747,93.5,red,275,TRUE
267,1661901007.25,3184.9437352007717,2528.5961892674463,1000,1.811,-1.45,-2.561,124.9,blue,275,TRUE
268,1661901007.36,5997.897944137413,1533.4658719790186,1000,5.008,-1.049,-2.813,109.4,red,275,TRUE
269,1661901007.688,3116.4198635151893,1588.1151002869876,1000,2.031,-1.517,3.127,125.0,blue,275,TRUE
270,1661901011.516,5848.549817083816,1715.563096196867,1000,5.01,-1.17,-2.957,156.1,red,275,TRUE
271,1661901012.846,3126.781516824723,764.5772810361674,1000,2.197,-1.492,3.087,109.4,blue,275,TRUE
272,1661901012.939,5816.178066126327,1711.8082645075747,1000,5.745,-1.377,2.26,156.2,red,275,TRUE
273,1661901013.363,3109.3775987117083,-64.50204258313065,1000,2.193,-1.497,3.093,125.0,blue,275,TRUE
274,1661901013.472,5732.990434002536,1656.9805997493143,1000,5.77,-1.329,2.187,93.7,red,275,TRUE
275,1661901014.661,3190.1231172722205,-250.884414667647,1000,2.265,-1.511,3.097,109.4,blue,275,TRUE
276,1661901014.755,5717.26482006771,1598.0574163408774,1000,5.83,-1.306,2.26,156.1,red,275,TRUE
277,1661901015.208,3106.1948104139788,-256.5517973614284,1000,2.319,-1.515,3.086,109.3,blue,275,TRUE
278,1661901015.301,5673.871115808937,1577.7462184329358,1000,5.844,-1.31,2.226,93.7,red,275,TRUE
279,1661901015.631,3054.505872915542,-228.05767059159942,1000,2.186,-1.53,0.039,109.4,blue,275,TRUE
280,1661901015.724,5645.052462567422,1555.3757880258036,1000,5.822,-1.311,2.227,93.7,red,275,TRUE
281,1661901016.07,3065.4668012645525,-156.80710885770736,1000,2.043,-1.551,3.126,1130.4,blue,275,TRUE
282,1661901017.483,3034.5982848883505,-121.45343591753851,1000,1.496,-1.473,-3.137,109.4,blue,275,TRUE
283,1661901017.577,5595.096935525456,1550.9451121086167,1000,5.721,-1.34,2.177,93.6,red,275,TRUE
284,1661901018.797,2913.7353119752574,-51.96778314894052,1000,2.104,-1.403,2.25,109.4,blue,275,TRUE
285,1661901018.89,5543.824643904249,1540.6798541333367,1000,5.738,-1.336,2.172,171.8,red,275,TRUE
286,1661901019.296,2843.693189168115,-3.4859755140213835,1000,1.278,-1.508,-3.112,125.0,blue,275,TRUE
287,1661901019.406,5540.518671792083,1573.4143351822852,1000,5.677,-1.344,2.301,109.3,red,275,TRUE
288,1661901019.734,2798.1443020850097,11.875091162078913,1000,1.259,-1.514,-3.093,109.4,blue,275,TRUE
289,1661901019.828,5547.103748002976,1595.2134184121198,1000,5.902,-1.292,2.293,93.7,red,275,TRUE
290,1661901020.141,2835.1039364617905,-21.85826256468609,1000,1.61,-1.518,-3.136,109.3,blue,275,TRUE
291,1661901020.235,5578.78324556604,1577.0456145152677,1000,5.885,-1.318,2.43,156.2,red,275,TRUE
292,1661901020.642,2807.0991081996326,-25.529697486004157,1000,1.427,-1.492,-3.122,109.3,blue,275,TRUE
293,1661901020.736,5601.523773226992,1539.266541670282,1000,4.785,-1.382,2.75,93.7,red,275,TRUE
294,1661901021.049,2763.836046069973,-16.030261653790067,1000,1.288,-1.5,-3.127,124.9,blue,275,TRUE
295,1661901021.158,5580.494303710316,1434.3944051790083,1000,4.154,-1.35,-3.131,93.6,red,275,TRUE
296,1661901022.362,2805.4134407305482,-58.853480373532086,1000,1.37,-1.517,3.131,109.4,blue,275,TRUE
297,1661901022.456,5388.011896388797,1384.2790880055763,1000,4.843,-1.289,2.532,171.9,red,275,TRUE
298,1661901023.881,5157.4058073304195,1345.9306773919197,1000,5.351,-1.208,2.567,156.2,red,275,TRUE
299,1661901026.586,2172.9025087801947,556.304124226904,1000,5.633,-0.94,-0.202,78.1,blue,275,TRUE
300,1661901026.649,4927.643837993438,1347.7230480763826,1000,5.736,-1.15,2.625,156.1,red,275,TRUE
301,1661901027.025,2247.905270679439,453.7739549761778,1000,1.944,-1.484,3.078,109.5,blue,275,TRUE
302,1661901027.119,4755.50419972158,1370.4634230161362,1000,0.051,-1.203,2.438,93.8,red,275,TRUE
303,1661901027.432,2215.3291306728283,339.71161619069665,1000,2.467,-1.456,3.047,109.3,blue,275,TRUE
304,1661901027.525,4663.189514331608,1429.2696018459665,1000,0.525,-1.419,2.482,93.8,red,275,TRUE
305,1661901027.822,2170.903638988801,339.8596630142003,1000,2.567,-1.451,2.16,124.9,blue,275,TRUE
306,1661901027.931,4728.94775989649,1558.50219132577,1000,0.689,-1.445,2.39,109.3,red,275,TRUE
307,1661901028.306,2220.792431753154,234.5613323466027,1000,2.541,-1.446,2.212,109.3,blue,275,TRUE
308,1661901028.4,5030.611881260655,1575.8617240131125,1000,0.733,-1.285,2.186,171.5,red,275,TRUE
309,1661901028.775,2179.697878568377,251.94890849918488,1000,2.461,-1.452,3.051,109.1,blue,275,TRUE
310,1661901028.869,5442.296647787695,1532.6407275876707,1000,0.89,-1.368,2.232,93.8,red,275,TRUE
311,1661901029.197,2882.6125733437316,-463.76467349774003,1000,2.185,-1.456,3.066,109.4,blue,275,TRUE
312,1661901029.29,5922.452526022805,1545.3000431059916,1000,0.668,-1.34,2.141,93.7,red,275,TRUE
313,1661901029.65,2833.942009399922,-415.9525545100966,1000,2.4,-1.452,3.046,109.3,blue,275,TRUE
314,1661901029.744,6305.295846422571,1515.2490416198534,1000,0.559,-1.306,2.443,156.2,red,275,TRUE
315,1661901030.118,2785.8486385644774,-293.8547479430676,1000,2.64,-1.443,2.182,109.5,blue,275,TRUE
316,1661901030.212,6652.015019796437,1511.5413061359811,1000,0.495,-1.301,2.557,93.7,red,275,TRUE
317,1661901030.54,2809.5595587094977,-325.9404604875322,1000,2.502,-1.451,3.046,110.8,blue,275,TRUE
318,1661901030.635,6850.291115637155,1428.0099328793406,1000,0.533,-1.298,2.565,93.7,red,275,TRUE
319,1661901030.996,2800.085325992346,-295.23077793048736,1000,2.405,-1.465,3.058,125.1,blue,275,TRUE
320,1661901031.106,6959.652695650471,1379.2982171195824,1000,0.597,-1.263,2.475,156.2,red,275,TRUE
321,1661901031.449,2818.4752692245215,-335.5781753384752,1000,2.194,-1.506,3.1,124.9,blue,275,TRUE
322,1661901031.559,7057.32800040501,1426.8846611215602,1000,0.68,-1.202,2.543,93.8,red,275,TRUE
323,1661901031.855,2800.8810643669144,-301.3334664517934,1000,1.724,-1.516,-3.138,125.0,blue,275,TRUE
324,1661901031.965,7079.8522794035525,1430.249441493739,1000,0.682,-1.202,2.558,109.4,red,275,TRUE
325,1661901032.371,7793.322758729757,1648.3703337210738,1000,0.022,-1.396,2.537,1160.3,blue,275,TRUE
326,1661901032.371,7219.764626432949,1481.2202666209148,1000,0.022,-1.396,2.537,1160.3,red,275,TRUE
327,1661901032.371,7324.708265469494,1497.8658425708027,1000,0.022,-1.396,2.537,1160.3,red,275,TRUE
328,1661901033.783,5335.448183318236,708.2398725810602,1000,1.307,-1.489,-3.138,109.4,blue,275,TRUE
329,1661901033.876,7308.51327504263,1482.2972919073309,1000,0.509,-1.261,2.574,93.7,red,275,TRUE
330,1661901034.204,4515.831006768148,433.9869675836985,1000,1.259,-1.487,-3.133,109.4,blue,275,TRUE
331,1661901034.298,7330.346963548807,1505.7908890228045,1000,0.4,-1.345,2.452,93.8,red,275,TRUE
332,1661901034.626,4131.5238501259255,276.9098062117481,1000,1.353,-1.492,3.138,109.5,blue,275,TRUE
333,1661901034.72,7204.1361645904,1424.0148165535638,1000,6.258,-1.352,2.423,156.1,red,275,TRUE
334,1661901035.159,3894.535715432599,169.03601313670498,1000,1.43,-1.486,3.141,109.4,blue,275,TRUE
335,1661901035.253,7011.840287861797,1329.5668483335253,1000,5.522,-1.325,2.653,93.7,red,275,TRUE
336,1661901036.443,3734.703925359044,105.66542210229177,1000,1.332,-1.492,-3.138,109.4,blue,275,TRUE
337,1661901036.537,6720.895311674835,1274.9174411556223,1000,5.71,-1.329,2.129,171.9,red,275,TRUE
338,1661901036.959,2918.8280258069267,-190.60317269349585,1000,1.42,-1.49,3.139,124.9,blue,275,TRUE
339,1661901037.068,6418.510201924216,1224.292989742892,1000,5.685,-1.357,2.028,93.7,red,275,TRUE
340,1661901038.258,2907.370342371781,-161.3445218914936,1000,1.416,-1.49,3.139,109.4,blue,275,TRUE
341,1661901038.352,6219.382365494165,1262.7718575777678,1000,4.859,-1.271,2.764,156.2,red,275,TRUE
342,1661901038.774,2924.3735138233405,-182.36676910424856,1000,1.403,-1.492,3.141,124.9,blue,275,TRUE
343,1661901038.883,5988.99393163959,1314.7840046744648,1000,4.995,-1.298,2.79,94.1,red,275,TRUE
344,1661901039.211,2928.2153066803385,-191.91054921994035,1000,1.39,-1.492,-3.141,109.4,blue,275,TRUE
345,1661901039.305,5829.100256086672,1409.1062601176081,1000,5.344,-1.26,2.529,93.7,red,275,TRUE
346,1661901039.617,2931.227324834849,-183.65125988964442,1000,1.401,-1.491,3.141,109.4,blue,275,TRUE
347,1661901039.711,5676.574818502418,1476.2846082598128,1000,5.239,-1.274,2.572,156.2,red,275,TRUE
348,1661901040.133,2929.6036857286836,-171.9412670428383,1000,1.418,-1.493,3.139,109.3,blue,275,TRUE
349,1661901040.227,5517.672835560393,1496.3690632206826,1000,4.332,-1.265,-3.134,93.6,red,275,TRUE
350,1661901040.445,2935.9586369970693,-174.12367278997746,1000,1.415,-1.493,3.139,125.1,blue,275,TRUE
351,1661901040.555,5360.751437352378,1495.5009309827235,1000,3.96,-1.343,-3.043,95.2,red,275,TRUE
352,1661901041.775,2993.7675243074577,-172.36778711557005,1000,1.415,-1.491,3.139,93.8,blue,275,TRUE
353,1661901041.853,5131.033109971056,1498.1215724358915,1000,5.497,-1.208,2.665,157.9,red,275,TRUE
354,1661901042.276,2997.4339324121265,-165.99633142743474,1000,1.397,-1.491,-3.141,109.4,blue,275,TRUE
355,1661901042.37,4994.437437586446,1473.4920218255827,1000,6.145,-1.217,2.583,109.1,red,275,TRUE
356,1661901042.698,2991.7638884338426,-164.31758547813777,1000,1.345,-1.496,-3.135,109.5,blue,275,TRUE
357,1661901042.792,4905.044042366223,1475.4976527901229,1000,0.326,-1.237,2.485,93.7,red,275,TRUE
358,1661901043.104,2972.345940885598,-151.7705208187516,1000,1.261,-1.509,-3.131,109.4,blue,275,TRUE
359,1661901043.198,4878.027860151876,1475.547796327256,1000,0.492,-1.43,2.595,156.2,red,275,TRUE
360,1661901043.62,2969.0481243891063,-162.43216612049412,1000,1.319,-1.515,-3.136,109.4,blue,275,TRUE
361,1661901043.713,4948.490796542151,1516.2017428216147,1000,0.355,-1.434,2.507,94.0,red,275,TRUE
362,1661901044.948,2963.1486954126162,-170.1574526996367,1000,1.355,-1.51,-3.138,109.4,blue,275,TRUE
363,1661901045.042,5063.579091902247,1559.6875353372586,1000,6.114,-1.38,2.332,171.5,red,275,TRUE
364,1661901045.448,2922.276690097373,-199.9906157057625,1000,1.354,-1.51,-3.138,125.0,blue,275,TRUE
365,1661901045.558,5307.042494100825,1624.3779442165398,1000,6.136,-1.37,2.484,95.2,red,275,TRUE
366,1661901045.856,2916.7244924309616,-198.55435942523604,1000,1.364,-1.51,-3.139,126.5,blue,275,TRUE
367,1661901046.014,5645.439643565175,1611.5006559349195,1000,6.177,-1.412,2.425,1061.3,red,275,TRUE
368,1661901047.138,2907.388806730986,-190.57588739707853,1000,1.389,-1.511,-3.141,125.0,blue,275,TRUE
369,1661901047.623,2929.1552424867405,-196.7524305797343,1000,1.419,-1.51,3.139,109.4,blue,275,TRUE
370,1661901047.717,5726.120491447565,1686.0739478714054,1000,6.082,-1.417,2.277,93.4,red,275,TRUE
371,1661901048.029,2929.9865288901906,-188.50316066937816,1000,1.454,-1.509,3.138,124.7,blue,275,TRUE
372,1661901048.139,5793.789954563258,1817.9853820383823,1000,6.048,-1.4,2.157,93.8,red,275,TRUE
373,1661901048.436,2935.9876655680705,-186.115458064815,1000,1.454,-1.509,3.137,124.9,blue,275,TRUE
374,1661901048.545,5816.827861138387,1884.6721618901092,1000,5.991,-1.41,2.23,156.2,red,275,TRUE
375,1661901048.951,2937.5121481767437,-181.918520336768,1000,1.44,-1.51,3.138,125.0,blue,275,TRUE
376,1661901049.06,5788.678734536387,1788.0889115202383,1000,6.056,-1.349,2.241,109.4,red,275,TRUE
377,1661901049.389,2917.894113327136,-162.61170917824606,1000,1.429,-1.516,3.139,109.4,blue,275,TRUE
378,1661901049.482,5802.116456750913,1744.1065746038307,1000,5.926,-1.392,2.198,93.8,red,275,TRUE
379,1661901049.795,2920.677459026791,-156.22313867952616,1000,1.436,-1.52,3.139,109.4,blue,275,TRUE
380,1661901049.888,5821.969649964492,1701.590952404099,1000,5.902,-1.365,2.195,156.2,red,275,TRUE
381,1661901050.327,2895.323786822941,-135.1348022050536,1000,1.431,-1.526,3.139,109.4,blue,275,TRUE
382,1661901050.421,5853.504895949091,1710.0748123064352,1000,5.89,-1.371,2.105,93.7,red,275,TRUE
383,1661901050.719,2896.6084183573153,-138.87406812209377,1000,1.431,-1.527,3.139,109.3,blue,275,TRUE
384,1661901050.813,5847.864058670275,1675.4653625147682,1000,5.893,-1.367,2.079,94.0,red,275,TRUE
385,1661901051.126,2878.1202787547063,-127.10456536612016,1000,1.445,-1.527,3.138,124.6,blue,275,TRUE
386,1661901051.235,5816.894617773337,1556.9395767093683,1000,5.892,-1.373,2.062,156.3,red,275,TRUE
387,1661901051.642,2880.3411850760476,-133.10735351438439,1000,1.425,-1.527,3.139,125.1,blue,275,TRUE
388,1661901051.768,5954.389655068729,1298.4472613581263,1000,5.84,-1.37,2.092,1079.4,red,275,TRUE
389,1661901052.925,2901.829751712025,-156.6357950057389,1000,1.438,-1.526,3.138,109.4,blue,275,TRUE
390,1661901053.019,5956.155575722458,1517.6863664860175,1000,5.86,-1.364,2.137,156.2,red,275,TRUE
391,1661901053.425,2900.711207839325,-153.4494459043439,1000,1.476,-1.526,3.137,109.4,blue,275,TRUE
392,1661901053.519,5938.310596859359,1575.8661926472942,1000,5.856,-1.366,2.122,109.4,red,275,TRUE
393,1661901053.847,2920.3336730698406,-169.74542068283515,1000,1.491,-1.518,3.134,109.3,blue,275,TRUE
394,1661901053.94,5934.616315227808,1573.1434654874304,1000,5.861,-1.367,2.102,93.8,red,275,TRUE
395,1661901054.268,2923.1517171805185,-157.1142260245405,1000,1.524,-1.515,3.13,109.6,blue,275,TRUE
396,1661901054.362,5921.712560028996,1551.8640314080756,1000,5.863,-1.369,2.086,156.2,red,275,TRUE
397,1661901054.784,2950.320787255559,-160.97214388634018,1000,1.533,-1.512,3.127,109.3,blue,275,TRUE
398,1661901054.878,5906.871290574719,1562.8829062025345,1000,5.871,-1.368,2.088,93.7,red,275,TRUE
399,1661901055.19,2948.6721645386056,-137.38576636909667,1000,1.532,-1.513,3.127,109.4,blue,275,TRUE
400,1661901055.284,5902.918642560048,1628.978345143336,1000,5.871,-1.365,2.092,93.7,red,275,TRUE
401,1661901055.581,2943.2866235338847,-129.37688314772396,1000,1.563,-1.512,3.125,110.8,blue,275,TRUE
402,1661901055.676,5905.727622309559,1575.595962815133,1000,5.853,-1.365,2.105,156.3,red,275,TRUE
403,1661901056.098,2946.7564828246573,-140.78052404453516,1000,1.779,-1.497,3.1,125.0,blue,275,TRUE
404,1661901056.207,5888.4778627827645,1516.2547725967354,1000,5.845,-1.372,2.11,93.8,red,275,TRUE
405,1661901056.504,2954.8161514109893,-152.0914617918151,1000,2.006,-1.484,3.078,140.6,blue,275,TRUE
406,1661901056.629,5882.942694260125,1458.3191686294151,1000,5.862,-1.372,2.09,93.7,red,275,TRUE
407,1661901056.927,2970.864213287132,-192.80373436011826,1000,2.119,-1.473,3.06,125.0,blue,275,TRUE
408,1661901057.083,3530.181894121533,5767.12941441981,1000,0.016,-1.396,0.493,1124.4,red,275,TRUE
409,1661901058.272,2961.5878248987706,-226.54944711742814,1000,2.302,-1.486,3.059,125.0,blue,275,TRUE
410,1661901058.725,2969.779672329261,-252.58104108555003,1000,1.84,-1.532,3.109,109.4,blue,275,TRUE
411,1661901058.819,5976.7291597102,1543.2917584061627,1000,5.95,-1.364,2.085,93.7,red,275,TRUE
412,1661901060.039,2974.5882908283297,-254.56345238394658,1000,1.364,-1.516,3.132,109.3,blue,275,TRUE
413,1661901060.133,5888.356059691448,1465.5773175027784,1000,5.952,-1.361,2.075,157.5,red,275,TRUE
414,1661901060.477,2964.8482736319797,-240.73274907139452,1000,1.251,-1.51,-3.132,126.2,blue,275,TRUE
415,1661901060.587,5862.1702962663985,1419.1246007198533,1000,5.956,-1.361,2.07,110.9,red,275,TRUE
416,1661901060.885,2928.5608531170105,-213.89795755193634,1000,1.209,-1.508,3.139,111.3,blue,275,TRUE
417,1661901060.981,5871.303866863546,1441.9995625092815,1000,5.957,-1.361,2.069,93.7,red,275,TRUE
418,1661901061.293,2922.8914140173183,-187.718925745625,1000,1.34,-1.504,3.13,109.8,blue,275,TRUE
419,1661901061.387,5841.273272039374,1407.854491946696,1000,5.961,-1.361,2.064,93.7,red,275,TRUE
420,1661901061.699,2929.581313661441,-166.6521011622073,1000,1.352,-1.509,3.133,109.4,blue,275,TRUE
421,1661901061.793,5821.894216527649,1382.267828504024,1000,5.961,-1.361,2.062,156.5,red,275,TRUE
422,1661901062.214,2916.3707670161916,-137.24004229044647,1000,1.261,-1.509,3.137,110.9,blue,275,TRUE
423,1661901062.308,5790.873976477208,1353.492945241968,1000,5.962,-1.362,2.058,95.6,red,275,TRUE
424,1661901062.607,2906.020668407294,-134.65872618346177,1000,1.338,-1.511,3.131,109.3,blue,275,TRUE
425,1661901062.7,5809.761193459814,1370.1126545116292,1000,5.958,-1.361,2.065,93.7,red,275,TRUE
426,1661901063.013,2899.393927446082,-131.8363661910206,1000,1.422,-1.512,3.127,124.9,blue,275,TRUE
427,1661901063.122,5838.066365560618,1410.8197084958601,1000,5.953,-1.361,2.079,156.2,red,275,TRUE
428,1661901063.528,2923.2967210227744,-147.91886142484216,1000,1.547,-1.515,3.119,109.4,blue,275,TRUE
429,1661901063.622,5841.951323831272,1421.9498605036724,1000,5.952,-1.361,2.081,93.7,red,275,TRUE
430,1661901063.919,2914.5307215022244,-145.2782797604266,1000,1.559,-1.515,3.115,109.4,blue,275,TRUE
431,1661901064.013,5875.430790787767,1465.9435367246788,1000,5.95,-1.36,2.082,93.8,red,275,TRUE
432,1661901064.325,2906.4100825915725,-134.98966629953358,1000,1.552,-1.514,3.115,109.4,blue,275,TRUE
433,1661901064.419,5916.705324659852,1509.9462868804083,1000,5.957,-1.361,2.07,109.0,red,275,TRUE
434,1661901064.747,2888.997260189741,-123.94705274661662,1000,1.588,-1.515,3.114,109.3,blue,275,TRUE
435,1661901064.841,5944.098373294001,1537.9482454178788,1000,5.964,-1.362,2.059,156.2,red,275,TRUE
436,1661901065.264,2889.313491087604,-128.10685117499077,1000,1.617,-1.515,3.113,109.4,blue,275,TRUE
437,1661901065.358,5948.332511117126,1557.0311533200638,1000,5.965,-1.362,2.058,93.7,red,275,TRUE
438,1661901065.656,2911.3401835125237,-154.22882904745074,1000,1.622,-1.516,3.114,109.3,blue,275,TRUE
439,1661901065.75,5945.4604173887865,1557.8818583380234,1000,5.965,-1.362,2.057,93.8,red,275,TRUE
440,1661901066.047,2913.9297008614903,-155.32598029864826,1000,1.536,-1.52,3.122,124.9,blue,275,TRUE
441,1661901066.156,5936.548044921347,1538.4313958083947,1000,5.965,-1.362,2.057,155.9,red,275,TRUE
442,1661901066.562,2915.9294538002155,-163.2636299940792,1000,1.393,-1.528,3.129,125.0,blue,275,TRUE
443,1661901066.671,5928.231426050096,1519.3840880243858,1000,5.929,-1.367,2.16,93.7,red,275,TRUE
444,1661901066.968,2920.7673965889694,-171.73940336017668,1000,1.346,-1.529,3.131,109.3,blue,275,TRUE
445,1661901067.062,5882.019985864347,1532.5714476818787,1000,6.019,-1.366,2.202,93.8,red,275,TRUE
446,1661901067.39,2945.261794462877,-207.299477494208,1000,1.379,-1.524,3.13,109.3,blue,275,TRUE
447,1661901067.484,5834.360858212767,1548.273908561814,1000,6.133,-1.341,2.133,156.2,red,275,TRUE
448,1661901067.906,2945.0399535980782,-191.0984150157293,1000,1.321,-1.52,3.141,124.9,blue,275,TRUE
449,1661901068.015,5800.54677547878,1581.4765089399787,1000,5.979,-1.222,2.639,94.0,red,275,TRUE
450,1661901068.344,2903.1429268071547,-134.20986418517998,1000,1.251,-1.525,-3.139,109.3,blue,275,TRUE
451,1661901068.438,5771.384389185815,1546.445902549417,1000,5.334,-1.112,-3.06,93.6,red,275,TRUE
452,1661901071.095,2908.632895586981,-136.6672797033064,1000,1.381,-1.535,3.131,109.4,blue,275,TRUE
453,1661901071.189,5730.334330721983,1581.6357134542047,1000,4.785,-1.247,-3.038,171.9,red,275,TRUE
454,1661901071.548,2901.721381448139,-132.22675217265348,1000,1.328,-1.528,3.141,125.0,blue,275,TRUE
455,1661901071.658,5621.454884334191,1545.6867800191174,1000,4.479,-1.292,2.724,93.6,red,275,TRUE
456,1661901072.862,2901.486001499786,-117.71808298209099,1000,1.343,-1.522,3.141,109.0,blue,275,TRUE
457,1661901072.956,5450.116215377746,1502.886242006109,1000,5.734,-1.106,2.535,156.2,red,275,TRUE
458,1661901073.395,2907.8771424672905,-103.4666141796739,1000,1.357,-1.523,3.141,109.3,blue,275,TRUE
459,1661901073.488,5329.558863827629,1499.6563405297459,1000,0.264,-1.153,2.608,93.7,red,275,TRUE
460,1661901073.801,2916.471598315688,-113.26331410232791,1000,1.394,-1.526,3.136,109.4,blue,275,TRUE
461,1661901073.894,5291.886979569271,1425.0346434858418,1000,0.663,-1.371,2.446,94.0,red,275,TRUE
462,1661901075.083,2959.9999087746223,-167.24693084994206,1000,1.493,-1.515,3.126,109.3,blue,275,TRUE
463,1661901075.177,5439.95428594175,1468.8346237533094,1000,1.523,-0.831,2.374,156.2,red,275,TRUE
464,1661901075.583,2962.749382109663,-179.70385322635443,1000,1.464,-1.514,3.129,110.7,blue,275,TRUE
465,1661901075.678,5598.737007470892,1487.3742901318947,1000,1.376,-0.958,2.4,93.7,red,275,TRUE
466,1661901076.904,2990.28476633518,-172.91199113488298,1000,1.48,-1.515,3.127,93.4,blue,275,TRUE
467,1661901076.982,5705.415285503995,1561.7132548866819,1000,0.068,-1.37,2.388,156.2,red,275,TRUE
468,1661901077.42,2972.4376614133485,-164.79507797140553,1000,1.498,-1.522,3.125,109.3,blue,275,TRUE
469,1661901077.514,5891.641448408863,1591.9758284466295,1000,0.003,-1.357,2.269,93.8,red,275,TRUE
470,1661901077.811,2975.3427271984406,-175.4598206323808,1000,1.504,-1.525,3.125,109.4,blue,275,TRUE
471,1661901077.905,6054.554113433504,1585.5055171172469,1000,6.248,-1.352,2.356,93.8,red,275,TRUE
472,1661901078.217,2944.1722389904317,-143.6694965571862,1000,1.511,-1.526,3.124,124.9,blue,275,TRUE
473,1661901078.326,6123.890442151256,1625.886602499798,1000,6.252,-1.361,2.256,156.2,red,275,TRUE
474,1661901078.748,2921.5753879674517,-119.46018590192993,1000,1.521,-1.526,3.124,109.3,blue,275,TRUE
475,1661901078.842,5966.504969083401,1556.65920072822,1000,5.618,-1.392,2.737,93.9,red,275,TRUE
476,1661901079.123,2888.238531763292,-79.29379283927912,1000,1.522,-1.527,3.124,125.0,blue,275,TRUE
477,1661901079.233,5791.907761452945,1485.0613398066273,1000,5.039,-1.33,2.839,109.3,red,275,TRUE
478,1661901079.561,2864.0880902939625,-78.47625966671079,1000,1.523,-1.528,3.124,109.3,blue,275,TRUE
479,1661901079.654,5675.727503869627,1455.1170238098891,1000,4.888,-1.301,2.553,156.2,red,275,TRUE
480,1661901080.062,2885.1752259764617,-93.37632410727497,1000,1.565,-1.529,3.123,109.4,blue,275,TRUE
481,1661901080.156,5622.138336455014,1484.1355342020936,1000,5.489,-1.34,2.164,93.7,red,275,TRUE
482,1661901080.484,2883.164948495907,-89.49016362708238,1000,1.59,-1.529,3.122,109.4,blue,275,TRUE
483,1661901080.577,5534.362301867492,1485.7843921366848,1000,5.658,-1.331,2.194,95.4,red,275,TRUE
484,1661901080.876,2918.6333085892925,-117.15970361414436,1000,1.588,-1.528,3.122,109.1,blue,275,TRUE
485,1661901080.969,5471.913440816177,1515.345749049314,1000,5.641,-1.312,2.382,156.6,red,275,TRUE
486,1661901081.407,2942.946011893828,-132.57086376282322,1000,1.552,-1.524,3.126,126.3,blue,275,TRUE
487,1661901081.518,5462.28224873666,1625.1845316827003,1000,5.496,-1.325,2.363,93.7,red,275,TRUE
488,1661901081.815,2921.434455474622,-106.08539678822069,1000,1.289,-1.513,-3.126,109.3,blue,275,TRUE
489,1661901081.908,5463.379450879135,1649.2715742139417,1000,4.973,-1.306,2.752,95.3,red,275,TRUE
490,1661901083.099,2915.0501430269755,-116.19614552414703,1000,1.381,-1.521,-3.139,109.4,blue,275,TRUE
491,1661901083.192,5301.280645639658,1539.4120571658884,1000,3.479,-1.354,2.8,171.8,red,275,TRUE
492,1661901083.63,2910.7945036569745,-119.39137570148681,1000,1.504,-1.528,3.135,140.9,blue,275,TRUE
493,1661901083.755,4985.860891455654,1490.4550393363781,1000,4.164,-1.393,3.078,93.7,red,275,TRUE
494,1661901085.005,2888.4547277571437,-102.34641469349113,1000,1.352,-1.52,-3.138,1188.6,blue,275,TRUE
495,1661901086.474,2877.020754951216,-98.1491049271883,1000,1.609,-1.528,3.124,109.4,blue,275,TRUE
496,1661901086.568,4860.627174347926,1819.7698635455627,1000,0.762,-1.357,2.532,93.7,red,275,TRUE
497,1661901087.802,2866.113035116275,-92.1870249051317,1000,1.681,-1.528,3.119,109.4,blue,275,TRUE
498,1661901087.896,4874.89398532086,2022.6008950356816,1000,1.476,-1.311,2.334,171.7,red,275,TRUE
499,1661901088.319,2899.959880616983,-129.0592108210549,1000,1.71,-1.528,3.117,124.9,blue,275,TRUE
500,1661901088.428,4944.740245406208,2149.9375661321615,1000,1.967,-1.314,2.67,93.7,red,275,TRUE
501,1661901088.741,2915.214537711536,-134.33537568926633,1000,1.671,-1.532,3.121,109.3,blue,275,TRUE
502,1661901088.835,4972.623788134921,2341.596702003801,1000,2.139,-1.119,2.938,93.7,red,275,TRUE
503,1661901089.131,2906.380748182413,-124.23426691452352,1000,1.589,-1.538,3.122,109.4,blue,275,TRUE
504,1661901089.225,5213.160291425157,2589.8088228380925,1000,2.032,-1.166,2.98,156.3,red,275,TRUE
505,1661901089.631,2930.71774407199,-137.4613731091549,1000,1.55,-1.528,3.124,109.4,blue,275,TRUE
506,1661901089.725,5562.925957240168,2827.4948314656317,1000,1.972,-1.266,2.943,93.8,red,275,TRUE
507,1661901090.022,2935.27987007814,-143.11510475883316,1000,1.536,-1.527,3.127,109.4,blue,275,TRUE
508,1661901090.116,5757.338681592943,2703.3989236562966,1000,1.902,-1.31,2.976,93.6,red,275,TRUE
509,1661901091.322,2940.111566380429,-148.8360883634424,1000,1.574,-1.528,3.124,109.4,blue,275,TRUE
510,1661901091.415,5793.3453479645805,2651.6145986925935,1000,1.915,-1.334,2.946,171.8,red,275,TRUE
511,1661901091.837,2961.974570420984,-162.96588068680504,1000,1.572,-1.532,3.124,109.3,blue,275,TRUE
512,1661901091.931,5745.427462274431,2654.0542848937002,1000,1.924,-1.333,2.932,109.1,red,275,TRUE
513,1661901092.228,2958.375910130837,-148.8328883772824,1000,1.578,-1.533,3.124,109.4,blue,275,TRUE
514,1661901092.322,5785.679826306619,2660.315144023141,1000,1.91,-1.333,2.941,109.3,red,275,TRUE
515,1661901092.65,2969.813262341604,-153.0333034656393,1000,1.575,-1.533,3.124,109.3,blue,275,TRUE
516,1661901092.743,5832.4317255779,2720.929559690839,1000,1.903,-1.332,2.955,156.2,red,275,TRUE
517,1661901093.149,2969.0616253442927,-155.62931150404987,1000,1.58,-1.53,3.124,125.0,blue,275,TRUE
518,1661901093.509,2977.56370109333,-169.39660229870483,1000,1.593,-1.527,3.122,124.6,blue,275,TRUE
519,1661901093.602,5854.021712980054,2695.7244082107304,1000,1.911,-1.348,2.942,95.2,red,275,TRUE
520,1661901093.901,2976.218682899762,-166.0899688153999,1000,1.593,-1.524,3.122,109.4,blue,275,TRUE
521,1661901093.994,5895.9689947862325,2652.494100538739,1000,1.88,-1.348,2.964,93.8,red,275,TRUE
522,1661901095.183,2971.49590983738,-164.9712619267225,1000,1.642,-1.524,3.114,109.3,blue,275,TRUE
523,1661901095.277,5874.325199051159,2648.696633561277,1000,1.868,-1.329,2.963,171.8,red,275,TRUE
524,1661901095.7,2970.7389482124795,-160.1920632103689,1000,1.667,-1.525,3.114,109.4,blue,275,TRUE
525,1661901095.794,5849.066539753865,2636.430087667955,1000,1.885,-1.328,2.938,93.8,red,275,TRUE
526,1661901096.075,2977.0708785415204,-170.04637707646052,1000,1.582,-1.527,3.127,109.3,blue,275,TRUE
527,1661901096.169,5838.817239527469,2639.0550947311867,1000,1.889,-1.328,2.935,93.7,red,275,TRUE
528,1661901096.483,2972.5669819479067,-171.41537224189736,1000,1.434,-1.527,3.135,109.4,blue,275,TRUE
529,1661901096.577,5864.740360438227,2639.4462979883297,1000,1.888,-1.334,2.927,93.8,red,275,TRUE
530,1661901096.858,2961.8977200154586,-156.71641316784562,1000,1.451,-1.527,3.136,109.4,blue,275,TRUE
531,1661901096.952,5860.188354789239,2631.2371309931755,1000,1.898,-1.335,2.911,156.3,red,275,TRUE
532,1661901097.358,2960.9442581407675,-148.98407804045198,1000,1.478,-1.528,3.137,124.9,blue,275,TRUE
533,1661901097.467,5858.625262208835,2634.156301849814,1000,1.903,-1.334,2.904,109.3,red,275,TRUE
534,1661901097.764,2948.5494311289826,-148.8992430980218,1000,1.474,-1.53,3.137,109.4,blue,275,TRUE
535,1661901097.858,5866.511579993472,2640.1916307589145,1000,1.905,-1.337,2.934,93.8,red,275,TRUE
536,1661901098.154,2938.006213482188,-145.35663359833515,1000,1.493,-1.53,3.136,140.6,blue,275,TRUE
537,1661901100.655,5869.814141532014,2647.7555609179008,1000,1.937,-1.328,2.922,156.1,red,275,TRUE
538,1661901101.061,2938.8599080851836,-150.8827185649142,1000,1.613,-1.537,3.133,109.4,blue,275,TRUE
539,1661901101.155,5862.463286603864,2646.408823203324,1000,1.936,-1.324,2.926,93.6,red,275,TRUE
540,1661901101.405,2913.5081727215797,-124.75779788194443,1000,1.646,-1.535,3.132,125.0,blue,275,TRUE
541,1661901101.514,5826.848662052694,2645.433236038335,1000,1.934,-1.323,2.93,93.7,red,275,TRUE
542,1661901102.717,2894.7505484607177,-102.8605903065851,1000,1.666,-1.538,3.13,109.6,blue,275,TRUE
543,1661901102.811,5857.342405500726,2609.898894397396,1000,1.981,-1.304,2.817,171.9,red,275,TRUE
544,1661901103.234,2901.810979338372,-112.66035826977004,1000,1.681,-1.535,3.124,124.9,blue,275,TRUE
545,1661901103.391,5860.480964841495,2513.2232391767,1000,2.106,-1.381,2.637,1062.3,red,275,TRUE
546,1661901104.515,2912.1002856617506,-121.06911961632674,1000,1.559,-1.541,3.138,126.4,blue,275,TRUE
547,1661901104.611,5718.259810195573,2476.6910697734825,1000,2.95,-1.406,2.619,171.5,red,275,TRUE
548,1661901105.032,2924.3230006121703,-129.7865238791878,1000,1.656,-1.532,3.132,109.4,blue,275,TRUE
549,1661901105.126,5647.327872526712,2442.30600780181,1000,3.023,-1.377,2.654,93.7,red,275,TRUE
550,1661901105.423,2920.670035850108,-120.7970867555026,1000,1.673,-1.53,3.131,125.0,blue,275,TRUE
551,1661901105.532,5587.431456939625,2464.215126197673,1000,3.695,-1.185,2.553,110.6,red,275,TRUE
552,1661901107.169,2975.7241868563215,-150.52012750964906,1000,1.79,-1.523,3.114,109.7,blue,275,TRUE
553,1661901107.263,5296.182762247333,2643.1804836935885,1000,3.97,-1.244,2.331,95.4,red,275,TRUE
554,1661901107.593,2928.410182016845,-90.85510508503313,1000,1.8,-1.523,3.114,109.4,blue,275,TRUE
555,1661901107.687,5040.321224652454,2707.3534341051577,1000,3.376,-1.259,2.68,93.7,red,275,TRUE
556,1661901107.968,2938.228682366825,-108.10589649781697,1000,1.692,-1.527,3.125,109.4,blue,275,TRUE
557,1661901108.062,4695.25339188832,2751.661018199724,1000,2.836,-1.289,2.488,93.4,red,275,TRUE
558,1661901108.359,2909.4663582274284,-83.97015008714646,1000,1.529,-1.535,3.135,124.9,blue,275,TRUE
559,1661901108.468,4430.821676705563,2792.61018056435,1000,2.41,-1.258,2.56,156.2,red,275,TRUE
560,1661901108.874,2890.3486309656396,-80.17282158926757,1000,1.532,-1.537,3.132,109.4,blue,275,TRUE
561,1661901108.968,4139.4445269982325,2738.842284139862,1000,2.215,-1.346,2.721,93.8,red,275,TRUE
562,1661901109.249,2905.673844371772,-90.80340398744097,1000,1.57,-1.537,3.131,124.9,blue,275,TRUE
563,1661901109.405,4044.257089753306,1289.4547540479316,1000,1.875,-1.321,2.606,1064.0,red,275,TRUE
564,1661901110.547,2911.9166911312373,-96.97514334090685,1000,1.617,-1.539,3.13,126.2,blue,275,TRUE
565,1661901110.657,4453.3391402135985,1447.8467027543288,1000,0.705,-1.214,2.546,156.6,red,275,TRUE
566,1661901111.063,2929.7014349412516,-123.777753494413,1000,1.619,-1.539,3.13,109.6,blue,275,TRUE
567,1661901111.157,4776.078885202554,1518.9342955784505,1000,0.388,-1.445,2.901,93.7,red,275,TRUE
568,1661901113.379,5284.995684564174,1544.2378338348585,1000,0.435,-1.371,3.029,1188.8,red,275,TRUE
569,1661901115.756,5668.959564263159,1525.8522534855233,1000,0.259,-1.416,2.488,156.5,red,275,TRUE
570,1661901116.147,2933.8963916928647,-132.01083875762498,1000,1.724,-1.542,3.126,109.0,blue,275,TRUE
571,1661901116.241,5925.736168657645,1542.452904511805,1000,0.248,-1.432,2.815,93.7,red,275,TRUE
572,1661901116.553,2955.7643369912034,-160.34172063468043,1000,1.65,-1.537,3.131,126.6,blue,275,TRUE
573,1661901116.664,6466.762094202238,1610.0276392813782,1000,0.221,-1.41,2.859,93.8,red,275,TRUE
574,1661901116.947,2966.9584029050493,-166.64574444128638,1000,1.59,-1.532,3.125,109.3,blue,275,TRUE
575,1661901117.04,6861.916243651923,1599.8041846320764,1000,0.436,-1.39,2.587,109.1,red,275,TRUE
576,1661901117.353,2964.92074570693,-168.6651308833117,1000,1.778,-1.512,3.101,109.3,blue,275,TRUE
577,1661901117.447,7194.524265608034,1535.143786951228,1000,0.543,-1.394,2.475,156.2,red,275,TRUE
578,1661901117.868,2957.031447193623,-162.88355059780585,1000,2.147,-1.479,3.069,109.3,blue,275,TRUE
579,1661901117.962,7268.870064740586,1532.4730384698466,1000,0.728,-1.367,2.464,93.8,red,275,TRUE
580,1661901118.245,2963.056622236458,-164.50698094448907,1000,2.311,-1.479,3.063,109.4,blue,275,TRUE
581,1661901118.339,7281.475758653955,1522.5286217546789,1000,0.785,-1.357,2.431,109.0,red,275,TRUE
582,1661901118.666,2987.4162762339424,-214.6858762046986,1000,2.278,-1.479,3.065,109.6,blue,275,TRUE
583,1661901118.76,7296.426608972532,1496.8036243052284,1000,0.747,-1.398,2.349,156.5,red,275,TRUE
584,1661901119.104,2993.006147486145,-212.77141945409235,1000,2.277,-1.469,3.06,125.1,blue,275,TRUE
585,1661901119.213,7260.740000385466,1422.5575227354836,1000,0.721,-1.381,2.368,93.8,red,275,TRUE
586,1661901119.573,3024.3872331383704,-265.24123679899,1000,2.255,-1.456,3.055,126.3,blue,275,TRUE
587,1661901119.683,7260.029539714465,1402.9184542607466,1000,0.706,-1.401,2.342,93.8,red,275,TRUE
588,1661901119.98,3024.0462480846836,-264.45606380307856,1000,2.16,-1.432,2.227,109.4,blue,275,TRUE
589,1661901120.074,7219.280594944911,1463.07265583296,1000,0.656,-1.394,2.414,157.8,red,275,TRUE
590,1661901120.435,3029.847900399653,-266.8195097915541,1000,2.044,-1.428,2.31,109.3,blue,275,TRUE
591,1661901121.891,2981.070960269961,-198.55641822039595,1000,1.263,-1.407,-2.196,109.4,blue,275,TRUE
592,1661901121.985,7055.179126868406,1393.7029086750179,1000,5.155,-1.317,2.779,93.8,red,275,TRUE
593,1661901122.346,2950.463797199495,-4.56645685139362,1000,0.952,-1.432,-2.467,109.4,blue,275,TRUE
594,1661901122.439,6827.241693362808,1337.0883001006598,1000,4.933,-1.305,2.88,93.8,red,275,TRUE
595,1661901122.752,2896.0313068515866,195.03507760266805,1000,0.538,-1.442,2.382,109.4,blue,275,TRUE
596,1661901122.845,6628.91841873647,1319.6757582973414,1000,4.848,-1.299,2.887,156.2,red,275,TRUE
597,1661901123.142,2855.0984826527088,544.645519290936,1000,0.184,-1.479,3.081,109.6,blue,275,TRUE
598,1661901123.236,6459.847318028944,1352.6039978971937,1000,4.713,-1.342,2.709,93.8,red,275,TRUE
599,1661901123.548,2889.5603384201077,942.7478119238649,1000,0.529,-1.569,-3.141,125.9,blue,275,TRUE
600,1661901123.658,6240.243692913859,1364.9746923738892,1000,4.596,-1.301,2.743,95.1,red,275,TRUE
601,1661901124.956,3133.838473578788,1066.7233278935066,1000,1.724,-1.438,2.77,1173.3,blue,275,TRUE
602,1661901127.318,3483.7143766446675,1424.2321256056864,1000,0.487,-1.478,-3.111,1188.8,blue,275,TRUE
603,1661901131.212,3599.941278922073,1570.0375182222815,1000,6.123,-1.333,-2.873,109.0,blue,275,TRUE
604,1661901131.306,6025.222703098712,1405.7151093894074,1000,5.675,-1.06,2.905,93.8,red,275,TRUE
