,timestamp,x,y,z,yaw,roll,pitch,latency,student,session,success
0,1661905338.173,2726.0712777070444,3605.3978815675036,1000,3.382,-1.413,0.592,1142.0,blue,276,TRUE
1,1661905341.444,2719.9413515007623,3737.842098262228,1000,3.375,-1.424,0.64,1141.8,blue,276,TRUE
2,1661905342.569,3469.2179715566904,-919.5041165257721,1000,1.833,-0.096,-0.255,157.7,yellow,276,TRUE
3,1661905343.868,2827.4140844110684,3855.0749274722416,1000,3.371,-1.424,0.638,1155.9,blue,276,TRUE
4,1661905345.009,3470.8930435761226,-916.3538950564514,1000,1.833,-0.096,-0.255,156.1,yellow,276,TRUE
5,1661905347.419,3428.8123125972647,-887.5934823503247,1000,1.833,-0.096,-0.255,1141.5,yellow,276,TRUE
6,1661905350.796,3423.7492887683597,-879.123911389308,1000,1.833,-0.096,-0.255,1173.7,yellow,276,TRUE
7,1661905353.136,3434.008488601814,-881.5686620892922,1000,1.833,-0.096,-0.255,171.9,yellow,276,TRUE
8,1661905354.434,2718.5595669068157,3228.53259557271,1000,3.408,-1.419,0.682,1126.1,blue,276,TRUE
9,1661905355.545,3435.9298409728485,-886.0482316929792,1000,1.833,-0.096,-0.255,156.2,yellow,276,TRUE
10,1661905356.844,2555.528637689226,4044.8714082934175,1000,4.779,-1.407,0.526,1141.8,blue,276,TRUE
11,1661905357.971,3436.1376854933915,-888.6732162102088,1000,1.833,-0.097,-0.254,156.1,yellow,276,TRUE
12,1661905359.283,1905.416969006327,2163.741187006794,1000,5.108,-1.342,0.227,1126.3,blue,276,TRUE
13,1661905362.537,1973.550688205471,3422.1796216360453,1000,3.989,-1.342,0.502,1141.6,blue,276,TRUE
14,1661905365.994,3654.3242785966404,-1075.7263674094859,1000,1.895,-0.095,-0.252,1164.9,yellow,276,TRUE
15,1661905368.33,3556.5151952638516,-1013.5672652885378,1000,1.895,-0.095,-0.252,157.8,yellow,276,TRUE
16,1661905369.628,2710.363204370504,7094.912992437783,1000,3.668,-1.407,0.519,1124.7,blue,276,TRUE
17,1661905370.737,3522.7697607642535,-979.9011430471645,1000,1.895,-0.095,-0.252,156.2,yellow,276,TRUE
18,1661905373.163,3878.1677073406777,-421.91343324691064,1000,1.895,-0.095,-0.252,1141.9,yellow,276,TRUE
19,1661905375.415,2725.231971645384,7162.466561636244,1000,3.642,-1.37,0.418,1126.3,blue,276,TRUE
20,1661905376.526,3789.241254784757,-528.4282817930501,1000,1.895,-0.095,-0.252,157.8,yellow,276,TRUE
21,1661905377.824,2804.2466710688664,7315.461272117506,1000,3.647,-1.366,0.396,1124.6,blue,276,TRUE
22,1661905378.933,3724.9901361241778,-587.5318598296099,1000,1.895,-0.095,-0.252,156.2,yellow,276,TRUE
23,1661905380.2,2765.6533880675984,7277.887521559549,1000,3.618,-1.377,0.403,142.1,blue,276,TRUE
24,1661905381.576,2613.5383930926882,7315.213674295698,1000,3.641,-1.371,0.404,1140.7,blue,276,TRUE
25,1661905382.701,3487.898457604136,-903.7173116602173,1000,1.895,-0.095,-0.252,156.0,yellow,276,TRUE
26,1661905385.106,3204.322844510391,-818.2903122141552,1000,1.895,-0.095,-0.252,1156.1,yellow,276,TRUE
27,1661905390.902,3279.7912122404887,-842.5628267830748,1000,1.895,-0.095,-0.252,156.1,yellow,276,TRUE
28,1661905392.214,3169.143482443923,6357.110612665561,1000,1.766,-1.442,0.357,1140.5,blue,276,TRUE
29,1661905393.339,3333.057711138609,-859.6001063765865,1000,1.895,-0.095,-0.252,156.1,yellow,276,TRUE
30,1661905394.604,3284.8968032342336,4846.808227391856,1000,1.709,-1.368,0.341,156.2,blue,276,TRUE
31,1661905397.121,3187.0930953186935,-760.0975182727584,1000,1.895,-0.095,-0.252,1146.5,yellow,276,TRUE
32,1661905399.392,3540.7795137224252,4181.3877381542425,1000,6.247,-1.409,0.752,1140.5,blue,276,TRUE
33,1661905400.517,3315.4107392620654,-845.8336067473359,1000,1.895,-0.095,-0.252,172.0,yellow,276,TRUE
34,1661905401.829,3868.705454529777,3529.4005769173637,1000,0.1,-1.347,1.002,1156.0,blue,276,TRUE
35,1661905402.969,3375.51555253758,-866.4868905928894,1000,1.895,-0.095,-0.252,156.2,yellow,276,TRUE
36,1661905404.266,4097.139707767195,3152.8066094131514,1000,5.863,-1.453,0.117,1171.6,blue,276,TRUE
37,1661905405.406,3395.0049112491743,-874.2520521541264,1000,1.895,-0.095,-0.252,156.0,yellow,276,TRUE
38,1661905406.656,4318.3947653993755,2957.421131159155,1000,5.805,-1.492,0.068,156.0,blue,276,TRUE
39,1661905406.827,3398.7292540471476,-896.7305961874057,1000,1.895,-0.095,-0.252,156.2,yellow,276,TRUE
40,1661905409.249,3423.5311279726193,-926.1239492798462,1000,1.895,-0.095,-0.252,1140.7,yellow,276,TRUE
41,1661905411.514,4412.377438946299,2116.00991469025,1000,4.491,-1.513,0.057,1140.2,blue,276,TRUE
42,1661905412.639,3479.0539246775293,-947.4783735865013,1000,1.895,-0.095,-0.252,155.9,yellow,276,TRUE
43,1661905413.904,4242.783395733605,2250.932514955023,1000,4.399,-1.412,0.681,156.3,blue,276,TRUE
44,1661905414.06,3486.171142424209,-943.1188013226853,1000,1.895,-0.095,-0.252,156.3,yellow,276,TRUE
45,1661905416.513,3399.9618537679,-982.3223435786222,1000,1.895,-0.095,-0.252,1140.5,yellow,276,TRUE
46,1661905419.934,3393.6603080834866,-999.3763889451087,1000,1.895,-0.095,-0.252,1140.1,yellow,276,TRUE
47,1661905422.199,4627.790728008331,2579.171582287115,1000,1.473,-1.451,-0.002,1124.7,blue,276,TRUE
48,1661905423.308,3404.567183238118,-992.2729870629354,1000,1.895,-0.095,-0.252,155.9,yellow,276,TRUE
49,1661905424.62,4588.713960056032,3187.3380147997427,1000,5.055,-1.455,0.053,1140.2,blue,276,TRUE
50,1661905427.909,4144.353200747246,3635.364530315182,1000,0.236,-1.452,0.014,1140.6,blue,276,TRUE
51,1661905429.033,3392.353920946345,-967.6226598372488,1000,1.895,-0.095,-0.252,156.5,yellow,276,TRUE
52,1661905430.455,3388.2062914018957,-972.6698058263541,1000,1.895,-0.095,-0.252,156.0,yellow,276,TRUE
53,1661905430.877,4145.764892271079,1590.4522454312287,1000,1.983,-1.454,0.099,1109.4,blue,276,TRUE
54,1661905432.174,4212.771185973326,1445.740477604171,1000,0.196,-1.513,-0.053,156.1,blue,276,TRUE
55,1661905432.33,3396.3307299192566,-977.3776736760377,1000,1.895,-0.095,-0.252,93.8,yellow,276,TRUE
56,1661905434.705,3755.6000173683765,-683.5193237562318,1000,1.895,-0.095,-0.252,1126.2,yellow,276,TRUE
57,1661905436.944,3483.805321618686,2467.366984174478,1000,2.946,-1.529,-0.027,1126.3,blue,276,TRUE
58,1661905438.054,3755.028602002232,-667.0396460316964,1000,1.895,-0.095,-0.252,156.2,yellow,276,TRUE
59,1661905439.367,3481.063803939574,2550.8876532200015,1000,2.116,-1.383,0.191,1126.4,blue,276,TRUE
60,1661905440.477,3745.13916154608,-665.3799777000917,1000,1.895,-0.095,-0.252,156.2,yellow,276,TRUE
61,1661905441.791,3741.5307189296013,2335.032775024345,1000,0.227,-1.361,0.377,1143.4,blue,276,TRUE
62,1661905442.919,3743.77871249998,-666.2003183517129,1000,1.895,-0.095,-0.252,156.1,yellow,276,TRUE
63,1661905444.217,4006.258359461271,2198.8016705214227,1000,5.464,-1.457,-0.083,1141.7,blue,276,TRUE
64,1661905445.343,3736.758456864145,-661.9325884768676,1000,1.895,-0.095,-0.252,156.2,yellow,276,TRUE
65,1661905445.702,3843.049146395417,2026.3304052773199,1000,3.299,-1.393,0.213,156.2,blue,276,TRUE
66,1661905445.858,3724.7364289821166,-661.3529987994464,1000,1.895,-0.095,-0.252,93.5,yellow,276,TRUE
67,1661905446.155,3563.653762984406,1841.6080324866814,1000,3.142,-1.323,0.332,95.3,blue,276,TRUE
68,1661905446.251,3446.0911623708885,-919.8488186798472,1000,1.895,-0.095,-0.252,93.8,yellow,276,TRUE
69,1661905446.563,3650.1252483897547,1045.6826108058892,1000,2.898,-1.323,0.597,109.3,blue,276,TRUE
70,1661905448.845,3568.8361759216127,423.83039396518944,1000,2.215,-1.41,0.286,1140.2,blue,276,TRUE
71,1661905449.97,3452.065083237441,-934.6039811984579,1000,1.895,-0.095,-0.252,156.2,yellow,276,TRUE
72,1661905451.268,3437.7856652273663,-55.34494485929864,1000,2.138,-1.398,0.128,1142.0,blue,276,TRUE
73,1661905452.394,3453.8728522466135,-950.5565079753956,1000,1.895,-0.095,-0.252,171.8,yellow,276,TRUE
74,1661905453.661,2997.0658729349047,-285.46803188912423,1000,0.987,-1.383,-0.048,156.2,blue,276,TRUE
75,1661905456.396,2890.299661855776,-483.30026238681745,1000,2.73,-1.348,0.405,156.5,blue,276,TRUE
76,1661905456.849,2907.62642614974,-646.9270468804223,1000,2.651,-1.358,0.398,93.8,blue,276,TRUE
77,1661905456.943,3614.781332994221,-993.1793182783131,1000,1.895,-0.095,-0.252,93.7,yellow,276,TRUE
78,1661905457.284,2965.2146741311894,-707.8902539925367,1000,2.369,-1.362,0.286,93.7,blue,276,TRUE
79,1661905457.378,3548.2804970555208,-1015.8606104905823,1000,1.895,-0.095,-0.252,93.7,yellow,276,TRUE
80,1661905460.037,3277.1491776596117,-711.448010483572,1000,1.895,-0.095,-0.252,1157.6,blue,276,TRUE
81,1661905460.037,3457.6264148713594,-914.454856216456,1000,1.895,-0.095,-0.252,1157.6,yellow,276,TRUE
82,1661905460.037,3412.4153449515934,-863.8755543019639,1000,1.895,-0.095,-0.252,1157.6,yellow,276,TRUE
83,1661905461.319,2935.9334292970975,-508.45795195776117,1000,1.372,-1.377,-0.179,156.2,blue,276,TRUE
84,1661905461.475,3448.257270948984,-888.46764399722,1000,1.895,-0.095,-0.252,109.0,yellow,276,TRUE
85,1661905461.788,2822.8359452357363,-312.70305685016916,1000,1.407,-1.394,-0.224,93.8,blue,276,TRUE
86,1661905461.882,3471.9442146425686,-899.5449408659679,1000,1.895,-0.095,-0.252,93.6,yellow,276,TRUE
87,1661905462.194,2794.9912258864542,-292.00774639272385,1000,1.401,-1.392,-0.191,109.4,blue,276,TRUE
88,1661905464.838,2825.9102041739447,-265.69768766692863,1000,1.968,-1.461,0.008,156.3,blue,276,TRUE
89,1661905464.994,3442.655959220537,-886.0497314012167,1000,1.895,-0.095,-0.252,93.7,yellow,276,TRUE
90,1661905465.309,2736.9479676891197,-149.28054265629964,1000,1.777,-1.451,-0.278,93.8,blue,276,TRUE
91,1661905465.402,3449.4329791119985,-865.9330249743988,1000,1.895,-0.095,-0.252,93.7,yellow,276,TRUE
92,1661905465.715,2683.6465459289716,-38.280281365791836,1000,1.176,-1.469,-0.064,93.7,blue,276,TRUE
93,1661905467.03,2885.935035296814,282.77664301082956,1000,0.151,-1.425,0.128,156.2,blue,276,TRUE
94,1661905467.186,3478.5276437218013,-899.6995954085572,1000,1.895,-0.095,-0.252,109.0,yellow,276,TRUE
95,1661905467.499,3069.9005625424084,525.068850824752,1000,0.668,-1.47,0.044,93.7,blue,276,TRUE
96,1661905467.655,3406.9581375873568,-993.7897941119289,1000,1.895,-0.095,-0.252,1048.1,yellow,276,TRUE
97,1661905468.781,3363.639463785412,735.766301329575,1000,0.232,-1.404,0.003,156.2,blue,276,TRUE
98,1661905468.937,3438.5023855789723,-967.484472732608,1000,1.895,-0.095,-0.252,156.2,yellow,276,TRUE
99,1661905469.312,3773.6476968556913,1087.8528131727467,1000,0.04,-1.479,-0.009,94.0,blue,276,TRUE
100,1661905469.406,3469.2396591915895,-942.7383722401752,1000,1.895,-0.095,-0.252,93.4,yellow,276,TRUE
101,1661905469.718,4215.240918903654,1346.730755928187,1000,0.063,-1.477,0.076,124.7,blue,276,TRUE
102,1661905469.843,3469.806142871151,-933.4101040625729,1000,1.895,-0.095,-0.252,93.7,yellow,276,TRUE
103,1661905470.124,4673.906792726661,1610.7239736989159,1000,6.171,-1.469,0.079,156.2,blue,276,TRUE
104,1661905471.532,3382.447392621867,1175.7794769620036,1000,3.95,-1.36,0.418,1063.9,blue,276,TRUE
105,1661905472.894,3466.4727120939547,-929.9577580520405,1000,1.895,-0.095,-0.252,156.6,yellow,276,TRUE
106,1661905477.515,6127.255923588369,2829.182034027842,1000,1.318,-1.51,0.038,157.6,blue,276,TRUE
107,1661905477.688,3459.8276443507057,-927.9900583665609,1000,1.895,-0.095,-0.252,156.6,yellow,276,TRUE
108,1661905478.034,6022.373254493723,2832.5041948455337,1000,1.331,-1.523,0.025,109.0,blue,276,TRUE
109,1661905478.143,3464.466299561314,-912.5577495879521,1000,1.895,-0.095,-0.252,109.6,yellow,276,TRUE
110,1661905479.846,5855.76986856973,2797.372653547492,1000,1.301,-1.458,0.003,78.1,blue,276,TRUE
111,1661905479.924,3452.722516146065,-919.1659374783898,1000,1.895,-0.095,-0.252,93.8,yellow,276,TRUE
112,1661905481.142,5856.735588471613,2749.808466796985,1000,1.139,-1.42,-0.074,156.1,blue,276,TRUE
113,1661905481.314,3426.727529650021,-936.3051075060235,1000,1.895,-0.095,-0.252,140.6,yellow,276,TRUE
114,1661905481.675,5845.503927719539,2707.8229755929824,1000,1.11,-1.428,-0.038,93.8,blue,276,TRUE
115,1661905481.784,3415.7908799601896,-945.7239887282775,1000,1.895,-0.095,-0.252,93.8,yellow,276,TRUE
116,1661905483.004,5820.9222999560225,2698.619796199631,1000,1.104,-1.418,-0.036,156.2,blue,276,TRUE
117,1661905483.473,5783.978149598343,2656.9848367775426,1000,1.169,-1.386,-0.059,93.8,blue,276,TRUE
118,1661905483.567,3386.627498338233,-992.4140048884891,1000,1.895,-0.095,-0.252,93.6,yellow,276,TRUE
119,1661905484.816,5790.713765762953,2698.24871960669,1000,1.1,-1.521,-0.013,1127.5,blue,276,TRUE
120,1661905485.928,3433.405216394583,-951.7655095539111,1000,1.895,-0.095,-0.252,156.2,yellow,276,TRUE
121,1661905486.303,5885.000811661265,2721.2689997021116,1000,1.238,-1.536,0.031,156.3,blue,276,TRUE
122,1661905486.475,3420.3407244161995,-965.0475852842943,1000,1.895,-0.095,-0.252,93.8,yellow,276,TRUE
123,1661905486.756,5908.7389094201035,2770.5342101827305,1000,1.584,-1.466,0.062,109.4,blue,276,TRUE
124,1661905486.881,3432.0337745739225,-971.2956847735522,1000,1.895,-0.095,-0.252,78.1,yellow,276,TRUE
125,1661905488.491,5862.886938339023,2763.7060158413965,1000,1.43,-1.467,-0.069,93.8,blue,276,TRUE
126,1661905488.585,3434.3936520308866,-967.0511744528903,1000,1.895,-0.095,-0.252,93.8,yellow,276,TRUE
127,1661905488.882,5842.169077232006,2738.166650507746,1000,1.465,-1.468,-0.059,109.4,blue,276,TRUE
128,1661905488.991,3439.3006621948066,-959.07714027975,1000,1.895,-0.095,-0.252,93.8,yellow,276,TRUE
129,1661905490.18,5803.491687350238,2685.811569783929,1000,1.487,-1.464,-0.036,156.2,blue,276,TRUE
130,1661905490.336,3453.985448720592,-946.1754793797571,1000,1.895,-0.095,-0.252,156.3,yellow,276,TRUE
131,1661905490.68,5793.373588770347,2576.6708566755156,1000,1.509,-1.452,-0.035,93.9,blue,276,TRUE
132,1661905490.836,3376.179976070427,-1011.6088234818437,1000,1.895,-0.095,-0.252,1063.9,yellow,276,TRUE
133,1661905498.561,5701.744233028261,2488.1898928887654,1000,2.485,-1.331,2.352,1126.4,blue,276,TRUE
134,1661905499.672,3417.732435913171,-972.7568938734677,1000,1.895,-0.095,-0.252,156.3,yellow,276,TRUE
135,1661905502.082,3307.0292026269294,-1033.8393540269185,1000,1.895,-0.095,-0.252,1110.6,yellow,276,TRUE
136,1661905504.304,5470.047392666335,2388.762098615863,1000,3.029,-0.983,2.496,1126.5,blue,276,TRUE
137,1661905505.414,3340.096818094797,-1005.6364695092731,1000,1.895,-0.095,-0.252,156.2,yellow,276,TRUE
138,1661905506.666,5559.49660376599,2369.3628251569003,1000,2.447,-1.357,2.335,156.1,blue,276,TRUE
139,1661905508.058,5620.544737420077,2448.0676676753333,1000,2.189,-1.552,3.136,1126.3,blue,276,TRUE
140,1661905509.168,3420.3954724578043,-1008.6399809000167,1000,1.895,-0.095,-0.252,156.3,yellow,276,TRUE
141,1661905510.421,5709.14052424057,2487.5093745753916,1000,2.225,-1.525,3.101,156.2,blue,276,TRUE
142,1661905510.593,3424.8892638063844,-981.3086346027899,1000,1.895,-0.095,-0.252,140.9,yellow,276,TRUE
143,1661905512.971,3296.107542367006,-1044.551778204691,1000,1.895,-0.095,-0.252,1140.4,yellow,276,TRUE
144,1661905515.222,5727.195137435553,2476.461134542834,1000,1.818,-1.457,-0.063,1126.3,blue,276,TRUE
145,1661905516.333,3333.4212720605933,-1013.2481455957787,1000,1.895,-0.095,-0.252,156.3,yellow,276,TRUE
146,1661905518.725,3393.2630454616133,-1027.0160226845012,1000,1.895,-0.095,-0.252,1126.5,yellow,276,TRUE
147,1661905519.976,5753.425343968105,2451.764598305524,1000,2.022,-1.433,-0.181,156.4,blue,276,TRUE
148,1661905520.132,3397.5200999282583,-1007.8590308677931,1000,1.895,-0.095,-0.252,156.4,yellow,276,TRUE
149,1661905520.461,5826.23866836309,2480.093645402192,1000,2.021,-1.433,-0.18,93.7,blue,276,TRUE
150,1661905520.57,3403.6516856150515,-990.5768179397347,1000,1.895,-0.095,-0.252,109.4,yellow,276,TRUE
151,1661905520.867,5811.509716372525,2509.398247972707,1000,2.029,-1.426,-0.19,93.4,blue,276,TRUE
152,1661905520.96,3408.1126028538656,-981.1160162161581,1000,1.895,-0.095,-0.252,93.8,yellow,276,TRUE
153,1661905523.322,3479.608566776056,-932.3782696210291,1000,1.896,-0.095,-0.253,156.5,yellow,276,TRUE
154,1661905523.697,5783.3255018416685,2427.199567046581,1000,2.035,-1.409,-0.135,156.2,blue,276,TRUE
155,1661905523.854,3475.99178573248,-942.4719269206561,1000,1.896,-0.095,-0.253,79.6,yellow,276,TRUE
156,1661905525.042,5614.349018518802,2452.604195690029,1000,2.141,-1.389,-0.045,156.2,blue,276,TRUE
157,1661905525.214,3446.928864855643,-916.4416934895906,1000,1.896,-0.095,-0.253,158.2,yellow,276,TRUE
158,1661905525.544,5610.535311618015,2454.2685517786927,1000,2.19,-1.396,-0.048,109.3,blue,276,TRUE
159,1661905526.967,3454.3500525137683,-915.7547241329349,1000,1.896,-0.095,-0.253,93.7,yellow,276,TRUE
160,1661905527.248,5787.6863004724655,2249.887347053954,1000,2.177,-1.397,-0.059,93.4,blue,276,TRUE
161,1661905527.342,3446.2871658189797,-929.9724913723561,1000,1.896,-0.095,-0.253,94.1,yellow,276,TRUE
162,1661905528.562,5491.73055330925,2171.64344151573,1000,2.145,-1.389,-0.123,1110.6,blue,276,TRUE
163,1661905529.657,3443.0288505781173,-938.3186366083161,1000,1.896,-0.095,-0.253,156.3,yellow,276,TRUE
164,1661905530.923,5817.519296935545,2212.2342785473425,1000,1.962,-1.433,-0.124,1142.3,blue,276,TRUE
165,1661905532.049,3427.0104221235647,-957.9690796119484,1000,1.896,-0.095,-0.253,140.9,yellow,276,TRUE
166,1661905533.332,5774.445210980837,2283.4522436477187,1000,2.077,-1.406,-0.083,1171.3,blue,276,TRUE
167,1661905536.632,5702.460392881576,2283.0893569963937,1000,2.102,-1.406,-0.076,1126.2,blue,276,TRUE
168,1661905537.742,3422.224767606766,-956.4872588611332,1000,1.896,-0.095,-0.253,156.3,yellow,276,TRUE
169,1661905538.98,5742.105212021226,2292.7895539704077,1000,2.13,-1.403,-0.059,156.2,blue,276,TRUE
170,1661905541.323,5639.916681311634,2148.785277656733,1000,2.226,-1.357,-0.026,1126.3,blue,276,TRUE
171,1661905542.433,3418.5185123731103,-957.736206452266,1000,1.896,-0.095,-0.253,156.3,yellow,276,TRUE
172,1661905543.715,5811.8670734726,2204.8489645537993,1000,2.238,-1.377,-0.047,1110.7,blue,276,TRUE
173,1661905544.811,3407.239285279981,-957.806988501993,1000,1.896,-0.095,-0.253,156.0,yellow,276,TRUE
174,1661905547.208,3360.3245936683506,-1023.2297846004758,1000,1.896,-0.095,-0.253,1140.4,yellow,276,TRUE
175,1661905549.412,5719.961069423941,2174.4786855240345,1000,2.249,-1.39,-0.051,156.5,blue,276,TRUE
176,1661905549.569,3360.24601697996,-1015.3556925198842,1000,1.896,-0.095,-0.253,156.2,yellow,276,TRUE
177,1661905552.009,3323.1601041341223,-1084.9205999950173,1000,1.896,-0.095,-0.253,1142.0,yellow,276,TRUE
178,1661905557.64,5722.574665229462,2137.1435833530436,1000,2.277,-1.371,-0.067,156.5,blue,276,TRUE
179,1661905557.797,3329.8534184858727,-1075.8665643198358,1000,1.896,-0.095,-0.253,157.5,yellow,276,TRUE
180,1661905560.19,3330.492985591385,-1075.1452115304867,1000,1.896,-0.095,-0.253,173.4,yellow,276,TRUE
181,1661905561.458,5494.664671558093,2516.56217708524,1000,2.279,-1.367,-0.061,156.2,blue,276,TRUE
182,1661905563.959,3536.9574448132375,-1114.9850868596873,1000,1.896,-0.095,-0.253,1142.0,yellow,276,TRUE
183,1661905566.165,5480.087866817549,2583.668389228018,1000,2.271,-1.392,-0.095,156.2,blue,276,TRUE
184,1661905568.681,3431.067384349822,-947.308894344292,1000,1.896,-0.095,-0.253,1171.6,yellow,276,TRUE
185,1661905570.979,5479.362849730859,2661.8650021325902,1000,2.43,-1.449,-0.081,1126.2,blue,276,TRUE
186,1661905572.09,3339.563094558125,-960.0360265297729,1000,1.896,-0.095,-0.253,140.6,yellow,276,TRUE
187,1661905573.325,5523.148692075508,2653.085860395431,1000,1.524,-1.415,-1.37,156.2,blue,276,TRUE
188,1661905573.497,3374.537784484682,-937.2139201027284,1000,1.896,-0.095,-0.253,157.8,yellow,276,TRUE
189,1661905575.921,3381.5876704780317,-944.6470623082346,1000,1.896,-0.095,-0.253,1127.8,yellow,276,TRUE
190,1661905579.288,3365.143232667837,-950.9268758210379,1000,1.896,-0.095,-0.253,1141.9,yellow,276,TRUE
191,1661905582.825,2075.802823741053,3555.7184083734733,1000,2.535,-1.365,2.613,1128.0,blue,276,TRUE
192,1661905583.937,3446.2786212313404,-908.3419296152545,1000,1.896,-0.095,-0.253,171.8,yellow,276,TRUE
193,1661905585.249,4008.2553239618883,3115.202900670717,1000,2.508,-1.385,2.627,1126.4,blue,276,TRUE
194,1661905586.36,3423.7074311462093,-899.8921522418964,1000,1.896,-0.095,-0.253,156.2,yellow,276,TRUE
195,1661905587.674,4576.848973301763,2913.493085820843,1000,2.487,-1.378,2.667,1157.5,blue,276,TRUE
196,1661905590.959,4831.458992973227,2796.988228789732,1000,2.428,-1.508,3.093,1126.3,blue,276,TRUE
197,1661905592.07,3408.3514918834976,-934.0633470686565,1000,1.896,-0.095,-0.253,156.2,yellow,276,TRUE
198,1661905593.369,5056.831182664924,2771.178359153265,1000,2.475,-1.298,2.887,1112.4,blue,276,TRUE
199,1661905594.466,3431.1538855518575,-923.2686587397857,1000,1.896,-0.095,-0.253,156.2,yellow,276,TRUE
200,1661905595.717,5163.09004183371,2667.64608654831,1000,2.514,-1.275,2.849,156.2,blue,276,TRUE
201,1661905595.888,3430.116020675704,-921.7059141430698,1000,1.896,-0.095,-0.253,156.6,yellow,276,TRUE
202,1661905597.202,5800.329258530971,2366.53244431769,1000,2.521,-1.241,2.891,1156.1,blue,276,TRUE
203,1661905598.343,3420.58351479094,-932.4717413249917,1000,1.896,-0.095,-0.253,156.1,yellow,276,TRUE
204,1661905600.798,3344.1151058788814,-974.9064145855009,1000,1.896,-0.095,-0.253,1110.8,yellow,276,TRUE
205,1661905603.049,5721.181064857442,2319.138916597922,1000,4.232,-1.334,0.504,1142.0,blue,276,TRUE
206,1661905604.175,3330.911209342872,-995.0201217794703,1000,1.896,-0.095,-0.253,157.8,yellow,276,TRUE
207,1661905605.444,5684.360324028005,2301.720528484379,1000,3.649,-1.417,-0.424,156.2,blue,276,TRUE
208,1661905605.6,3331.764968096624,-996.6271471023815,1000,1.896,-0.095,-0.253,157.6,yellow,276,TRUE
209,1661905606.914,5649.796970714666,2344.6428334110865,1000,3.438,-1.431,0.11,1123.7,blue,276,TRUE
210,1661905608.022,3330.844179775803,-998.4218508149579,1000,1.896,-0.095,-0.253,156.2,yellow,276,TRUE
211,1661905610.462,3322.4449644954025,-1016.4026180630044,1000,1.896,-0.095,-0.253,1126.2,yellow,276,TRUE
212,1661905612.715,5625.869502267538,2333.197538070144,1000,2.549,-1.492,-0.021,1127.5,blue,276,TRUE
213,1661905613.825,3331.4341371713876,-1014.4624289507419,1000,1.896,-0.095,-0.253,142.2,yellow,276,TRUE
214,1661905615.094,5609.235834182447,2261.684359729467,1000,2.807,-1.565,-3.136,1126.4,blue,276,TRUE
215,1661905616.205,3405.617287734943,-975.4141063120686,1000,1.896,-0.095,-0.253,156.2,yellow,276,TRUE
216,1661905618.612,3394.8381597770817,-950.5535140410689,1000,1.896,-0.095,-0.253,1143.5,yellow,276,TRUE
217,1661905620.821,5611.710842359943,2331.069221443938,1000,2.721,-1.492,-3.109,156.2,blue,276,TRUE
218,1661905620.977,3401.418664938741,-940.2796463889371,1000,1.896,-0.095,-0.253,156.1,yellow,276,TRUE
219,1661905626.892,6730.335210906342,1892.7458596892095,1000,2.544,-1.505,-0.06,1141.9,blue,276,TRUE
220,1661905628.019,3344.4100851388216,-987.3720735951899,1000,1.896,-0.095,-0.253,140.6,yellow,276,TRUE
221,1661905629.254,6240.660627367528,2097.648366493288,1000,2.513,-1.442,-2.229,156.2,blue,276,TRUE
222,1661905629.426,3361.7665470610673,-983.6318231499026,1000,1.896,-0.095,-0.253,156.6,yellow,276,TRUE
223,1661905630.709,5920.9672994691055,2049.488555923,1000,2.512,-1.436,-2.206,1126.4,blue,276,TRUE
224,1661905631.819,3374.9250494429975,-989.8275482965682,1000,1.896,-0.095,-0.253,156.2,yellow,276,TRUE
225,1661905633.07,6028.650715703875,2125.343798694091,1000,2.486,-1.417,-2.2,156.2,blue,276,TRUE
226,1661905635.587,3158.513066724607,-1419.410653687955,1000,1.896,-0.095,-0.253,1140.0,yellow,276,TRUE
227,1661905641.229,5973.244699604662,2153.6415620236007,1000,2.427,-1.451,-1.38,172.1,blue,276,TRUE
228,1661905641.416,3254.753539320262,-1210.312225902987,1000,1.896,-0.095,-0.253,156.5,yellow,276,TRUE
229,1661905643.81,3119.176021503395,-1055.8180262303554,1000,1.896,-0.095,-0.253,1156.1,yellow,276,TRUE
230,1661905646.03,5962.849067646287,2151.5219170434993,1000,2.73,-1.53,-3.103,156.2,blue,276,TRUE
231,1661905646.186,3200.496300777223,-1024.8042711630735,1000,1.896,-0.095,-0.253,109.3,yellow,276,TRUE
232,1661905648.546,3244.7751019342595,-960.1229534842738,1000,1.896,-0.095,-0.253,1143.5,yellow,276,TRUE
233,1661905650.753,5798.826465070877,2280.3001804331484,1000,2.902,-1.391,0.553,156.2,blue,276,TRUE
234,1661905652.144,5862.5181448425465,2366.88050572467,1000,2.85,-1.478,0.021,1125.1,blue,276,TRUE
235,1661905653.254,3458.8423290885466,-944.8517054302865,1000,1.896,-0.095,-0.253,157.8,yellow,276,TRUE
236,1661905654.507,5913.602321277554,2420.2723562976284,1000,2.519,-1.512,-0.049,156.0,blue,276,TRUE
237,1661905654.663,3460.966871803887,-936.0891964210639,1000,1.896,-0.095,-0.253,158.1,yellow,276,TRUE
238,1661905655.961,5788.389230657426,2432.939608404035,1000,2.501,-1.509,-0.057,1141.8,blue,276,TRUE
239,1661905657.087,3465.884371707499,-933.2926427861518,1000,1.896,-0.095,-0.253,156.2,yellow,276,TRUE
240,1661905658.338,5828.844178165644,2438.2926831802365,1000,2.464,-1.438,-1.561,156.2,blue,276,TRUE
241,1661905660.855,3021.0162029117164,-1156.5290411002757,1000,1.896,-0.095,-0.253,1126.3,yellow,276,TRUE
242,1661905663.106,5751.733480431903,2380.1152375134607,1000,2.517,-1.446,-0.734,1126.4,blue,276,TRUE
243,1661905664.217,3225.3383095701347,-1027.9470175801814,1000,1.896,-0.095,-0.253,157.8,yellow,276,TRUE
244,1661905665.483,5687.112277068284,2295.6330393799917,1000,3.691,-1.352,0.538,157.4,blue,276,TRUE
245,1661905667.976,3173.1550638094122,-752.4338395170855,1000,1.896,-0.095,-0.253,1143.6,yellow,276,TRUE
246,1661905672.623,3454.388541436941,-779.7407689468937,1000,1.896,-0.095,-0.253,1140.4,yellow,276,TRUE
247,1661905675.015,3450.090925211466,-843.8843526439323,1000,1.896,-0.095,-0.253,156.2,yellow,276,TRUE
248,1661905679.772,3447.5596808873684,-881.1421544918479,1000,1.896,-0.095,-0.253,156.2,yellow,276,TRUE
249,1661905680.1,4972.463977261398,2900.3019966987026,1000,5.228,-1.457,0.112,93.6,blue,276,TRUE
250,1661905680.21,3453.9691665515634,-895.1126470167698,1000,1.896,-0.095,-0.253,110.7,yellow,276,TRUE
251,1661905681.476,5249.556683311217,2731.7142830081893,1000,5.222,-1.458,3.029,1155.8,blue,276,TRUE
252,1661905682.617,3435.981624084783,-916.9008383639066,1000,1.896,-0.095,-0.253,140.6,yellow,276,TRUE
253,1661905685.038,3389.042807352323,-908.0669563386882,1000,1.896,-0.095,-0.253,1125.0,yellow,276,TRUE
254,1661905687.287,5418.091237483876,2557.8446800595448,1000,3.951,-1.384,-0.874,1124.6,blue,276,TRUE
255,1661905688.397,3379.3178428324572,-930.4054903456828,1000,1.896,-0.095,-0.253,156.2,yellow,276,TRUE
256,1661905693.114,5508.5199966307655,2692.7162681703344,1000,3.905,-1.473,0.088,1125.1,blue,276,TRUE
257,1661905694.223,3379.8964368044512,-934.9327008996388,1000,1.896,-0.095,-0.253,171.8,yellow,276,TRUE
258,1661905695.489,5507.06482139058,2631.42557824372,1000,3.658,-1.52,0.003,156.2,blue,276,TRUE
259,1661905695.645,3378.702199707492,-930.9926436846162,1000,1.896,-0.095,-0.253,171.6,yellow,276,TRUE
260,1661905698.069,3499.435044003465,-1042.2714071850812,1000,1.896,-0.095,-0.253,1140.4,yellow,276,TRUE
261,1661905701.475,3531.2856637006857,-1060.0802884336797,1000,1.896,-0.095,-0.253,1140.3,yellow,276,TRUE
262,1661905702.787,5395.926826673858,2657.02298232773,1000,5.131,-1.484,0.083,156.0,blue,276,TRUE
263,1661905702.943,3579.1758772259036,-1069.037038224615,1000,1.896,-0.095,-0.253,156.2,yellow,276,TRUE
264,1661905703.318,5423.701776982184,2649.022346145836,1000,5.106,-1.491,0.074,93.9,blue,276,TRUE
265,1661905703.458,3439.5504573507064,-927.759525390172,1000,1.896,-0.095,-0.253,1093.6,yellow,276,TRUE
266,1661905704.63,5335.6936232808,2703.1523843726995,1000,5.137,-1.485,0.08,156.4,blue,276,TRUE
267,1661905705.083,5189.00188373543,2809.9373835929896,1000,5.137,-1.485,0.08,109.2,blue,276,TRUE
268,1661905705.208,3428.15531321253,-948.8611741372763,1000,1.896,-0.095,-0.253,93.8,yellow,276,TRUE
269,1661905705.489,5058.771040858226,2775.549062912079,1000,5.139,-1.487,0.08,109.3,blue,276,TRUE
270,1661905705.614,3435.921310285146,-921.9611982670816,1000,1.896,-0.095,-0.253,93.8,yellow,276,TRUE
271,1661905705.895,4967.897801780805,2849.3316500759975,1000,5.148,-1.486,0.081,93.7,blue,276,TRUE
272,1661905705.989,3430.2969799660546,-910.4939479415945,1000,1.896,-0.095,-0.253,109.5,yellow,276,TRUE
273,1661905706.317,4999.314768409322,2851.512023014955,1000,5.156,-1.486,0.083,155.9,blue,276,TRUE
274,1661905706.473,3443.790085445864,-912.2479567428109,1000,1.896,-0.095,-0.253,156.6,yellow,276,TRUE
275,1661905706.833,4962.398206001626,2853.730990730048,1000,5.155,-1.485,0.084,94.0,blue,276,TRUE
276,1661905706.926,3447.6843006788977,-913.0259294740397,1000,1.896,-0.095,-0.253,109.4,yellow,276,TRUE
277,1661905707.254,4960.512451956673,2839.384925664231,1000,5.152,-1.485,0.084,93.7,blue,276,TRUE
278,1661905707.348,3448.7852787433035,-912.7814049769246,1000,1.896,-0.095,-0.253,93.8,yellow,276,TRUE
279,1661905707.661,4987.834612586753,2837.477958459324,1000,5.114,-1.487,0.073,156.2,blue,276,TRUE
280,1661905708.957,5033.617571126305,2794.089168289749,1000,4.552,-1.418,-0.321,93.7,blue,276,TRUE
281,1661905709.051,3470.804629199544,-902.9035646700173,1000,1.896,-0.095,-0.253,156.3,yellow,276,TRUE
282,1661905709.504,3394.6926877537317,-935.0242118619419,1000,1.896,-0.095,-0.253,109.6,yellow,276,TRUE
283,1661905709.816,4927.092768779683,2474.5023020039757,1000,4.288,-1.446,-0.638,93.7,blue,276,TRUE
284,1661905709.926,3385.259952087717,-927.870099490032,1000,1.896,-0.095,-0.253,93.7,yellow,276,TRUE
285,1661905710.254,4982.66611061353,2439.7374703837086,1000,4.015,-1.451,-0.674,93.8,blue,276,TRUE
286,1661905710.348,3395.252552301636,-919.8423086264208,1000,1.896,-0.095,-0.253,109.1,yellow,276,TRUE
287,1661905710.675,5042.448478556831,2437.686982098143,1000,3.826,-1.373,-0.585,156.3,blue,276,TRUE
288,1661905710.832,3396.0875383238294,-918.2965663077069,1000,1.896,-0.095,-0.253,156.2,yellow,276,TRUE
289,1661905711.207,5075.176394524333,2407.310959051815,1000,3.463,-1.422,-1.011,93.9,blue,276,TRUE
290,1661905712.534,5132.192957003653,2345.169508675057,1000,2.921,-1.367,-0.55,156.2,blue,276,TRUE
291,1661905712.706,3358.285760799434,-899.0071255306328,1000,1.896,-0.095,-0.253,78.1,yellow,276,TRUE
292,1661905712.972,5190.5109900539655,2255.480834153492,1000,2.73,-1.367,-0.636,109.2,blue,276,TRUE
293,1661905713.097,3347.130936309994,-903.3729830221265,1000,1.896,-0.095,-0.253,113.8,yellow,276,TRUE
294,1661905713.445,5608.330343628312,2229.155512109602,1000,2.77,-1.426,-0.446,1140.4,blue,276,TRUE
295,1661905716.007,5604.424525344276,2236.2740448040595,1000,2.883,-1.485,-0.003,109.0,blue,276,TRUE
296,1661905716.132,3377.074339095098,-898.4867835164333,1000,1.896,-0.095,-0.253,156.3,yellow,276,TRUE
297,1661905716.491,5672.155230567602,2112.3568272483903,1000,2.846,-1.48,-0.013,93.7,blue,276,TRUE
298,1661905716.585,3386.851434401798,-895.5280326269377,1000,1.896,-0.095,-0.253,109.5,yellow,276,TRUE
299,1661905716.897,5672.12848104881,2141.7221421630065,1000,2.846,-1.476,-0.014,93.7,blue,276,TRUE
300,1661905717.054,3389.434697180801,-903.0910699239602,1000,1.896,-0.095,-0.253,1062.3,yellow,276,TRUE
301,1661905718.194,5681.869624554502,2173.3578139590804,1000,2.914,-1.479,0.036,156.2,blue,276,TRUE
302,1661905718.35,3386.342325290681,-914.3920149323588,1000,1.896,-0.095,-0.253,156.0,yellow,276,TRUE
303,1661905719.631,5691.361123992193,2207.01380885886,1000,2.674,-1.503,3.108,156.3,blue,276,TRUE
304,1661905719.787,3410.34152434723,-919.1664504106425,1000,1.896,-0.095,-0.253,156.0,yellow,276,TRUE
305,1661905720.193,3399.6866091488832,-939.0627496836651,1000,1.896,-0.095,-0.253,109.5,yellow,276,TRUE
306,1661905720.506,5802.759254365585,2000.4356732083684,1000,2.827,-1.218,2.761,109.3,blue,276,TRUE
307,1661905720.615,3395.9086303053855,-950.4779221425027,1000,1.896,-0.095,-0.253,109.4,yellow,276,TRUE
308,1661905720.927,5948.035308672754,2141.0072984377466,1000,2.825,-1.26,2.698,94.0,blue,276,TRUE
309,1661905721.303,5988.283253956386,2155.7290150490803,1000,2.815,-1.268,2.705,156.0,blue,276,TRUE
310,1661905721.459,3011.729184601951,-1148.0680492142997,1000,1.896,-0.095,-0.253,140.7,yellow,276,TRUE
311,1661905721.802,5948.857407899582,2170.9700700086983,1000,2.811,-1.286,2.698,93.6,blue,276,TRUE
312,1661905721.927,6091.0681012719515,1457.723967400687,1000,0.539,-1.172,2.326,1124.7,yellow,276,TRUE
313,1661905723.13,5929.8949905997015,2208.79466632075,1000,2.811,-1.312,2.677,156.2,blue,276,TRUE
314,1661905723.286,4710.919805550623,268.5627140697293,1000,1.896,-0.095,-0.253,156.5,yellow,276,TRUE
315,1661905723.63,5893.368386617788,2247.1613556649704,1000,2.749,-1.429,2.517,109.6,blue,276,TRUE
316,1661905723.755,4271.542076577426,-123.08052390360369,1000,1.896,-0.095,-0.253,93.6,yellow,276,TRUE
317,1661905724.036,5870.32628961476,2307.7441793625785,1000,2.718,-1.472,3.077,109.3,blue,276,TRUE
318,1661905724.161,4066.29138131897,-311.4750033142657,1000,1.896,-0.095,-0.253,109.7,yellow,276,TRUE
319,1661905724.473,5805.288003684254,2323.7516817516193,1000,2.702,-1.487,3.088,156.5,blue,276,TRUE
320,1661905724.63,3946.783653091905,-431.03982261904275,1000,1.896,-0.095,-0.253,156.2,yellow,276,TRUE
321,1661905725.895,5752.575696829317,2369.0073243743204,1000,2.689,-1.464,3.113,156.2,blue,276,TRUE
322,1661905726.067,3854.52353606227,-528.668718586333,1000,1.896,-0.095,-0.253,172.1,yellow,276,TRUE
323,1661905726.457,5698.047345760701,2388.1352412635297,1000,2.766,-1.506,3.137,94.0,blue,276,TRUE
324,1661905726.551,3413.277273642074,-926.3672831292457,1000,1.896,-0.095,-0.253,93.7,yellow,276,TRUE
325,1661905726.864,5645.594320461797,2411.22668893642,1000,2.721,-1.517,-3.122,94.0,blue,276,TRUE
326,1661905727.004,5573.141681904227,1629.4347953860758,1000,0.024,-1.396,2.323,1111.8,yellow,276,TRUE
327,1661905728.194,5655.935350811115,2398.8789828961335,1000,2.739,-1.553,-0.016,172.1,blue,276,TRUE
328,1661905729.616,4212.137986035472,441.65666945073167,1000,1.896,-0.095,-0.253,93.5,yellow,276,TRUE
329,1661905731.006,3967.7865309312497,-21.46234341298911,1000,1.896,-0.095,-0.253,156.4,yellow,276,TRUE
330,1661905731.381,5713.981269785094,2275.029728535403,1000,2.724,-1.537,-3.112,77.8,blue,276,TRUE
331,1661905731.459,3834.3444148750036,-238.23014845264342,1000,1.896,-0.095,-0.253,93.7,yellow,276,TRUE
332,1661905731.709,5728.344408946568,2348.595103434397,1000,2.759,-1.548,-3.125,109.4,blue,276,TRUE
333,1661905731.834,3755.777916207,-377.15098230931847,1000,1.896,-0.095,-0.253,93.6,yellow,276,TRUE
334,1661905732.13,5718.481981607441,2373.033638887226,1000,2.749,-1.547,0.0,109.3,blue,276,TRUE
335,1661905732.255,3702.419931085686,-466.86090930810815,1000,1.896,-0.095,-0.253,109.4,yellow,276,TRUE
336,1661905732.568,5680.869823255231,2308.6559376168752,1000,2.793,-1.529,0.023,156.0,blue,276,TRUE
337,1661905732.724,3342.578906429059,-888.1132785600747,1000,1.896,-0.095,-0.253,171.8,yellow,276,TRUE
338,1661905733.083,5682.336525441808,2302.354063452168,1000,2.811,-1.526,0.033,109.2,blue,276,TRUE
339,1661905733.193,3445.1479343412575,-920.8973852270947,1000,1.896,-0.095,-0.253,109.5,yellow,276,TRUE
340,1661905733.552,3248.5672316706446,-775.2354240102967,1000,1.896,-0.095,-0.253,93.7,yellow,276,TRUE
341,1661905733.864,5720.589391935258,2433.2110469844833,1000,2.691,-1.462,3.1,93.7,blue,276,TRUE
342,1661905733.958,3247.4712693128236,-781.6486789551549,1000,1.896,-0.095,-0.253,93.7,yellow,276,TRUE
343,1661905734.208,5819.032507618727,2132.8748803350036,1000,2.731,-1.513,3.095,156.0,blue,276,TRUE
344,1661905734.38,3238.7574208824894,-780.1277230346765,1000,1.896,-0.095,-0.253,156.2,yellow,276,TRUE
345,1661905734.786,5664.4390273872605,2315.7205957703773,1000,2.676,-1.5,3.113,1097.1,blue,276,TRUE
346,1661905736.102,5720.04572165674,2353.3452324684094,1000,2.7,-1.47,3.112,156.5,blue,276,TRUE
347,1661905736.258,3222.3518614667896,-793.0557177021933,1000,1.896,-0.095,-0.253,109.1,yellow,276,TRUE
348,1661905736.572,5704.5046812420915,2366.1540421391896,1000,2.711,-1.469,3.12,93.8,blue,276,TRUE
349,1661905736.666,3230.7364118420355,-801.5350217191036,1000,1.896,-0.095,-0.253,109.3,yellow,276,TRUE
350,1661905736.978,5697.62892385806,2392.602639961924,1000,2.73,-1.402,2.788,93.7,blue,276,TRUE
351,1661905737.337,5729.735178030705,2318.36284907012,1000,2.753,-1.209,2.89,109.4,blue,276,TRUE
352,1661905737.447,3431.128491526318,-919.525278101842,1000,1.896,-0.095,-0.253,156.2,yellow,276,TRUE
353,1661905737.806,5762.4289418103,2278.4372114122175,1000,2.731,-1.114,3.012,157.8,blue,276,TRUE
354,1661905737.964,3405.6451526310348,-977.9842148654402,1000,1.896,-0.095,-0.253,93.7,yellow,276,TRUE
355,1661905739.198,5794.831109951058,2272.8006325913852,1000,2.902,-1.009,2.874,157.6,blue,276,TRUE
356,1661905739.355,3422.380575884547,-961.2503460894927,1000,1.896,-0.095,-0.253,156.2,yellow,276,TRUE
357,1661905739.699,3382.4165899982527,-961.8134895934294,1000,1.896,-0.095,-0.253,109.4,yellow,276,TRUE
358,1661905740.011,6045.140540750878,2005.4107258313907,1000,2.836,-0.998,2.942,93.7,blue,276,TRUE
359,1661905740.152,3420.8217093406242,-948.3709354695516,1000,1.896,-0.095,-0.253,1065.5,yellow,276,TRUE
360,1661905741.296,5875.427844081069,2190.280896402528,1000,2.861,-1.431,2.318,156.2,blue,276,TRUE
361,1661905741.452,3417.722585022523,-934.8361528560035,1000,1.896,-0.095,-0.253,156.2,yellow,276,TRUE
362,1661905741.811,5951.2243627998405,2145.780603169738,1000,2.844,-1.438,2.459,78.0,blue,276,TRUE
363,1661905741.889,3433.892436351645,-937.4450827616379,1000,1.896,-0.095,-0.253,93.8,yellow,276,TRUE
364,1661905742.172,6039.78349354159,2143.3003746061318,1000,2.829,-1.429,2.654,109.4,blue,276,TRUE
365,1661905742.297,3437.373395330054,-938.0517158106126,1000,1.896,-0.095,-0.253,109.5,yellow,276,TRUE
366,1661905742.609,5965.964648594667,2196.8260957474727,1000,2.89,-1.457,3.046,156.2,blue,276,TRUE
367,1661905742.765,3431.7746400753704,-931.3081465077072,1000,1.896,-0.095,-0.253,156.2,yellow,276,TRUE
368,1661905743.109,5946.423113589367,2208.022183409614,1000,3.088,-1.408,2.298,93.8,blue,276,TRUE
369,1661905743.203,3419.0608128840977,-945.5782445697934,1000,1.896,-0.095,-0.253,109.3,yellow,276,TRUE
370,1661905743.531,5900.7724600522315,2237.157817760994,1000,3.108,-1.486,3.079,93.7,blue,276,TRUE
371,1661905743.671,3668.375516520162,-1084.1736833858683,1000,0.033,-0.279,-0.253,1079.5,yellow,276,TRUE
372,1661905744.829,5903.532329584416,2240.049036825773,1000,3.255,-1.499,0.058,156.3,blue,276,TRUE
373,1661905744.985,3559.2315208241594,-989.6098540495286,1000,1.896,-0.095,-0.253,155.9,yellow,276,TRUE
374,1661905745.345,5810.029251920471,2194.0573809150706,1000,3.247,-1.493,0.057,109.4,blue,276,TRUE
375,1661905745.454,3517.596289338808,-965.0791283810316,1000,1.896,-0.095,-0.253,93.7,yellow,276,TRUE
376,1661905745.752,5687.889131305928,2150.3920549776008,1000,3.207,-1.506,0.049,109.4,blue,276,TRUE
377,1661905745.862,3500.4333223774015,-952.2151370488084,1000,1.896,-0.095,-0.253,93.7,yellow,276,TRUE
378,1661905746.144,5670.664585833424,2059.897905484702,1000,3.22,-1.509,0.05,156.2,blue,276,TRUE
379,1661905746.316,3485.3371019864217,-949.1859560358959,1000,1.896,-0.095,-0.253,156.2,yellow,276,TRUE
380,1661905746.659,5599.39258375426,2015.088811388827,1000,3.23,-1.492,0.072,94.0,blue,276,TRUE
381,1661905746.769,3476.430509020498,-943.7207589459052,1000,1.896,-0.095,-0.253,93.9,yellow,276,TRUE
382,1661905747.05,5577.20932921191,2109.82570951499,1000,3.226,-1.472,0.083,93.7,blue,276,TRUE
383,1661905747.207,3429.9123724828873,-906.4310976768186,1000,1.896,-0.095,-0.253,1048.1,yellow,276,TRUE
384,1661905748.333,5551.696456211336,2090.716635768893,1000,3.193,-1.458,0.076,156.2,blue,276,TRUE
385,1661905748.489,3390.8748969300177,-948.5018745107268,1000,1.896,-0.095,-0.253,156.1,yellow,276,TRUE
386,1661905748.834,5551.862868714373,2161.8935490975523,1000,3.21,-1.457,0.077,93.8,blue,276,TRUE
387,1661905748.928,3378.158439361499,-960.022054544218,1000,1.896,-0.095,-0.253,93.7,yellow,276,TRUE
388,1661905749.209,5526.891802209665,2245.885735475002,1000,3.188,-1.473,0.063,109.4,blue,276,TRUE
389,1661905749.334,3384.6215232795184,-961.8426341702884,1000,1.896,-0.095,-0.253,109.4,yellow,276,TRUE
390,1661905749.647,5546.437032949244,2383.18835130702,1000,3.506,-1.413,0.972,156.2,blue,276,TRUE
391,1661905749.803,3381.2348053707938,-972.870687994978,1000,1.896,-0.095,-0.253,156.3,yellow,276,TRUE
392,1661905750.146,5551.762280100383,2409.069285529622,1000,3.494,-1.418,0.914,93.8,blue,276,TRUE
393,1661905750.303,3455.1318682730166,-919.7155886225544,1000,1.896,-0.095,-0.253,1048.3,yellow,276,TRUE
394,1661905751.429,5524.506967264465,2341.16298218969,1000,3.539,-1.427,0.888,157.7,blue,276,TRUE
395,1661905751.587,3419.4264736262385,-950.554588557528,1000,1.896,-0.095,-0.253,156.2,yellow,276,TRUE
396,1661905751.946,5534.950127579784,2352.5106846691665,1000,3.493,-1.427,0.9,93.8,blue,276,TRUE
397,1661905752.04,3441.8411651820184,-944.1198695728837,1000,1.896,-0.095,-0.253,109.0,yellow,276,TRUE
398,1661905752.368,5536.081669906843,2363.913615502395,1000,3.457,-1.428,0.853,109.3,blue,276,TRUE
399,1661905752.493,3438.768828780317,-931.7950910007416,1000,1.896,-0.095,-0.253,93.8,yellow,276,TRUE
400,1661905752.774,5529.320013572051,2340.391015455987,1000,3.437,-1.441,0.862,156.2,blue,276,TRUE
401,1661905752.93,3436.8972745126202,-922.190340398735,1000,1.896,-0.095,-0.253,156.3,yellow,276,TRUE
402,1661905753.274,5514.564608494601,2267.9315142383625,1000,3.243,-1.462,0.071,93.7,blue,276,TRUE
403,1661905753.383,3428.657686427559,-929.9973619183902,1000,1.896,-0.095,-0.253,109.6,yellow,276,TRUE
404,1661905753.696,5525.799783800964,2288.6799382602417,1000,3.614,-1.412,1.067,93.8,blue,276,TRUE
405,1661905753.852,3545.433958402435,-788.4132600220771,1000,1.896,-0.095,-0.253,1048.2,yellow,276,TRUE
406,1661905754.978,5517.5518425819055,2225.2807013321712,1000,3.704,-1.451,0.117,156.2,blue,276,TRUE
407,1661905755.134,3465.1080738309024,-852.4908782995467,1000,1.896,-0.095,-0.253,156.2,yellow,276,TRUE
408,1661905755.494,5487.215540480703,2231.640113759729,1000,3.594,-1.464,0.106,94.9,blue,276,TRUE
409,1661905755.588,3452.781774925374,-903.7623364472029,1000,1.896,-0.095,-0.253,94.0,yellow,276,TRUE
410,1661905756.823,5486.931170417784,2212.737689843874,1000,3.511,-1.472,0.093,157.8,blue,276,TRUE
411,1661905756.996,3442.8477529824813,-905.7373799755408,1000,1.896,-0.095,-0.253,167.2,yellow,276,TRUE
412,1661905757.351,5518.97790266175,2235.2083130041965,1000,3.486,-1.456,0.097,93.7,blue,276,TRUE
413,1661905757.46,3436.9054682094356,-907.5881624001743,1000,1.896,-0.095,-0.253,93.8,yellow,276,TRUE
414,1661905757.741,5478.969343686717,2242.9411010260897,1000,3.497,-1.443,0.942,109.3,blue,276,TRUE
415,1661905757.866,3429.7819199820283,-920.630023600439,1000,1.896,-0.095,-0.253,94.0,yellow,276,TRUE
416,1661905758.147,5482.592940084844,2247.046196124292,1000,3.545,-1.432,0.93,156.2,blue,276,TRUE
417,1661905758.304,3406.050951675514,-956.5460169888889,1000,1.896,-0.095,-0.253,156.2,yellow,276,TRUE
418,1661905758.663,5494.853677562271,2269.9143227170885,1000,3.496,-1.439,0.94,93.5,blue,276,TRUE
419,1661905758.756,3417.3135916290616,-954.8056718484057,1000,1.896,-0.095,-0.253,109.6,yellow,276,TRUE
420,1661905759.053,5498.180532743997,2219.4545301317453,1000,3.482,-1.428,0.845,93.8,blue,276,TRUE
421,1661905759.194,3532.4418670226423,-1206.9900853685615,1000,1.896,-0.095,-0.253,1063.5,yellow,276,TRUE
422,1661905760.336,5513.969668960795,2239.5012226176946,1000,3.519,-1.428,0.921,156.2,blue,276,TRUE
423,1661905760.492,3480.7298722171363,-1056.2823655161073,1000,1.896,-0.095,-0.253,142.4,yellow,276,TRUE
424,1661905760.822,5486.933716675252,2211.1551859866267,1000,3.538,-1.43,0.965,93.6,blue,276,TRUE
425,1661905760.915,3447.877558905715,-1049.5623635599168,1000,1.896,-0.095,-0.253,93.5,yellow,276,TRUE
426,1661905761.198,5502.746127838337,2227.0367540626467,1000,3.536,-1.433,0.999,109.0,blue,276,TRUE
427,1661905761.307,3451.2508808274183,-1021.9658900847185,1000,1.896,-0.095,-0.253,109.7,yellow,276,TRUE
428,1661905761.635,5503.097794975963,2220.29688886524,1000,3.523,-1.436,1.021,93.7,blue,276,TRUE
429,1661905761.744,3430.456572948989,-1023.2981890842864,1000,1.896,-0.095,-0.253,94.0,yellow,276,TRUE
430,1661905762.041,5513.652884371494,2251.811115504023,1000,3.528,-1.436,1.01,156.2,blue,276,TRUE
431,1661905762.197,3432.8932153903806,-1009.5072078186987,1000,1.896,-0.095,-0.253,156.2,yellow,276,TRUE
432,1661905762.59,5252.937325249862,2282.291498308921,1000,3.508,-1.433,0.954,1140.2,blue,276,TRUE
433,1661905765.012,3425.615948900718,-961.8092905648679,1000,1.896,-0.095,-0.253,157.8,yellow,276,TRUE
434,1661905765.295,5224.888376940742,2141.778005096472,1000,3.52,-1.441,0.971,109.6,blue,276,TRUE
435,1661905765.42,3433.458206180097,-957.016731267985,1000,1.896,-0.095,-0.253,109.3,yellow,276,TRUE
436,1661905765.734,5275.801667800555,2134.8762046369625,1000,3.496,-1.444,0.918,93.7,blue,276,TRUE
437,1661905766.062,5329.535421206625,2097.772712216554,1000,3.353,-1.46,0.073,93.7,blue,276,TRUE
438,1661905766.406,5376.842026791828,2108.878339462234,1000,3.272,-1.453,0.071,157.7,blue,276,TRUE
439,1661905766.579,3488.83657990427,-923.7946294970789,1000,1.896,-0.095,-0.253,156.2,yellow,276,TRUE
440,1661905766.922,5387.464501977105,2118.3392586562786,1000,3.632,-1.41,1.011,93.7,blue,276,TRUE
441,1661905767.032,3474.890920851417,-927.446161118205,1000,1.896,-0.095,-0.253,94.1,yellow,276,TRUE
442,1661905767.313,5436.311667763687,2111.6804268284695,1000,3.803,-1.402,1.052,109.3,blue,276,TRUE
443,1661905767.438,3466.456815013431,-924.9532798420875,1000,1.896,-0.095,-0.253,111.2,yellow,276,TRUE
444,1661905767.752,5509.706646813057,2129.905196874764,1000,3.894,-1.404,1.101,156.2,blue,276,TRUE
445,1661905767.908,3462.0603579864946,-918.1235892815675,1000,1.896,-0.095,-0.253,156.2,yellow,276,TRUE
446,1661905768.252,5566.065704084838,2211.3332177391035,1000,3.8,-1.427,1.137,93.7,blue,276,TRUE
447,1661905768.408,3442.447458219211,-922.6288830964827,1000,1.896,-0.095,-0.253,1048.1,yellow,276,TRUE
448,1661905769.534,5565.041712113981,2272.2624774489905,1000,4.075,-1.397,1.08,156.2,blue,276,TRUE
449,1661905769.69,3451.0737232835436,-933.4607083850738,1000,1.896,-0.095,-0.253,156.3,yellow,276,TRUE
450,1661905770.034,5542.759101959884,2275.811313640442,1000,3.926,-1.406,1.082,93.8,blue,276,TRUE
451,1661905770.128,3435.9878465931847,-923.6130106813638,1000,1.896,-0.095,-0.253,93.7,yellow,276,TRUE
452,1661905771.348,5557.4825503108505,2297.6648930871997,1000,3.478,-1.433,0.822,140.5,blue,276,TRUE
453,1661905771.785,5569.825743680121,2283.3317788799036,1000,3.635,-1.395,1.011,93.7,blue,276,TRUE
454,1661905771.879,3485.8662172060826,-910.3308773060768,1000,1.896,-0.095,-0.253,94.9,yellow,276,TRUE
455,1661905773.239,3472.735058410294,-911.2529149980746,1000,1.896,-0.095,-0.253,157.3,yellow,276,TRUE
456,1661905773.6,5568.064620170074,2273.683885708441,1000,3.58,-1.425,0.858,94.9,blue,276,TRUE
457,1661905773.695,3465.752769461769,-907.0014913544256,1000,1.896,-0.095,-0.253,93.9,yellow,276,TRUE
458,1661905774.007,5567.193401036569,2261.3529824957477,1000,3.481,-1.414,0.867,93.8,blue,276,TRUE
459,1661905774.101,3462.3613083260043,-908.2980796382288,1000,1.896,-0.095,-0.253,93.8,yellow,276,TRUE
460,1661905774.398,5612.962390582819,2305.3898148453827,1000,3.495,-1.416,0.888,156.2,blue,276,TRUE
461,1661905774.569,3462.45954382552,-906.3238909182119,1000,1.896,-0.095,-0.253,156.2,yellow,276,TRUE
462,1661905774.913,5635.720083137269,2292.286112593589,1000,3.64,-1.397,0.915,93.7,blue,276,TRUE
463,1661905775.007,3461.386446547997,-907.5575276275599,1000,1.896,-0.095,-0.253,93.8,yellow,276,TRUE
464,1661905775.288,5642.0576952083275,2279.2148307449406,1000,3.76,-1.398,0.945,109.4,blue,276,TRUE
465,1661905775.413,3456.7604986554556,-913.8765826320532,1000,1.896,-0.095,-0.253,93.7,yellow,276,TRUE
466,1661905775.711,5645.185537997165,2300.8277571926233,1000,3.751,-1.404,1.011,93.7,blue,276,TRUE
467,1661905775.82,3454.3040721128405,-914.0674846867888,1000,1.896,-0.095,-0.253,109.6,yellow,276,TRUE
468,1661905776.119,5637.531258579295,2324.260642377011,1000,3.663,-1.424,1.009,156.2,blue,276,TRUE
469,1661905776.275,3459.214479205151,-919.828452489227,1000,1.896,-0.095,-0.253,156.2,yellow,276,TRUE
470,1661905776.65,5570.140247297734,2260.5909531588536,1000,3.519,-1.418,0.872,93.6,blue,276,TRUE
471,1661905776.79,3603.0407518040897,-1094.746429284915,1000,0.034,-0.279,-0.253,1063.2,yellow,276,TRUE
472,1661905777.932,5520.497390607466,2215.1339822996047,1000,3.503,-1.41,0.886,157.8,blue,276,TRUE
473,1661905778.371,5541.16932279316,2287.5996360926765,1000,3.508,-1.408,0.934,93.7,blue,276,TRUE
474,1661905778.48,3435.133547995323,-923.856466099316,1000,1.896,-0.095,-0.253,109.2,yellow,276,TRUE
475,1661905778.794,5529.083927303731,2291.740862654748,1000,3.682,-1.39,0.929,93.8,blue,276,TRUE
476,1661905778.888,3431.477793754895,-952.5917595388507,1000,1.896,-0.095,-0.253,93.6,yellow,276,TRUE
477,1661905780.217,3426.192889868778,-947.0904815953946,1000,1.896,-0.095,-0.253,156.2,yellow,276,TRUE
478,1661905780.592,5504.911626386139,2271.561328958483,1000,3.691,-1.424,1.114,95.4,blue,276,TRUE
479,1661905780.687,3429.5341584968073,-938.9658544723509,1000,1.896,-0.095,-0.253,93.6,yellow,276,TRUE
480,1661905780.984,5521.526941746527,2277.8298398615766,1000,3.602,-1.463,0.098,93.7,blue,276,TRUE
481,1661905781.078,3443.700974059244,-930.7187344689313,1000,1.896,-0.095,-0.253,93.8,yellow,276,TRUE
482,1661905781.359,5570.482490188799,2297.8598305327237,1000,3.606,-1.454,0.107,109.7,blue,276,TRUE
483,1661905781.484,3448.727264085088,-935.8550763399888,1000,1.896,-0.095,-0.253,111.0,yellow,276,TRUE
484,1661905781.798,5604.6775126589055,2276.3796228870538,1000,3.628,-1.442,1.019,156.2,blue,276,TRUE
485,1661905781.954,3451.5149740833585,-930.8094545142538,1000,1.896,-0.095,-0.253,156.2,yellow,276,TRUE
486,1661905782.298,5581.542851735044,2178.658487860533,1000,3.655,-1.441,0.972,93.8,blue,276,TRUE
487,1661905782.454,5712.245405598175,1513.5575057517078,1000,0.023,-1.396,2.287,1095.1,yellow,276,TRUE
488,1661905783.627,5584.821103557239,2189.195899232934,1000,3.751,-1.407,1.045,156.2,blue,276,TRUE
489,1661905783.783,4581.2584124623845,304.0021844050557,1000,1.896,-0.095,-0.253,156.3,yellow,276,TRUE
490,1661905784.127,5586.9455854684375,2208.887930199821,1000,3.755,-1.406,0.989,93.8,blue,276,TRUE
491,1661905784.221,4204.911535661184,-107.19438214121112,1000,1.896,-0.095,-0.253,93.7,yellow,276,TRUE
492,1661905785.439,5527.618361344371,2195.0054355581265,1000,3.546,-1.436,0.849,156.2,blue,276,TRUE
493,1661905785.862,5461.793446918771,2161.9075931909265,1000,3.559,-1.426,0.877,93.8,blue,276,TRUE
494,1661905785.956,3459.4187848287697,-924.850509447706,1000,1.896,-0.095,-0.253,109.0,yellow,276,TRUE
495,1661905786.268,5412.248364419179,2142.3352794705957,1000,3.599,-1.419,0.888,93.7,blue,276,TRUE
496,1661905786.409,3637.052845774303,-1103.751414022171,1000,1.896,-0.095,-0.253,1067.1,yellow,276,TRUE
497,1661905787.554,5407.339676722257,2149.1074939053187,1000,3.785,-1.441,0.998,156.2,blue,276,TRUE
498,1661905787.711,3562.3201910561475,-1015.938821081065,1000,1.896,-0.095,-0.253,156.1,yellow,276,TRUE
499,1661905788.962,5436.912676507237,2131.963175957972,1000,3.436,-1.468,0.068,156.2,blue,276,TRUE
500,1661905789.118,3514.0161524556206,-1008.6865196760828,1000,1.896,-0.095,-0.253,156.2,yellow,276,TRUE
501,1661905789.462,5458.231261260501,2128.5238542516117,1000,3.507,-1.439,0.736,109.4,blue,276,TRUE
502,1661905789.587,3485.9443792356774,-988.8106641033341,1000,1.896,-0.095,-0.253,93.7,yellow,276,TRUE
503,1661905789.868,5482.960540992038,2115.427142328915,1000,3.607,-1.43,0.862,109.3,blue,276,TRUE
504,1661905789.977,3457.050565351727,-992.9551668182378,1000,1.896,-0.095,-0.253,93.7,yellow,276,TRUE
505,1661905790.274,5524.571386766022,2143.888944815442,1000,3.653,-1.427,0.921,156.2,blue,276,TRUE
506,1661905790.43,3455.8394143341015,-980.2429090606512,1000,1.896,-0.095,-0.253,156.2,yellow,276,TRUE
507,1661905790.807,5543.1172684686,2163.2529540129735,1000,3.841,-1.427,1.081,93.7,blue,276,TRUE
508,1661905790.9,3415.883759235376,-962.9128536034724,1000,1.896,-0.095,-0.253,109.1,yellow,276,TRUE
509,1661905791.198,5596.409454575488,2219.2248324393686,1000,3.766,-1.415,1.006,93.7,blue,276,TRUE
510,1661905791.292,3409.147530674203,-960.1212095736946,1000,1.896,-0.095,-0.253,93.7,yellow,276,TRUE
511,1661905791.62,5588.653226313308,2262.2856002932663,1000,3.712,-1.425,0.983,156.2,blue,276,TRUE
512,1661905791.776,3411.2433681245534,-945.3896956123812,1000,1.896,-0.095,-0.253,155.9,yellow,276,TRUE
513,1661905792.12,5575.445527522085,2301.932567950688,1000,3.721,-1.416,0.962,93.7,blue,276,TRUE
514,1661905793.449,5640.116652888612,2322.538162827007,1000,2.95,-1.46,-0.014,172.1,blue,276,TRUE
515,1661905793.637,3416.590452096625,-948.7751927709792,1000,1.896,-0.095,-0.253,93.8,yellow,276,TRUE
516,1661905794.996,3440.1651011035833,-933.8196548333249,1000,1.896,-0.095,-0.253,157.8,yellow,276,TRUE
517,1661905795.341,5705.7439090213675,2328.98478269854,1000,3.219,-1.458,0.1,93.8,blue,276,TRUE
518,1661905795.435,3431.3533339242385,-944.7535412707269,1000,1.896,-0.095,-0.253,109.3,yellow,276,TRUE
519,1661905795.765,5762.948441775229,2338.187616100547,1000,3.232,-1.453,0.107,93.7,blue,276,TRUE
520,1661905795.905,5754.598518631176,1774.123305675171,1000,0.021,-1.396,2.054,1112.3,yellow,276,TRUE
521,1661905797.096,5754.626842482504,2329.4211236556243,1000,3.257,-1.448,1.09,156.2,blue,276,TRUE
522,1661905797.252,4554.361492083586,398.8594318436961,1000,1.896,-0.095,-0.253,156.1,yellow,276,TRUE
523,1661905797.517,5790.3920125971335,2306.4267506247215,1000,3.256,-1.452,0.108,109.4,blue,276,TRUE
524,1661905797.642,4185.2145053086815,-54.204727200473904,1000,1.896,-0.095,-0.253,93.7,yellow,276,TRUE
525,1661905797.924,5830.771468630394,2274.6703042313015,1000,3.262,-1.452,0.108,93.8,blue,276,TRUE
526,1661905798.017,4005.55115058626,-277.28481317900105,1000,1.896,-0.095,-0.253,93.7,yellow,276,TRUE
527,1661905799.253,5807.249050634066,2281.336305214308,1000,3.553,-1.412,0.868,156.1,blue,276,TRUE
528,1661905799.424,3885.352428988567,-404.3319195396222,1000,1.896,-0.095,-0.253,156.5,yellow,276,TRUE
529,1661905799.799,5773.257175854596,2249.541578297276,1000,3.556,-1.438,0.949,93.7,blue,276,TRUE
530,1661905799.908,3806.3933489591977,-488.80003663698875,1000,1.896,-0.095,-0.253,94.0,yellow,276,TRUE
531,1661905800.207,5749.471585872277,2216.8404937624273,1000,3.548,-1.439,0.892,94.1,blue,276,TRUE
532,1661905800.301,3418.004581963167,-942.0047068900861,1000,1.896,-0.095,-0.253,109.0,yellow,276,TRUE
533,1661905800.629,5738.8170497915125,2199.2990024231935,1000,3.55,-1.434,0.882,157.8,blue,276,TRUE
534,1661905802.022,5690.879002833256,2215.256432847361,1000,3.889,-1.372,1.089,156.5,blue,276,TRUE
535,1661905802.178,3433.821360018404,-931.4376223826363,1000,1.896,-0.095,-0.253,93.8,yellow,276,TRUE
536,1661905803.523,3430.7334612508967,-926.7355310223953,1000,1.896,-0.095,-0.253,156.2,yellow,276,TRUE
537,1661905803.867,5613.069160969725,2166.241562849438,1000,3.632,-1.497,0.041,93.7,blue,276,TRUE
538,1661905804.023,3438.120974121173,-945.3565091616567,1000,1.896,-0.095,-0.253,1048.6,yellow,276,TRUE
539,1661905805.15,5536.080183107878,2205.398816318109,1000,3.992,-1.504,0.044,156.2,blue,276,TRUE
540,1661905806.527,5500.020875151498,2225.803317325242,1000,3.828,-1.429,0.796,156.5,blue,276,TRUE
541,1661905806.699,3461.284685889198,-939.896396842677,1000,1.896,-0.095,-0.253,93.7,yellow,276,TRUE
542,1661905806.98,5480.4886704627725,2233.5301288589417,1000,3.778,-1.424,0.801,93.8,blue,276,TRUE
543,1661905807.074,3447.5371929777116,-938.5234402059474,1000,1.896,-0.095,-0.253,109.0,yellow,276,TRUE
544,1661905807.371,5455.334872457138,2226.0943451689345,1000,3.809,-1.425,0.854,93.7,blue,276,TRUE
545,1661905807.527,3247.83130286369,-978.7853697457514,1000,0.008,31.276,20.507,1093.7,yellow,276,TRUE
546,1661905808.698,5417.862392754404,2190.7717246237403,1000,3.862,-1.432,0.906,157.8,blue,276,TRUE
547,1661905808.856,3351.1653125761113,-952.9319047182724,1000,1.896,-0.095,-0.253,156.1,yellow,276,TRUE
548,1661905809.2,5420.1243556984455,2184.5703535834273,1000,3.691,-1.44,0.786,93.7,blue,276,TRUE
549,1661905809.294,3386.950673519166,-949.3774536524625,1000,1.896,-0.095,-0.253,93.8,yellow,276,TRUE
550,1661905809.606,5445.696943601129,2173.3766088617526,1000,3.523,-1.457,0.084,109.4,blue,276,TRUE
551,1661905809.731,3388.098149540012,-962.6670406699544,1000,1.896,-0.095,-0.253,78.3,yellow,276,TRUE
552,1661905809.997,5460.620258669893,2198.929248321072,1000,3.535,-1.45,0.964,93.8,blue,276,TRUE
553,1661905810.09,3395.864343745543,-960.3246012849871,1000,1.896,-0.095,-0.253,95.3,yellow,276,TRUE
554,1661905811.281,5466.636452424486,2235.212339185308,1000,3.568,-1.439,1.057,156.2,blue,276,TRUE
555,1661905811.751,5440.3801274487905,2183.2088204618162,1000,3.726,-1.421,1.094,93.8,blue,276,TRUE
556,1661905811.845,3398.137567973372,-951.8875799495937,1000,1.896,-0.095,-0.253,93.7,yellow,276,TRUE
557,1661905812.142,5467.375816874325,2184.592545954139,1000,3.74,-1.42,1.033,93.6,blue,276,TRUE
558,1661905812.235,3431.354829764274,-956.6623929195985,1000,1.896,-0.095,-0.253,93.8,yellow,276,TRUE
559,1661905812.516,5489.329215510621,2218.873940119331,1000,3.735,-1.427,1.032,109.3,blue,276,TRUE
560,1661905812.641,3403.6191038751663,-980.3838168196979,1000,1.896,-0.095,-0.253,109.4,yellow,276,TRUE
561,1661905812.954,5513.568771355836,2209.0698731718326,1000,3.719,-1.431,1.065,156.2,blue,276,TRUE
562,1661905813.11,3345.697324003171,-1038.2931359440468,1000,1.896,-0.095,-0.253,156.1,yellow,276,TRUE
563,1661905813.454,5494.897865525836,2193.514364310797,1000,3.684,-1.436,0.988,93.8,blue,276,TRUE
564,1661905813.61,3398.662911752293,-1017.179064223369,1000,1.896,-0.095,-0.253,1048.1,yellow,276,TRUE
565,1661905814.736,5461.572615284526,2206.748798806257,1000,3.576,-1.455,0.092,156.3,blue,276,TRUE
566,1661905814.892,3386.609739941984,-985.1527405431557,1000,1.896,-0.095,-0.253,156.2,yellow,276,TRUE
567,1661905815.236,5482.130329824268,2307.1655856336533,1000,3.424,-1.458,0.075,93.5,blue,276,TRUE
568,1661905815.329,3414.197462136773,-962.8300602244695,1000,1.896,-0.095,-0.253,94.0,yellow,276,TRUE
569,1661905816.534,5481.960665520156,2330.115430483274,1000,3.508,-1.418,0.867,156.2,blue,276,TRUE
570,1661905816.989,5477.381228744826,2365.884173306469,1000,3.552,-1.422,0.725,93.7,blue,276,TRUE
571,1661905817.114,3132.9682905484415,-841.8215801112166,1000,1.896,-0.095,-0.253,1112.8,yellow,276,TRUE
572,1661905818.304,5476.030003198987,2370.0999916074093,1000,3.667,-1.412,0.82,157.7,blue,276,TRUE
573,1661905818.462,3305.4141522785385,-890.8471599295933,1000,1.896,-0.095,-0.253,155.8,yellow,276,TRUE
574,1661905818.821,5492.927394074691,2383.2049028943243,1000,3.654,-1.397,0.773,93.8,blue,276,TRUE
575,1661905818.915,3351.7068186395372,-917.2340491485161,1000,1.896,-0.095,-0.253,93.7,yellow,276,TRUE
576,1661905820.104,5510.987840068231,2338.9671793620487,1000,3.874,-1.44,0.868,156.1,blue,276,TRUE
577,1661905820.557,5517.439859415179,2333.9281347687906,1000,3.742,-1.463,0.076,93.8,blue,276,TRUE
578,1661905820.651,3421.7641977214043,-854.9782291520263,1000,1.896,-0.095,-0.253,110.4,yellow,276,TRUE
579,1661905820.964,5507.576105085443,2283.9115113851226,1000,3.738,-1.434,0.789,95.1,blue,276,TRUE
580,1661905821.059,3390.7850226197247,-904.4650375337521,1000,1.896,-0.095,-0.253,93.8,yellow,276,TRUE
581,1661905822.293,5521.226804291297,2271.9459671190275,1000,3.557,-1.421,0.669,157.8,blue,276,TRUE
582,1661905822.748,5509.165896018956,2250.096127022401,1000,3.583,-1.421,0.689,109.4,blue,276,TRUE
583,1661905822.873,3199.523484494765,-766.4176556444634,1000,1.896,-0.095,-0.253,78.1,yellow,276,TRUE
584,1661905824.202,3331.0118495130264,-839.1441206383623,1000,1.896,-0.095,-0.253,156.1,yellow,276,TRUE
585,1661905824.546,5505.3430593883395,2223.725150868079,1000,3.786,-1.395,0.745,93.5,blue,276,TRUE
586,1661905824.639,3369.12992720786,-864.6000305462976,1000,1.896,-0.095,-0.253,109.6,yellow,276,TRUE
587,1661905824.968,5506.322546257252,2231.622204489449,1000,3.776,-1.407,0.812,93.7,blue,276,TRUE
588,1661905825.077,3391.224997648084,-869.1945771669981,1000,1.896,-0.095,-0.253,94.1,yellow,276,TRUE
589,1661905825.358,5494.641420086812,2211.428855680524,1000,3.783,-1.408,0.813,93.7,blue,276,TRUE
590,1661905825.452,3392.27569453844,-896.312244243734,1000,1.896,-0.095,-0.253,93.6,yellow,276,TRUE
591,1661905825.766,5498.707309111371,2230.175820139877,1000,4.1,-1.406,1.064,156.3,blue,276,TRUE
