,timestamp,x,y,z,yaw,roll,pitch,latency,student,session,success
0,1661911822.618,2300.490773299798,758.2383221762229,1000,5.965,-1.421,1.945,1081.2,blue,277,TRUE
1,1661911827.0,1710.15191484025,-595.1399239050536,1000,5.826,-1.486,3.097,1156.1,red,277,TRUE
2,1661911828.156,5356.456193753013,5449.307088085969,1000,0.01,-1.117,-0.16,1126.2,green,277,TRUE
3,1661911829.282,2417.8005298703406,1664.411330409853,1000,5.732,-1.452,0.117,93.6,blue,277,TRUE
4,1661911829.36,1980.355453107451,26.90045174186016,1000,4.908,-1.394,-2.76,124.9,red,277,TRUE
5,1661911830.486,1528.3003321195802,7136.754663084223,1000,5.365,-0.537,0.158,1126.5,green,277,TRUE
6,1661911832.628,2458.058254790687,2236.686641574796,1000,5.457,-1.394,1.549,1146.9,blue,277,TRUE
7,1661911834.776,2098.39570976212,3865.6880260141893,1000,5.402,-0.358,0.087,1157.2,green,277,TRUE
8,1661911836.936,2282.7763746421742,2293.277833370705,1000,5.691,-1.444,1.18,1157.5,blue,277,TRUE
9,1661911841.346,2058.811659828696,507.003012733335,1000,4.255,-1.505,-3.087,1126.4,red,277,TRUE
10,1661911842.457,2287.788526242588,2239.115260748264,1000,5.372,-0.133,0.107,124.9,green,277,TRUE
11,1661911843.645,2277.864087549912,2316.676853042786,1000,5.845,-1.464,3.04,109.3,blue,277,TRUE
12,1661911843.739,2429.799918492514,1335.8112047199709,1000,4.132,-1.473,-3.064,142.1,red,277,TRUE
13,1661911847.179,2700.832087198061,1970.2119931077307,1000,4.13,-1.496,-3.075,1156.3,red,277,TRUE
14,1661911850.478,2317.916915831779,2399.471463977735,1000,5.895,-1.43,1.674,1096.2,blue,277,TRUE
15,1661911852.575,2478.4627691699034,1281.439258780662,1000,5.376,-0.082,0.117,1141.9,green,277,TRUE
16,1661911858.083,1665.9665989072328,2037.1377759473635,1000,5.685,-1.462,0.108,1157.6,blue,277,TRUE
17,1661911861.415,1750.3319289850176,2195.2685002697604,1000,5.928,-1.434,1.068,1204.4,blue,277,TRUE
18,1661911865.872,2906.758053582797,2496.407962210014,1000,3.843,-1.326,-0.54,1143.3,red,277,TRUE
19,1661911866.984,2506.2128756394777,645.8505411973755,1000,5.361,-0.129,0.104,109.4,green,277,TRUE
20,1661911867.265,2111.0293524072954,2642.099825901472,1000,5.955,-1.434,1.296,1079.5,blue,277,TRUE
21,1661911868.329,3641.697571690556,-2571.638581249091,1000,5.076,-1.029,-0.232,125.0,yellow,277,TRUE
22,1661911870.595,2102.2763710605122,2595.9662621859866,1000,5.934,-1.445,1.486,126.9,blue,277,TRUE
23,1661911870.722,2419.8492262533982,2499.4925696330743,1000,3.737,-1.539,-0.013,1110.7,red,277,TRUE
24,1661911873.976,2021.005690764139,2645.2835277387485,1000,5.966,-1.421,1.373,1110.3,blue,277,TRUE
25,1661911873.976,2220.567045093744,2572.4894771308273,1000,5.966,-1.421,1.373,1110.3,red,277,TRUE
26,1661911873.976,2154.1391096354155,2596.8010058684363,1000,5.966,-1.421,1.373,1110.3,red,277,TRUE
27,1661911878.385,2516.6794241729813,2614.205901650313,1000,3.723,-1.55,-3.121,1095.4,red,277,TRUE
28,1661911881.64,2619.706514952885,1597.7448635378444,1000,3.706,-1.451,-0.027,1140.3,blue,277,TRUE
29,1661911881.64,2568.155016015253,2106.021133008483,1000,3.706,-1.451,-0.027,1140.3,red,277,TRUE
30,1661911881.64,2585.3745990169023,1937.0338659500032,1000,3.706,-1.451,-0.027,1140.3,red,277,TRUE
31,1661911886.05,2527.4601226941886,2154.7091270652863,1000,3.979,-1.498,-0.004,1143.5,red,277,TRUE
32,1661911887.162,2089.1408441469903,-674.0192412614294,1000,5.356,-0.111,0.108,124.9,green,277,TRUE
33,1661911888.365,2575.5195292791295,2057.6100375817273,1000,5.739,-1.359,1.336,111.0,blue,277,TRUE
34,1661911888.46,2581.6299340112505,2316.386363308794,1000,3.964,-1.494,-0.007,140.5,red,277,TRUE
35,1661911900.953,2641.2544629152358,2531.068613916785,1000,5.69,-1.437,1.481,1143.4,blue,277,TRUE
36,1661911905.457,2648.9843550099718,2814.2460178612005,1000,4.9,-1.525,-3.097,1159.0,red,277,TRUE
37,1661911906.616,2893.9666671860705,-2336.1006477046567,1000,5.348,-0.455,0.083,1141.8,green,277,TRUE
38,1661911915.559,2474.206078083489,3543.5094197717062,1000,5.516,-1.451,0.994,126.5,blue,277,TRUE
39,1661911915.685,2195.712794907299,6408.640591410515,1000,4.563,-1.481,-0.048,1095.0,red,277,TRUE
40,1661911918.941,1419.6125024803518,6494.600521684211,1000,5.492,-1.451,0.1,1112.7,blue,277,TRUE
41,1661911918.941,1807.8351378071306,6451.266139331203,1000,5.492,-1.451,0.1,1112.7,red,277,TRUE
42,1661911918.941,1678.4759586310172,6465.702298020783,1000,5.492,-1.451,0.1,1112.7,red,277,TRUE
43,1661911923.342,1824.0123918542301,6513.818536097426,1000,4.605,-1.486,-0.072,1141.9,red,277,TRUE
44,1661911926.627,1718.817017733173,6476.527792756762,1000,5.5,-1.453,0.103,109.7,blue,277,TRUE
45,1661911926.721,1936.159686742762,6499.909562157804,1000,4.587,-1.475,-0.081,124.9,red,277,TRUE
46,1661911929.099,2084.137610922609,6249.547058001996,1000,4.541,-1.481,-0.081,1095.2,red,277,TRUE
47,1661911932.321,1882.5621412619078,6516.689836154455,1000,5.681,-1.384,1.285,1142.0,blue,277,TRUE
48,1661911935.73,2335.663088430669,6541.0182256482985,1000,4.812,-1.48,-0.074,1129.4,red,277,TRUE
49,1661911937.015,1957.666534549894,6619.184805051611,1000,5.883,-1.4,1.065,109.3,blue,277,TRUE
50,1661911937.109,2335.953343380858,6756.861560227035,1000,4.591,-1.488,3.112,125.0,red,277,TRUE
51,1661911938.423,3134.1869858753885,8039.7419547203945,1000,4.359,-1.536,-0.034,1141.6,blue,277,TRUE
52,1661911938.423,2602.0850822248176,7184.230931611518,1000,4.359,-1.536,-0.034,1141.6,red,277,TRUE
53,1661911938.423,2735.274367440007,7397.942720712057,1000,4.359,-1.536,-0.034,1141.6,red,277,TRUE
54,1661911940.738,2642.995073087194,6823.504764331097,1000,4.402,-1.55,-0.005,1110.6,blue,277,TRUE
55,1661911940.738,2717.0227599126774,7283.119363005559,1000,4.402,-1.55,-0.005,1110.6,red,277,TRUE
56,1661911940.738,2704.818684870319,7206.569681814861,1000,4.402,-1.55,-0.005,1110.6,red,277,TRUE
57,1661911943.02,2426.621291507676,6865.494115139142,1000,5.522,-1.441,1.379,109.3,blue,277,TRUE
58,1661911943.114,2731.400694298336,7233.783142898918,1000,4.285,-1.52,-0.041,124.9,red,277,TRUE
59,1661911944.429,2726.1145100238355,6790.47831880713,1000,0.029,-1.676,-0.041,1140.0,blue,277,TRUE
60,1661911944.429,2796.354077694105,7203.41783107535,1000,0.029,-1.676,-0.041,1140.0,red,277,TRUE
61,1661911944.429,2728.3366108587106,6995.411288607695,1000,0.029,-1.676,-0.041,1140.0,red,277,TRUE
62,1661911946.744,2590.4474338164487,7397.212718650803,1000,5.461,-1.45,1.26,1094.9,blue,277,TRUE
63,1661911948.996,2289.920317275715,7088.205495348695,1000,5.43,-1.458,0.107,109.7,blue,277,TRUE
64,1661911949.09,2619.0908155685797,6822.270778446083,1000,4.291,-1.527,-0.036,124.9,red,277,TRUE
65,1661911950.373,2269.0188769735882,6992.293793209396,1000,5.471,-1.436,1.218,109.3,blue,277,TRUE
66,1661911950.467,2576.8185640830475,6800.435165562922,1000,4.332,-1.538,-3.11,125.0,red,277,TRUE
67,1661911951.735,2263.9920439047696,6894.791784233181,1000,5.457,-1.453,0.104,125.0,blue,277,TRUE
68,1661911951.86,2441.5402625942393,6806.472971194115,1000,4.358,-1.53,-3.105,1126.4,red,277,TRUE
69,1661911953.166,2254.4531361687687,6900.322623887048,1000,5.49,-1.453,0.107,124.9,blue,277,TRUE
70,1661911953.291,2363.6889635817984,6749.9672165202255,1000,4.323,-1.504,-0.05,1110.8,red,277,TRUE
71,1661911954.558,2246.049905043779,6892.788832326132,1000,5.472,-1.463,0.107,109.4,blue,277,TRUE
72,1661911954.651,2393.74512538439,6824.101368006379,1000,4.298,-1.503,-0.048,124.9,red,277,TRUE
73,1661911955.948,2177.657082496677,6758.966888681923,1000,5.567,-1.438,1.192,109.3,blue,277,TRUE
74,1661911956.042,2374.5410603638707,6823.865666517856,1000,4.303,-1.489,-0.048,124.8,red,277,TRUE
75,1661911957.31,2215.432796006204,6715.744333249778,1000,5.504,-1.451,0.112,110.6,blue,277,TRUE
76,1661911957.403,2413.349448641366,6883.9567663237885,1000,4.307,-1.481,-0.048,142.1,red,277,TRUE
77,1661911958.734,1415.974230973105,7032.917946583917,1000,5.455,-1.431,1.172,1095.1,blue,277,TRUE
78,1661911960.971,1721.8260617804706,6964.430787658444,1000,5.442,-1.429,1.205,109.4,blue,277,TRUE
79,1661911961.065,2446.076275642504,6905.222593158396,1000,4.256,-1.524,-0.04,124.9,red,277,TRUE
80,1661911962.348,1895.8018266694733,6827.566608248947,1000,5.642,-1.422,1.667,109.6,blue,277,TRUE
81,1661911962.442,2413.57758958785,6890.969291369634,1000,4.237,-1.512,-0.044,140.6,red,277,TRUE
82,1661911963.772,2353.9462567998526,6892.805621650032,1000,5.509,-1.445,1.091,1095.1,blue,277,TRUE
83,1661911966.038,2355.220802550717,6452.083891024513,1000,5.569,-1.439,1.0,109.3,blue,277,TRUE
84,1661911966.132,2444.834013463584,6920.156991082936,1000,4.226,-1.494,-0.047,124.9,red,277,TRUE
85,1661911967.415,2286.723702497819,6473.853822479204,1000,5.553,-1.434,1.017,110.8,blue,277,TRUE
86,1661911967.51,2463.293122384,6907.666637010254,1000,4.216,-1.493,-0.046,140.6,red,277,TRUE
87,1661911968.839,2724.8151744241786,6959.996098620799,1000,0.029,-1.676,-0.046,1124.7,blue,277,TRUE
88,1661911968.839,2528.068327734633,6930.437639508483,1000,0.029,-1.676,-0.046,1124.7,red,277,TRUE
89,1661911968.839,2560.663257106351,6912.95097889507,1000,0.029,-1.676,-0.046,1124.7,red,277,TRUE
90,1661911971.122,2384.0122884632683,6616.1215995424445,1000,5.483,-1.433,1.072,93.7,blue,277,TRUE
91,1661911971.199,2500.34052593526,6904.051759429319,1000,4.198,-1.494,-0.046,125.3,red,277,TRUE
92,1661911972.482,2313.254903912963,6822.047244296278,1000,5.486,-1.429,1.021,109.4,blue,277,TRUE
93,1661911972.575,2535.667307064119,6916.933643009536,1000,4.217,-1.487,-0.044,140.3,red,277,TRUE
94,1661911973.858,2262.1111526960667,6714.841790406508,1000,5.492,-1.424,0.965,109.3,blue,277,TRUE
95,1661911973.951,2535.3182631437567,6941.573639359723,1000,4.21,-1.466,-0.043,124.9,red,277,TRUE
96,1661911975.234,2189.5316908638283,6695.770400901046,1000,5.512,-1.422,0.942,109.7,blue,277,TRUE
97,1661911975.327,2498.823808852402,6897.189341112523,1000,4.219,-1.466,-0.044,125.1,red,277,TRUE
98,1661911976.58,2188.2691472110896,6707.719524763211,1000,5.512,-1.42,0.92,109.4,blue,277,TRUE
99,1661911976.674,2462.2640860369333,6845.415179404136,1000,4.219,-1.458,-0.044,125.0,red,277,TRUE
100,1661911977.972,1865.2845805015982,6891.517936243475,1000,5.564,-1.438,1.01,1110.6,blue,277,TRUE
101,1661911977.972,2318.980072088985,6834.31335305425,1000,5.564,-1.438,1.01,1110.6,red,277,TRUE
102,1661911977.972,3872.135107186543,6876.473136541313,1000,5.564,-1.438,1.01,1110.6,red,277,TRUE
103,1661911980.226,1979.8605782547752,6809.85860565497,1000,5.541,-1.426,1.038,109.3,blue,277,TRUE
104,1661911980.32,3887.3593563155496,6856.351590969539,1000,4.327,-1.473,-0.094,125.0,red,277,TRUE
105,1661911981.648,2288.9081366796904,6786.688405496828,1000,5.54,-1.425,1.005,1109.4,blue,277,TRUE
106,1661911983.944,2003.888765266323,7041.811876891494,1000,5.609,-1.442,1.19,1124.7,blue,277,TRUE
107,1661911986.225,2361.2755269897784,6854.155688790459,1000,0.411,-1.479,0.069,109.4,blue,277,TRUE
108,1661911986.319,4006.164022331148,6736.020194588825,1000,1.644,-1.382,-1.944,124.7,red,277,TRUE
109,1661911987.6,2622.65920043688,6678.283131643701,1000,1.186,-1.358,1.125,124.9,blue,277,TRUE
110,1661911987.74,3119.915549806736,5981.0484932607405,1000,1.349,-1.44,-2.307,1109.2,red,277,TRUE
111,1661911989.005,2871.0486409906953,6518.799221794329,1000,1.454,-1.427,0.04,109.5,blue,277,TRUE
112,1661911989.099,3384.5852628742296,5896.334216750736,1000,0.316,-1.488,-3.087,140.5,red,277,TRUE
113,1661911990.411,3029.8540205087966,6377.481797809861,1000,1.438,-1.426,1.112,109.3,blue,277,TRUE
114,1661911990.505,3468.649431996721,5757.0979344740435,1000,0.403,-1.517,-0.041,125.0,red,277,TRUE
115,1661911991.801,3153.324158697533,6346.970878640176,1000,1.393,-1.436,1.177,125.0,blue,277,TRUE
116,1661911991.926,3598.0452511100316,5513.264582979322,1000,0.387,-1.527,-0.039,1140.4,red,277,TRUE
117,1661911993.223,3446.2225590066305,6158.296693337127,1000,1.406,-1.426,1.165,109.4,blue,277,TRUE
118,1661911993.317,3640.653407091376,5555.739375317915,1000,0.326,-1.516,-3.087,124.9,red,277,TRUE
119,1661911994.613,3601.146942726425,6010.163486050432,1000,1.342,-1.429,0.946,125.1,blue,277,TRUE
120,1661911994.754,3587.291618598019,5756.095356564725,1000,0.275,-1.512,-0.044,1140.6,red,277,TRUE
121,1661911996.05,3683.5783309351773,5929.001694385308,1000,1.378,-1.438,1.1,109.6,blue,277,TRUE
122,1661911996.144,3575.3153691310654,5609.115139348941,1000,0.273,-1.517,-0.047,140.7,red,277,TRUE
123,1661911997.519,3578.857182648226,5562.668368297195,1000,0.286,-1.504,-0.048,78.0,red,277,TRUE
124,1661911997.659,3733.3926626228554,6013.327223132826,1000,1.405,-1.428,1.125,125.1,blue,277,TRUE
125,1661911997.769,3637.3063234405968,5554.723697480584,1000,0.288,-1.503,-0.048,125.2,red,277,TRUE
126,1661911999.065,3727.0678904769215,5928.951261900327,1000,1.384,-1.432,1.13,109.3,blue,277,TRUE
127,1661911999.159,3611.273538396841,5555.658044636767,1000,0.297,-1.509,-0.046,125.0,red,277,TRUE
128,1661912000.456,3719.04878161825,5887.962756532176,1000,1.377,-1.436,1.084,125.1,blue,277,TRUE
129,1661912000.565,3601.196064678437,5583.257737759739,1000,0.301,-1.506,-0.043,125.1,red,277,TRUE
130,1661912001.846,3718.8738621803896,5875.307658359422,1000,1.377,-1.44,1.128,109.3,blue,277,TRUE
131,1661912001.94,3599.7644024287592,5602.105087398898,1000,0.3,-1.516,-0.043,125.1,red,277,TRUE
132,1661912003.096,2941.5087793364555,-2394.5263701498643,1000,5.311,-0.384,0.074,1171.6,green,277,TRUE
133,1661912004.283,3699.086427798865,5856.317002726086,1000,1.373,-1.441,1.162,109.4,blue,277,TRUE
134,1661912004.376,3586.545000413395,5618.181732918202,1000,0.207,-1.482,-3.053,125.3,red,277,TRUE
135,1661912006.782,3583.718801785101,5642.221255659155,1000,0.22,-1.496,-0.074,125.0,red,277,TRUE
136,1661912009.125,3561.001922284322,5690.0310102159565,1000,0.171,-1.492,-3.064,141.0,red,277,TRUE
137,1661912011.484,3544.342862508898,5726.115532907104,1000,0.17,-1.494,-0.074,124.9,red,277,TRUE
138,1661912013.875,3566.5363280548286,5794.175046293348,1000,0.096,-1.489,-0.081,140.3,red,277,TRUE
139,1661912015.015,2922.305350884088,-2488.1718509271486,1000,5.346,-0.798,0.109,1171.5,green,277,TRUE
140,1661912016.217,3657.54437724469,5835.433995879826,1000,1.16,-1.433,1.522,109.6,blue,277,TRUE
141,1661912016.311,3559.0355045641227,5785.2426116811375,1000,0.142,-1.486,-0.082,125.2,red,277,TRUE
142,1661912018.656,3602.224175034511,5831.703086364248,1000,0.18,-1.484,-0.08,156.3,red,277,TRUE
143,1661912021.03,3590.4545448783997,5815.097528831636,1000,0.17,-1.478,-0.08,140.6,red,277,TRUE
144,1661912023.42,3595.638088519525,5770.539706010942,1000,0.014,-1.496,-3.073,125.0,red,277,TRUE
145,1661912025.748,3641.348249414781,5774.103080695065,1000,0.012,-1.499,-3.071,140.9,red,277,TRUE
146,1661912028.124,3642.1723658438004,5707.343117835883,1000,0.023,-1.502,-0.068,140.8,red,277,TRUE
147,1661912030.514,3666.3351870431707,5716.544031561502,1000,0.026,-1.503,-0.064,125.2,red,277,TRUE
148,1661912032.888,3646.500146982961,5667.888830272098,1000,0.058,-1.5,-3.071,124.9,red,277,TRUE
149,1661912038.593,3676.7949091165115,5845.780487435351,1000,1.177,-1.455,0.112,1188.8,blue,277,TRUE
150,1661912041.939,3667.682735851415,5850.851411431003,1000,1.154,-1.458,0.111,125.1,blue,277,TRUE
151,1661912044.289,3774.727245867331,5937.623714990924,1000,1.158,-1.456,0.106,1173.2,blue,277,TRUE
152,1661912048.666,3751.4391718977395,5861.66140898876,1000,0.251,-1.489,-0.053,1142.1,red,277,TRUE
153,1661912051.934,3833.020442337194,5969.788238813711,1000,1.2,-1.453,0.105,1173.2,blue,277,TRUE
154,1661912053.217,3812.5499036138185,6022.557595926631,1000,1.201,-1.455,0.104,93.4,blue,277,TRUE
155,1661912053.295,3641.325357247567,5777.426588545327,1000,0.169,-1.484,-0.068,95.3,red,277,TRUE
156,1661912055.563,4059.442270900128,5938.967822956433,1000,1.204,-1.46,0.107,1173.0,blue,277,TRUE
157,1661912058.88,4029.666943605706,5897.148076139706,1000,1.239,-1.452,0.112,125.0,blue,277,TRUE
158,1661912062.538,4060.369150202574,6069.085762603246,1000,1.238,-1.453,0.109,109.3,blue,277,TRUE
159,1661912062.632,3679.567483103349,5606.458127135643,1000,0.224,-1.527,-0.027,110.6,red,277,TRUE
160,1661912062.758,2770.6000130490315,-2578.314012664838,1000,5.138,-0.26,0.113,109.2,green,277,TRUE
161,1661912062.946,3942.2467515597073,6010.644875719594,1000,1.248,-1.452,0.11,109.3,blue,277,TRUE
162,1661912063.039,3663.236954171861,5630.5978318996,1000,0.224,-1.527,-0.026,109.3,red,277,TRUE
163,1661912063.164,2752.807533760616,-2631.8380829372763,1000,5.137,-0.252,0.117,109.3,green,277,TRUE
164,1661912063.352,3865.9915196566526,5969.185413256557,1000,1.253,-1.452,0.111,109.4,blue,277,TRUE
165,1661912063.445,3650.064866423465,5625.91500242626,1000,0.223,-1.528,-0.026,93.7,red,277,TRUE
166,1661912065.7,3944.732605438572,5988.263580171042,1000,1.265,-1.451,0.108,125.0,blue,277,TRUE
167,1661912065.887,3480.8286369871767,5690.280810259798,1000,0.215,-1.515,-0.026,1063.4,red,277,TRUE
168,1661912067.154,3686.6860675487255,5908.553364610373,1000,1.271,-1.453,0.109,1126.3,blue,277,TRUE
169,1661912070.455,3720.3141756914756,5845.286563646983,1000,1.164,-1.477,0.093,124.9,blue,277,TRUE
170,1661912070.642,2684.2992155001916,-2537.7039277771837,1000,0.04,-0.279,0.11,1110.7,red,277,TRUE
171,1661912070.642,2729.9172100885808,-2600.441708739731,1000,0.04,-0.279,0.11,1110.7,green,277,TRUE
172,1661912070.642,2719.1305928892866,-2584.813294061256,1000,0.04,-0.279,0.11,1110.7,green,277,TRUE
173,1661912071.94,3560.854175681014,5198.3407752186795,1000,0.496,-1.515,-3.095,1145.1,blue,277,TRUE
174,1661912071.94,3122.6517523009943,1330.1241063498783,1000,0.496,-1.515,-3.095,1145.1,red,277,TRUE
175,1661912071.94,3268.7787196649974,2619.4531520871205,1000,0.496,-1.515,-3.095,1145.1,red,277,TRUE
176,1661912073.086,2699.7877677661386,-2596.839439594133,1000,5.112,-0.241,0.116,125.3,green,277,TRUE
177,1661912074.275,3654.945678585166,5515.761580743436,1000,1.254,-1.469,0.098,109.4,blue,277,TRUE
178,1661912074.369,3384.3485659229354,3342.69181284329,1000,0.457,-1.517,-3.089,156.3,red,277,TRUE
179,1661912076.653,3598.202341701915,5640.875406765071,1000,1.693,-1.381,1.143,125.0,blue,277,TRUE
180,1661912076.84,3491.6296622060986,4626.443942553399,1000,1.877,-1.558,-3.131,1048.4,red,277,TRUE
181,1661912078.999,3576.616238821652,5072.330059278981,1000,2.663,-1.312,0.897,1173.1,blue,277,TRUE
182,1661912082.315,3651.8827912153124,4575.024040880659,1000,1.983,-1.419,1.293,124.9,blue,277,TRUE
183,1661912082.502,2720.5277369203686,-2622.1023419709004,1000,5.104,-0.24,0.121,109.6,green,277,TRUE
184,1661912087.071,3609.353656912071,2240.780288481053,1000,0.49,-1.479,-3.075,1127.5,red,277,TRUE
185,1661912088.182,2721.0288072389535,-2654.812593885175,1000,5.096,-0.233,0.113,125.0,green,277,TRUE
186,1661912089.42,3743.553634467035,4311.10887525776,1000,2.763,-1.463,0.106,1173.3,blue,277,TRUE
187,1661912092.75,3779.0255826300695,3777.5519757263933,1000,2.917,-1.427,1.281,126.6,blue,277,TRUE
188,1661912092.94,2760.4742718239972,-2685.2024074628775,1000,5.091,-0.243,0.113,125.0,green,277,TRUE
189,1661912097.521,4313.665354157177,2544.432758574401,1000,2.961,-1.422,1.569,109.3,blue,277,TRUE
190,1661912097.615,3808.917332778675,2159.894272635323,1000,0.404,-1.512,-0.048,157.3,red,277,TRUE
191,1661912102.338,4120.604476909299,2310.320196688892,1000,2.962,-1.431,1.49,110.9,blue,277,TRUE
192,1661912102.434,3796.009959165458,2125.7219783950063,1000,0.427,-1.502,-0.053,171.9,red,277,TRUE
193,1661912105.781,3840.811116747158,2272.901368479382,1000,0.396,-1.494,-0.061,1142.1,red,277,TRUE
194,1661912109.098,4147.470461829651,2498.353199469874,1000,2.985,-1.427,1.429,1126.2,blue,277,TRUE
195,1661912112.367,4016.315282808974,2366.4212557881824,1000,2.986,-1.44,1.359,125.0,blue,277,TRUE
196,1661912112.476,3828.2940441558158,2247.194804024234,1000,0.417,-1.509,-0.038,156.6,red,277,TRUE
197,1661912114.792,4056.139276991895,2570.2855098770237,1000,3.002,-1.434,1.379,125.0,blue,277,TRUE
198,1661912114.901,3833.4809601391544,2231.0371913593817,1000,0.403,-1.514,-0.04,172.1,red,277,TRUE
199,1661912119.653,4006.6136473372953,2372.0803017659114,1000,3.023,-1.438,1.449,1157.6,blue,277,TRUE
200,1661912122.956,4012.388224021699,2369.6384824382585,1000,3.014,-1.436,1.472,124.9,blue,277,TRUE
201,1661912123.143,3833.7139915018533,1872.386045828992,1000,0.409,-1.514,-0.041,1064.7,red,277,TRUE
202,1661912125.333,4437.043818618967,2141.7004090485743,1000,3.049,-1.428,1.465,1187.3,blue,277,TRUE
203,1661912128.681,4472.277431369646,2162.27815157543,1000,3.069,-1.431,1.47,109.4,blue,277,TRUE
204,1661912128.775,3816.085416179787,1991.0970919689426,1000,0.387,-1.51,-0.051,156.1,red,277,TRUE
205,1661912131.119,4456.912706797888,2184.2202405413027,1000,3.064,-1.433,1.431,1202.8,blue,277,TRUE
206,1661912134.514,3820.2864786992,1874.5120664345698,1000,0.4,-1.53,-3.102,156.5,red,277,TRUE
207,1661912139.188,3597.077446872232,2294.948738273162,1000,3.12,-1.422,1.414,95.2,blue,277,TRUE
208,1661912139.267,3844.646263577057,1910.4120839409547,1000,0.386,-1.508,-0.052,156.5,red,277,TRUE
209,1661912139.439,2822.437646817592,-2668.41191277954,1000,5.132,-0.523,0.098,109.4,green,277,TRUE
210,1661912140.659,2513.529324305358,4568.74853201236,1000,3.102,-1.419,1.452,1171.5,blue,277,TRUE
211,1661912145.023,3802.3457847314503,1910.1005406385102,1000,0.128,-1.466,-3.038,1142.1,red,277,TRUE
212,1661912148.323,4228.745489289273,2667.28048415573,1000,3.069,-1.431,1.42,1126.3,blue,277,TRUE
213,1661912157.189,2813.0548797754236,-2615.621482299917,1000,5.155,-0.53,0.087,1145.1,green,277,TRUE
214,1661912163.072,4031.557257964446,2038.6507606856135,1000,3.154,-1.414,1.366,125.0,blue,277,TRUE
215,1661912167.733,4063.8152038217427,2312.4158200645043,1000,2.877,-1.43,1.456,126.8,blue,277,TRUE
216,1661912170.096,4150.937130599192,2506.159364706887,1000,3.006,-1.331,0.982,1173.2,blue,277,TRUE
217,1661912171.284,2850.254693473169,-2582.262823066441,1000,5.128,-0.48,0.071,124.9,green,277,TRUE
218,1661912171.566,4093.095675518843,2555.193582562616,1000,3.002,-1.336,0.981,125.0,blue,277,TRUE
219,1661912175.413,4179.109709657328,2583.472900290501,1000,3.376,-1.368,0.815,1096.8,blue,277,TRUE
220,1661912176.51,2844.1918365605998,-2520.426318170822,1000,5.139,-0.504,0.06,124.9,green,277,TRUE
221,1661912177.699,4108.882175557801,2444.4516907265984,1000,3.944,-1.251,1.281,109.4,blue,277,TRUE
222,1661912177.792,3761.819402445462,2008.0671129449654,1000,5.335,-1.452,-3.042,157.9,red,277,TRUE
223,1661912177.95,2870.68090151871,-2470.9079603630344,1000,5.084,-0.467,0.073,109.4,green,277,TRUE
224,1661912180.359,2833.7637741067606,-2389.361389169324,1000,5.119,-0.413,0.06,125.0,green,277,TRUE
225,1661912183.986,677.7028322309354,2871.1366995414614,1000,5.471,-1.39,0.037,1157.5,blue,277,TRUE
226,1661912185.144,2770.917193706076,-2377.509307269497,1000,5.116,-0.421,0.062,140.6,green,277,TRUE
227,1661912186.364,692.1756447708576,2988.403527824459,1000,6.091,-1.429,1.345,93.8,blue,277,TRUE
228,1661912186.442,3209.169081157093,2299.0941643971896,1000,2.907,-1.508,-3.083,156.2,red,277,TRUE
229,1661912186.598,2800.0019969790087,-2404.3452679559537,1000,5.116,-0.413,0.062,109.4,green,277,TRUE
230,1661912190.227,383.7939086363269,2550.977777593609,1000,6.234,-1.379,1.246,1173.1,blue,277,TRUE
231,1661912193.57,609.9284122529075,2645.3347653341857,1000,0.262,-1.325,1.337,125.0,blue,277,TRUE
232,1661912202.545,747.311133924661,2782.605205870248,1000,0.147,-1.44,1.168,109.2,blue,277,TRUE
233,1661912202.639,439.68308788467095,3767.5616572032677,1000,2.272,-1.509,-3.11,156.5,red,277,TRUE
234,1661912204.939,790.6221139604237,2639.242599988933,1000,6.271,-1.46,0.094,125.0,blue,277,TRUE
235,1661912205.126,680.0476440230605,4282.756845254876,1000,1.982,-1.032,-2.584,62.5,red,277,TRUE
236,1661912207.457,3832.073185501723,-2587.352893965118,1000,5.632,-0.466,-0.328,140.6,yellow,277,TRUE
237,1661912209.709,1307.114224706393,3035.0524333417025,1000,0.454,-1.354,1.197,125.0,blue,277,TRUE
238,1661912209.834,1165.3974490364062,3465.552724256506,1000,2.382,-1.359,-2.868,1094.8,red,277,TRUE
239,1661912213.073,1630.730854541243,2939.801870085434,1000,0.328,-1.374,1.922,1110.2,blue,277,TRUE
240,1661912215.183,2793.454762540941,-2421.2058444041786,1000,5.172,-0.774,0.141,1142.0,green,277,TRUE
241,1661912217.34,1388.6548601237992,2908.023856222474,1000,6.205,-1.352,-3.031,1159.1,blue,277,TRUE
242,1661912219.519,2763.4433943727804,-2401.7526953851057,1000,5.15,-0.521,0.064,1143.8,green,277,TRUE
243,1661912220.663,1203.3280990946848,2969.7313774894797,1000,0.077,-1.429,1.383,109.3,blue,277,TRUE
244,1661912220.757,1254.2852706244662,3482.67924863956,1000,2.538,-1.317,-2.665,124.9,red,277,TRUE
245,1661912221.883,2783.615038584605,-2441.63345396654,1000,5.157,-0.523,0.026,1127.6,green,277,TRUE
246,1661912223.089,1197.681195637693,2979.7581429088777,1000,0.139,-1.358,1.413,125.3,blue,277,TRUE
247,1661912223.198,1265.3505184481917,3508.718372190224,1000,2.483,-1.376,-2.687,125.3,red,277,TRUE
248,1661912226.574,515.8108872015025,3376.377138309767,1000,2.378,-1.398,-2.751,1156.0,red,277,TRUE
249,1661912229.873,1150.0574739645135,3056.6946158235223,1000,0.256,-1.394,1.446,1095.0,blue,277,TRUE
250,1661912234.252,594.3211224739051,3310.7125363582613,1000,2.335,-1.257,-2.454,1141.8,red,277,TRUE
251,1661912235.425,5972.48762986174,5189.023376327572,1000,3.551,-0.686,0.13,1079.3,green,277,TRUE
252,1661912239.864,2699.888532606946,3444.4342483008068,1000,0.07,-1.462,0.088,124.9,blue,277,TRUE
253,1661912240.005,2950.103784001863,3960.8315528267285,1000,1.777,-1.421,-2.236,1081.3,red,277,TRUE
254,1661912243.245,5049.660288400211,3189.9483612794797,1000,1.935,-1.36,0.47,1095.1,blue,277,TRUE
255,1661912245.355,4374.319563994585,1330.1102991859536,1000,5.156,-0.245,0.082,1171.6,green,277,TRUE
256,1661912247.528,3559.579280183642,5644.86430901799,1000,2.875,-1.414,1.645,1127.9,blue,277,TRUE
257,1661912251.954,2701.460901070315,3975.951728155733,1000,1.401,-1.349,-2.617,1143.6,red,277,TRUE
258,1661912253.097,2715.4719500142446,-2640.4248489551833,1000,5.163,-0.238,0.087,1126.3,green,277,TRUE
259,1661912255.225,4313.907214859541,4436.028452577229,1000,3.156,-1.337,1.681,1171.6,blue,277,TRUE
260,1661912259.636,1734.9952139886536,3544.9683864119293,1000,3.704,-1.444,-2.078,1143.1,red,277,TRUE
261,1661912262.999,803.6556138090655,3805.7365692045278,1000,4.808,-1.478,-3.077,1079.4,blue,277,TRUE
262,1661912262.999,728.9777621989788,3757.7065315855843,1000,4.808,-1.478,-3.077,1157.5,red,277,TRUE
263,1661912266.283,775.7602372627769,3318.448249246426,1000,4.487,-1.405,-2.446,1141.8,red,277,TRUE
264,1661912267.424,2607.314076241849,-2552.453076749312,1000,5.162,-0.243,0.083,1110.8,green,277,TRUE
265,1661912268.598,3259.2881833327615,2965.016764228214,1000,3.114,-1.334,1.478,126.1,blue,277,TRUE
266,1661912268.708,936.0187554686016,3037.847174278044,1000,5.283,-1.388,-2.825,125.3,red,277,TRUE
267,1661912269.848,4924.357377944154,-729.268028330402,1000,5.162,-0.244,0.083,1141.5,green,277,TRUE
268,1661912272.086,950.0069494821983,3013.3508592158796,1000,4.902,-1.389,-2.674,1141.8,red,277,TRUE
269,1661912275.369,5794.838044363382,1963.2963013620652,1000,3.157,-1.294,1.763,1095.1,blue,277,TRUE
270,1661912277.467,4276.529392061381,-1426.581217588011,1000,5.21,-0.508,0.075,1112.4,green,277,TRUE
271,1661912278.689,465.2015411120554,3218.1608099162536,1000,5.004,-1.422,-2.577,1126.3,blue,277,TRUE
272,1661912278.689,854.3313320258246,3051.470853748305,1000,5.004,-1.422,-2.577,1126.3,red,277,TRUE
273,1661912278.689,790.5244380266498,3077.148000148309,1000,5.004,-1.422,-2.577,1126.3,red,277,TRUE
274,1661912283.082,698.709988046562,2934.624334353984,1000,4.857,-1.38,-2.554,125.0,red,277,TRUE
275,1661912284.222,4648.721322345146,-1383.1075025733326,1000,5.203,-0.475,0.083,1140.5,green,277,TRUE
276,1661912285.487,371.1290670058647,2979.154361776802,1000,5.389,-1.464,3.113,1125.0,blue,277,TRUE
277,1661912285.487,623.4279705037094,2951.240484918047,1000,5.389,-1.464,3.113,1125.0,red,277,TRUE
278,1661912285.487,475.8741692204801,3034.9426022577095,1000,5.389,-1.464,3.113,1125.0,red,277,TRUE
279,1661912289.894,360.86110413480736,3045.0628401554363,1000,4.951,-1.39,-2.658,1156.3,red,277,TRUE
280,1661912293.221,3087.0849076917384,2513.861115198274,1000,2.961,-1.294,1.449,109.5,blue,277,TRUE
281,1661912293.315,458.1490031359172,2997.749170499849,1000,5.366,-1.412,-3.102,124.9,red,277,TRUE
282,1661912296.736,541.6786324929678,2957.608841314661,1000,4.902,-1.43,-1.706,126.4,red,277,TRUE
283,1661912300.19,1048.2470938688953,3070.757627303022,1000,4.947,-1.439,-1.755,1108.8,red,277,TRUE
284,1661912303.455,3588.639013781387,2849.027062888097,1000,4.643,-1.41,0.858,124.8,blue,277,TRUE
285,1661912303.579,791.1712994843896,3218.5581005597887,1000,5.193,-1.454,-3.061,1109.1,red,277,TRUE
286,1661912306.829,3885.0767273439587,2929.7986243289697,1000,1.046,-1.528,-3.136,140.6,blue,277,TRUE
287,1661912306.954,684.5386518790885,3268.0579438248524,1000,4.865,-1.397,-2.267,140.7,red,277,TRUE
288,1661912310.344,845.4776042032412,3214.5761366860734,1000,5.617,-1.356,-2.969,124.9,red,277,TRUE
289,1661912313.757,1287.687140930244,3388.376942574818,1000,4.752,-1.44,2.809,1156.2,red,277,TRUE
290,1661912317.038,4235.066575970848,3103.359630221335,1000,0.538,-1.438,1.172,124.9,blue,277,TRUE
291,1661912317.163,2322.7517935181713,4317.354554155163,1000,1.655,-1.545,-3.123,1124.8,red,277,TRUE
292,1661912320.443,4463.301218796404,3273.9214172791067,1000,0.548,-1.424,1.453,109.4,blue,277,TRUE
293,1661912320.537,2445.74134669887,3556.4628111400143,1000,4.015,-1.407,2.841,124.9,red,277,TRUE
294,1661912327.348,2465.8077871943897,3361.0521612266457,1000,4.064,-1.5,3.097,140.9,red,277,TRUE
295,1661912330.769,1984.532443248462,2534.1990437096356,1000,3.932,-1.397,2.797,1156.0,red,277,TRUE
296,1661912334.081,5335.935347148917,3123.790778389754,1000,3.276,-1.234,1.559,125.0,blue,277,TRUE
297,1661912334.206,2553.738569946174,2747.539367185346,1000,3.639,-1.469,-3.081,1108.8,red,277,TRUE
298,1661912335.284,4337.475536308519,-1651.8591222799544,1000,5.249,-0.478,0.075,140.6,green,277,TRUE
299,1661912336.488,5293.074388902932,3171.1556351841377,1000,3.21,-1.237,1.466,109.3,blue,277,TRUE
300,1661912336.582,2483.794553192448,2697.7832756299176,1000,3.747,-1.553,-0.013,125.1,red,277,TRUE
301,1661912337.708,4103.797722521596,-1820.3060878745866,1000,5.228,-0.472,0.074,1126.3,green,277,TRUE
302,1661912338.912,5476.065263602127,2922.2944182301103,1000,3.188,-1.239,1.422,124.9,blue,277,TRUE
303,1661912339.037,2629.107895414239,3017.9483547953782,1000,3.756,-1.5,-3.073,1095.0,red,277,TRUE
304,1661912340.117,4124.596141392136,-1824.502129252637,1000,5.235,-0.461,0.073,94.9,green,277,TRUE
305,1661912340.399,5646.9902979977405,2717.820180193418,1000,3.144,-1.233,1.376,109.7,blue,277,TRUE
306,1661912340.493,2694.245809159661,2954.3033638170036,1000,3.623,-1.45,-1.896,125.0,red,277,TRUE
307,1661912341.634,3405.853367086498,-2431.060826338345,1000,5.226,-0.445,0.061,1141.9,green,277,TRUE
308,1661912342.869,5585.10475919275,2442.2502946390728,1000,3.269,-1.463,0.071,125.3,blue,277,TRUE
309,1661912342.994,2473.2818054885884,2785.015452008269,1000,4.102,-1.418,-2.97,1095.7,red,277,TRUE
310,1661912344.059,3417.903965211071,-2431.239758207084,1000,5.232,-0.461,0.076,93.8,green,277,TRUE
311,1661912345.326,2617.012066528316,2864.3014920429223,1000,3.255,-1.409,-1.748,125.0,red,277,TRUE
312,1661912348.719,2799.998196598266,3017.5487498082935,1000,3.222,-1.462,-0.093,1125.9,red,277,TRUE
313,1661912349.829,2901.383673912636,-2634.1901111788716,1000,5.237,-0.487,0.082,125.2,green,277,TRUE
314,1661912350.142,5212.2961598915845,2531.2903639217534,1000,1.893,-1.43,0.845,125.0,blue,277,TRUE
315,1661912350.267,2736.7315790088605,2789.361800055645,1000,3.184,-1.453,-0.113,1095.9,red,277,TRUE
316,1661912353.49,5223.562170320651,2556.0462351176648,1000,2.43,-1.328,2.239,109.2,blue,277,TRUE
317,1661912353.583,2740.8537715113425,2908.835929234643,1000,3.425,-1.473,-3.055,126.3,red,277,TRUE
318,1661912354.713,2869.2881164797805,-2643.7597539038743,1000,5.239,-0.528,0.081,1125.8,green,277,TRUE
319,1661912355.917,5229.8628068759135,2526.4231863424247,1000,2.319,-1.29,2.004,109.1,blue,277,TRUE
320,1661912356.01,2590.582257905718,2828.8987773017616,1000,3.662,-1.545,-3.129,125.0,red,277,TRUE
321,1661912357.137,2845.8295802638963,-2634.5343493769965,1000,5.237,-0.472,0.072,1111.6,green,277,TRUE
322,1661912359.344,2580.8832750716033,2743.81919767332,1000,3.069,-1.512,-3.084,1126.7,red,277,TRUE
323,1661912360.455,2918.529962969604,-2644.644263365318,1000,5.249,-0.476,0.076,109.3,green,277,TRUE
324,1661912360.737,5224.046273956483,2524.6814610442093,1000,2.726,-1.342,1.598,109.4,blue,277,TRUE
325,1661912360.83,2596.7159127377545,2711.043521937773,1000,3.119,-1.513,-0.041,126.2,red,277,TRUE
326,1661912363.181,2374.305248659082,2689.3752833877406,1000,3.139,-1.51,-0.037,1112.7,blue,277,TRUE
327,1661912363.181,2559.71221678856,2707.438533048482,1000,3.139,-1.51,-0.037,1112.7,red,277,TRUE
328,1661912363.181,2499.5018291994115,2690.8541247868347,1000,3.139,-1.51,-0.037,1112.7,red,277,TRUE
329,1661912365.309,3178.949448044751,-2527.020782474422,1000,5.249,-0.488,0.077,1126.4,green,277,TRUE
330,1661912366.513,4050.2690761542617,2479.9377470024606,1000,2.738,-1.317,1.828,125.3,blue,277,TRUE
331,1661912366.638,2674.4802807537358,2760.2453145521645,1000,3.298,-1.444,-0.902,1079.2,red,277,TRUE
332,1661912367.702,3059.7136195341927,-2631.7851282048177,1000,5.241,-0.512,0.083,109.4,green,277,TRUE
333,1661912368.985,2596.9929770010717,2569.1904476124546,1000,3.169,-1.444,-2.654,124.9,red,277,TRUE
334,1661912373.504,2961.0009363374616,-2540.34851569283,1000,5.239,-0.487,0.086,1156.1,green,277,TRUE
335,1661912375.755,2581.9591959760533,2622.6640686678843,1000,3.196,-1.521,-0.014,1079.3,red,277,TRUE
336,1661912376.819,3004.468699725344,-2573.5255395491286,1000,5.247,-0.485,0.062,109.4,green,277,TRUE
337,1661912377.037,4891.8636223532385,2227.5126108740624,1000,3.036,-1.284,1.227,93.7,blue,277,TRUE
338,1661912377.116,2565.0208498019533,2534.1908512966684,1000,3.353,-1.489,-3.101,140.5,red,277,TRUE
339,1661912378.259,3033.257561242543,-2582.8519903262045,1000,5.237,-0.467,0.072,1110.7,green,277,TRUE
340,1661912379.479,5760.9054962539685,2077.7725348659333,1000,3.038,-1.289,1.223,1110.5,blue,277,TRUE
341,1661912383.857,2586.0575604871988,3067.9803492137676,1000,4.114,-1.508,3.112,1141.9,red,277,TRUE
342,1661912387.125,5712.829733983339,2036.3244875047217,1000,2.781,-1.293,1.54,109.2,blue,277,TRUE
343,1661912387.219,2149.9294946424866,3206.786927982538,1000,3.24,-1.357,-3.132,126.6,red,277,TRUE
344,1661912390.601,1927.6306918387568,3267.956197356886,1000,1.793,-1.476,-3.108,1157.4,red,277,TRUE
345,1661912391.727,2978.5045925438512,-2551.308664842539,1000,5.24,-0.468,0.049,109.1,green,277,TRUE
346,1661912392.01,5693.016736895671,2115.622710364409,1000,2.854,-1.317,1.574,109.3,blue,277,TRUE
347,1661912392.103,2004.6570995025697,3341.75484384051,1000,0.982,-1.138,-2.337,125.0,red,277,TRUE
348,1661912395.482,1900.3980354066916,4028.735237326022,1000,4.622,-1.489,-3.101,1155.9,red,277,TRUE
349,1661912398.783,5757.378126255709,2027.9853444108876,1000,2.911,-1.259,1.6,1095.0,blue,277,TRUE
350,1661912403.163,1591.8182354138553,4857.787230131045,1000,2.746,-1.497,-0.055,1143.3,red,277,TRUE
351,1661912409.813,5761.739326139518,2016.9796335847955,1000,2.834,-1.345,1.143,1142.0,blue,277,TRUE
352,1661912414.238,1674.5864415619865,5329.587768565026,1000,2.422,-1.444,2.842,1173.2,red,277,TRUE
353,1661912416.664,1761.9412013240092,5655.856060991217,1000,3.65,-1.545,3.12,1188.7,red,277,TRUE
354,1661912418.949,5274.854914244077,2405.1740672894175,1000,0.817,-1.54,3.141,109.3,blue,277,TRUE
355,1661912419.043,1841.1846251658346,6032.031205345854,1000,4.358,-1.451,3.126,124.9,red,277,TRUE
356,1661912420.357,5329.971017946361,2539.0477261905703,1000,2.066,-1.403,1.165,125.3,blue,277,TRUE
357,1661912420.451,1366.003413201891,6373.501268997664,1000,4.549,-1.494,3.078,140.6,red,277,TRUE
358,1661912421.811,1045.0600924536905,6311.358208075169,1000,4.722,-1.525,0.02,125.0,red,277,TRUE
359,1661912424.16,885.8026924437022,6130.519842339326,1000,4.52,-1.473,-3.049,1171.7,red,277,TRUE
360,1661912430.914,464.10935061290576,6193.335783696081,1000,5.385,-1.448,1.262,1156.0,red,277,TRUE
361,1661912432.054,2902.394547623928,-2583.219495197741,1000,5.204,-0.117,0.108,109.5,green,277,TRUE
362,1661912434.322,277.9238194342515,6487.277698434355,1000,5.054,-1.51,3.081,1157.2,red,277,TRUE
363,1661912435.48,2890.8476835992415,-2684.7980697188823,1000,5.204,-0.189,0.069,1126.5,green,277,TRUE
364,1661912437.67,228.12434999680525,6725.051673658271,1000,5.443,-1.398,2.502,157.9,red,277,TRUE
365,1661912437.859,3150.0336467354177,-2721.582845686897,1000,5.243,-0.597,0.035,1110.6,green,277,TRUE
366,1661912441.394,7638.862415205088,1306.1586893802175,1000,0.296,-1.426,0.862,94.0,blue,277,TRUE
367,1661912441.472,504.75876159338424,7056.101045583204,1000,2.736,-1.304,-2.459,93.7,red,277,TRUE
368,1661912441.566,2847.138588010649,-2533.2012102818035,1000,5.246,-0.456,0.062,109.4,green,277,TRUE
369,1661912441.847,7695.867028692557,1231.9271058614413,1000,0.305,-1.426,0.873,93.8,blue,277,TRUE
370,1661912441.925,688.420146962248,7293.180319693925,1000,2.801,-1.317,-2.429,93.7,red,277,TRUE
371,1661912442.019,2818.452200596725,-2481.8257211742234,1000,5.243,-0.463,0.056,125.0,green,277,TRUE
372,1661912443.348,898.10309064499,7475.60964520697,1000,2.328,-1.441,-2.235,1156.0,red,277,TRUE
373,1661912444.489,2803.4760853520893,-2494.553834294734,1000,5.234,-0.507,0.056,126.5,green,277,TRUE
374,1661912445.74,5581.452215386725,1472.6786029964899,1000,5.039,-1.539,0.012,1126.6,blue,277,TRUE
375,1661912446.866,2786.7129571077216,-2486.063188126085,1000,5.232,-0.501,0.071,109.3,green,277,TRUE
376,1661912450.512,953.0226150773692,7626.319676401118,1000,2.594,-1.475,-0.091,156.3,red,277,TRUE
377,1661912450.668,2805.6699506710643,-2497.1770473082856,1000,5.234,-0.496,0.057,109.0,green,277,TRUE
378,1661912450.966,6318.7611505981695,1501.1482995470624,1000,6.032,-1.516,-0.023,109.4,blue,277,TRUE
379,1661912451.06,1082.162858046074,7771.1874104595845,1000,2.608,-1.525,-0.033,94.1,red,277,TRUE
380,1661912451.169,2760.4978248322445,-2475.647029300079,1000,5.233,-0.493,0.061,109.6,green,277,TRUE
381,1661912451.436,6562.042482470216,1548.1039065663601,1000,6.092,-1.541,0.022,109.4,blue,277,TRUE
382,1661912451.53,1039.3243553724271,7966.978674126792,1000,2.555,-1.527,-0.029,93.8,red,277,TRUE
383,1661912451.624,2799.717059923329,-2518.822459313897,1000,5.235,-0.485,0.067,109.3,green,277,TRUE
384,1661912451.905,6572.344463750711,1511.9870921524766,1000,0.034,-1.476,0.093,109.4,blue,277,TRUE
385,1661912451.999,1005.6094084872835,8048.315991004124,1000,2.665,-1.523,-0.01,155.8,red,277,TRUE
386,1661912454.311,6288.750993215288,1560.0910168488585,1000,4.372,-1.408,1.314,1173.0,blue,277,TRUE
387,1661912455.517,3680.1547414973656,5985.733283195234,1000,0.026,-1.396,1.769,1110.6,green,277,TRUE
388,1661912460.34,3003.224581142576,-428.88431473123,1000,2.213,-1.401,0.834,125.0,blue,277,TRUE
389,1661912460.449,987.7057967121403,8106.538357781807,1000,2.457,-1.516,-0.001,93.7,red,277,TRUE
390,1661912460.808,3040.0410636599286,-499.6061019464738,1000,2.205,-1.396,0.786,110.9,blue,277,TRUE
391,1661912460.903,993.873517387981,8233.866929497703,1000,2.458,-1.515,-0.001,93.8,red,277,TRUE
392,1661912460.997,2856.266699549103,-2420.5175473169957,1000,5.228,-0.506,0.035,125.2,green,277,TRUE
393,1661912462.185,3050.389434973046,-543.3268084828711,1000,2.233,-1.398,0.84,109.3,blue,277,TRUE
394,1661912462.279,1001.2379431242676,8211.610348645054,1000,2.421,-1.515,0.017,156.2,red,277,TRUE
395,1661912462.435,2875.017041790812,-2409.3548507448636,1000,5.227,-0.504,0.034,109.3,green,277,TRUE
396,1661912462.717,3066.16789011532,-571.7585444178211,1000,2.23,-1.397,0.837,109.3,blue,277,TRUE
397,1661912462.81,1004.8609199779586,8194.676608192092,1000,2.413,-1.487,0.015,93.9,red,277,TRUE
398,1661912462.92,2946.5983242207535,-2463.115912965517,1000,5.228,-0.52,0.033,93.6,green,277,TRUE
399,1661912464.128,3016.9175294912993,-597.8174533083388,1000,2.231,-1.395,0.826,1173.1,blue,277,TRUE
400,1661912465.332,2909.7419399700316,-2467.1007526654876,1000,5.226,-0.511,0.034,1096.7,green,277,TRUE
401,1661912466.506,3007.8512124751833,-567.4150778225488,1000,2.226,-1.385,0.803,109.0,blue,277,TRUE
402,1661912466.6,1000.2058677133158,8061.750834918574,1000,2.861,-1.521,-3.135,156.6,red,277,TRUE
403,1661912466.756,2999.114108893581,-2522.181152980027,1000,5.225,-0.528,0.035,109.3,green,277,TRUE
404,1661912467.976,2996.001901805812,-533.4585435790408,1000,1.422,-1.478,0.062,1174.5,blue,277,TRUE
405,1661912469.401,2983.8653098295144,-538.849418330242,1000,2.152,-1.417,0.76,109.4,blue,277,TRUE
406,1661912469.494,990.3416931761677,7978.947869282464,1000,2.861,-1.563,-0.003,93.7,red,277,TRUE
407,1661912469.588,3002.596803738424,-2395.407839184055,1000,5.227,-0.523,0.033,109.4,green,277,TRUE
408,1661912469.885,2994.4506969170266,-572.4877124250514,1000,2.142,-1.42,0.753,109.4,blue,277,TRUE
409,1661912469.978,990.438307723041,7917.512224182846,1000,2.884,-1.561,-0.001,94.0,red,277,TRUE
410,1661912470.072,2919.5138721480675,-2428.6064386456746,1000,5.228,-0.507,0.036,109.3,green,277,TRUE
411,1661912472.73,2985.1094587008265,-560.2716501542005,1000,2.143,-1.434,0.822,109.2,blue,277,TRUE
412,1661912472.823,953.8297865890275,7822.728164682853,1000,2.784,-1.489,-0.043,93.9,red,277,TRUE
413,1661912472.933,2906.508493621493,-2441.9046460322684,1000,5.228,-0.525,0.027,109.4,green,277,TRUE
414,1661912473.214,3049.9642170058046,-588.7691374064883,1000,2.055,-1.464,0.093,110.8,blue,277,TRUE
415,1661912473.309,930.5248998492865,7852.830671033691,1000,2.752,-1.489,0.032,109.3,red,277,TRUE
416,1661912473.434,2887.003069892282,-2455.643126683653,1000,5.234,-0.524,0.038,109.5,green,277,TRUE
417,1661912473.715,3049.1236112215433,-623.7435351703376,1000,1.95,-1.476,0.084,109.3,blue,277,TRUE
418,1661912473.809,870.759235277017,7888.015211293842,1000,2.596,-1.468,0.005,156.2,red,277,TRUE
419,1661912473.981,2846.4710607717357,-2474.011002896096,1000,5.238,-0.511,0.027,109.4,green,277,TRUE
420,1661912475.279,897.6299400496533,8001.503855779082,1000,2.618,-1.524,-3.102,1126.5,red,277,TRUE
421,1661912476.389,2833.4054692310033,-2477.294505975847,1000,5.228,-0.512,0.033,125.0,green,277,TRUE
422,1661912477.594,3200.6758206214067,-263.02714384888986,1000,0.096,-1.545,3.121,109.3,blue,277,TRUE
423,1661912477.687,923.0604122121878,7995.501006401258,1000,2.418,-1.535,-3.106,156.6,red,277,TRUE
424,1661912477.844,2833.77741903963,-2499.3357730770254,1000,5.227,-0.525,0.057,109.4,green,277,TRUE
425,1661912479.064,3287.976633355361,250.43761331864917,1000,5.88,-1.544,0.008,1188.6,blue,277,TRUE
426,1661912482.425,3415.25324378842,880.6680512335857,1000,6.25,-1.493,0.058,125.0,blue,277,TRUE
427,1661912482.629,2841.3336044873454,-2520.9598139819154,1000,5.253,-0.496,-0.005,110.8,green,277,TRUE
428,1661912483.852,2832.756750394696,768.8856387713677,1000,6.02,-1.513,0.016,1157.5,blue,277,TRUE
429,1661912487.152,2898.0257541389838,1547.0301242223888,1000,0.005,-1.46,0.096,125.0,blue,277,TRUE
430,1661912487.34,6946.862620975376,219.44346619933057,1000,5.227,-0.459,0.014,1110.6,red,277,TRUE
431,1661912487.34,3519.016895837301,-2073.075768442098,1000,5.227,-0.459,0.014,1110.6,green,277,TRUE
432,1661912487.34,4205.373272335702,-1620.464121601862,1000,5.227,-0.459,0.014,1110.6,green,277,TRUE
433,1661912489.561,3013.1350648752964,2292.3429095478036,1000,6.247,-1.47,0.089,1187.2,blue,277,TRUE
434,1661912490.748,4230.374578170883,-1604.4569283141047,1000,5.239,-0.489,0.015,124.9,green,277,TRUE
435,1661912491.999,4141.475263632248,2643.706717385802,1000,6.254,-1.464,0.1,1171.6,blue,277,TRUE
436,1661912493.171,4227.909143933358,-1595.2243310385777,1000,5.24,-0.503,0.016,110.8,green,277,TRUE
437,1661912496.753,4087.6532888481483,2835.5657196683896,1000,0.391,-1.358,1.408,1172.9,blue,277,TRUE
438,1661912497.957,4634.916251413714,4847.541091430635,1000,0.012,-1.396,1.091,1127.8,green,277,TRUE
439,1661912500.1,4037.8470150751086,2822.145992382619,1000,0.133,-1.48,0.047,1189.0,blue,277,TRUE
440,1661912501.304,3697.069939278707,1215.8123526669306,1000,5.24,-0.496,0.028,109.6,green,277,TRUE
441,1661912502.524,4651.1994985501415,3367.941399786901,1000,6.058,-1.41,1.355,1173.5,blue,277,TRUE
442,1661912505.887,3636.7251134910503,1630.8266059839082,1000,6.241,-1.422,0.872,1127.8,blue,277,TRUE
443,1661912509.16,4244.904914198566,1174.406906076634,1000,1.062,-1.379,1.1,110.9,blue,277,TRUE
444,1661912509.255,4810.285700958785,3830.3812891629777,1000,1.766,-1.31,2.52,156.5,red,277,TRUE
445,1661912509.411,3414.611903846837,-61.94974920647807,1000,5.247,-0.244,0.077,126.5,green,277,TRUE
446,1661912510.758,4169.008433135743,4268.598024039125,1000,2.091,-1.4,2.956,1157.5,red,277,TRUE
447,1661912514.061,3414.8637016062153,2290.254397849336,1000,6.1,-1.479,0.068,1187.2,blue,277,TRUE
448,1661912517.394,4210.486885287129,1990.2186922869216,1000,6.002,-1.537,-0.029,125.0,blue,277,TRUE
449,1661912519.724,4475.217252470315,1844.988363510208,1000,6.036,-1.48,-0.004,1174.8,blue,277,TRUE
450,1661912523.071,4911.41578539561,1801.7028040458474,1000,0.157,-1.52,0.044,1174.8,blue,277,TRUE
451,1661912527.482,2498.565130741966,-377.8528389731191,1000,3.06,-1.477,3.048,1157.5,red,277,TRUE
452,1661912533.126,5533.19446738464,1798.7986262620543,1000,0.19,-1.47,0.013,109.1,blue,277,TRUE
453,1661912533.22,2752.110214163108,-339.01069569694397,1000,2.103,-1.536,3.108,157.5,red,277,TRUE
454,1661912533.377,3329.7337195038826,-709.4001183799896,1000,5.288,-0.484,0.038,109.3,green,277,TRUE
455,1661912533.674,5931.628784035974,1927.8661369612266,1000,0.125,-1.476,-0.019,125.0,blue,277,TRUE
456,1661912533.784,2832.909973548148,-321.84544929140066,1000,2.104,-1.535,3.108,93.7,red,277,TRUE
457,1661912533.877,3188.9547339725164,-1085.0049221742652,1000,5.292,-0.496,0.036,109.4,green,277,TRUE
458,1661912534.174,6856.6569284108655,1427.6196543204042,1000,0.095,-1.47,0.002,125.1,blue,277,TRUE
459,1661912534.283,2864.4465658269964,-333.13431387489334,1000,2.099,-1.537,3.108,94.1,red,277,TRUE
460,1661912534.377,3130.0358315350736,-1308.761346173733,1000,5.282,-0.56,0.02,109.3,green,277,TRUE
461,1661912534.707,6940.364579673995,1463.3254251506362,1000,5.953,-1.526,0.035,109.4,blue,277,TRUE
462,1661912534.801,2894.2881584756933,-336.3969641606964,1000,2.043,-1.54,3.118,156.2,red,277,TRUE
463,1661912534.957,2824.639330642783,-2536.5961138616854,1000,5.249,-0.547,0.022,109.3,green,277,TRUE
464,1661912538.585,2899.519043067487,-346.87817666719144,1000,1.972,-1.533,-3.122,157.8,red,277,TRUE
465,1661912538.743,2805.1411242897198,-2561.9779096213265,1000,5.282,-0.508,0.027,109.3,green,277,TRUE
466,1661912539.024,6993.602271586293,1544.5775538509033,1000,6.212,-1.371,1.574,109.3,blue,277,TRUE
467,1661912539.118,2994.243224763193,-378.372454033511,1000,2.077,-1.536,3.141,93.8,red,277,TRUE
468,1661912539.227,2764.8398124536166,-2555.55530119145,1000,5.282,-0.507,0.029,109.5,green,277,TRUE
469,1661912539.508,6787.048682160409,1538.9812289832753,1000,5.946,-1.42,1.785,109.4,blue,277,TRUE
470,1661912539.602,2987.682467311553,-416.80411870150806,1000,2.225,-1.529,3.119,93.8,red,277,TRUE
471,1661912539.696,2699.0606749793587,-2543.2015071929563,1000,5.28,-0.502,0.031,125.0,green,277,TRUE
472,1661912539.978,6543.684330221261,1560.6023199592921,1000,5.635,-1.449,2.026,124.9,blue,277,TRUE
473,1661912540.166,2990.35449338982,-547.8388837127059,1000,2.368,-1.49,3.075,1062.2,red,277,TRUE
474,1661912541.417,-1471.2984563970774,2952.943017393321,1000,0.028,-1.117,-0.181,1124.8,blue,277,TRUE
475,1661912541.417,759.6164181741183,1202.8933499202494,1000,0.028,-1.117,-0.181,1124.8,red,277,TRUE
476,1661912541.417,15.778780982830009,1786.7904686681347,1000,0.028,-1.117,-0.181,1124.8,red,277,TRUE
477,1661912542.542,2739.1098733317817,-2561.79358498412,1000,5.277,-0.492,0.039,109.4,green,277,TRUE
478,1661912542.825,2242.7184696437066,2374.0645393847526,1000,0.389,-1.285,1.192,109.2,blue,277,TRUE
479,1661912542.918,773.6392274744769,1275.2054685210144,1000,2.322,-1.412,0.521,93.8,red,277,TRUE
480,1661912543.012,2751.2060485871966,-2566.9597715718596,1000,5.277,-0.482,0.041,109.3,green,277,TRUE
481,1661912544.232,3741.450204212781,1874.4537350899536,1000,5.859,-1.489,-0.051,1171.6,blue,277,TRUE
482,1661912545.468,5617.070850455226,4748.77575139045,1000,4.346,-0.915,-0.008,1093.5,green,277,TRUE
483,1661912548.845,4469.1737549947575,1750.2018052141532,1000,5.835,-1.499,-0.049,109.4,blue,277,TRUE
484,1661912548.938,1229.69641802679,920.7160571168506,1000,2.236,-1.482,0.063,156.2,red,277,TRUE
485,1661912549.095,4350.7879767736995,1064.4108487114759,1000,5.286,-0.496,0.041,109.4,green,277,TRUE
486,1661912549.391,4987.824436173567,1726.3686571745316,1000,5.835,-1.492,-0.049,126.2,blue,277,TRUE
487,1661912549.518,3077.415537730408,-167.39551115430308,1000,2.202,-1.486,0.06,1093.8,red,277,TRUE
488,1661912550.783,5332.499451859999,1725.8991871768333,1000,5.83,-1.489,-0.043,110.8,blue,277,TRUE
489,1661912550.878,3111.259730472746,-346.2935544436663,1000,2.17,-1.482,0.059,156.6,red,277,TRUE
490,1661912551.035,3810.9807223711105,-137.26753062042448,1000,5.272,-0.489,0.055,109.4,green,277,TRUE
491,1661912551.316,6744.483778878822,1535.105518195752,1000,5.815,-1.48,-0.047,125.0,blue,277,TRUE
492,1661912551.425,3116.4238576330736,-269.07002644238406,1000,2.186,-1.477,0.06,93.7,red,277,TRUE
493,1661912551.519,3608.08733515591,-784.7090089888583,1000,5.281,-0.476,0.053,93.8,green,277,TRUE
494,1661912551.8,6852.848412646716,1433.7009079733564,1000,5.824,-1.505,-0.031,109.3,blue,277,TRUE
495,1661912551.894,3152.5702742512462,-367.42488435299214,1000,2.281,-1.477,0.072,93.7,red,277,TRUE
496,1661912552.253,3306.821453138845,-810.1255088170011,1000,2.451,-1.479,0.089,1130.9,blue,277,TRUE
497,1661912552.253,3183.367746858338,-455.9200368454457,1000,2.451,-1.479,0.089,1130.9,red,277,TRUE
498,1661912552.253,3203.969489528828,-514.9434991562853,1000,2.451,-1.479,0.089,1130.9,red,277,TRUE
499,1661912553.384,2929.334058208207,-2505.305449042148,1000,5.297,-0.405,0.013,125.0,green,277,TRUE
500,1661912554.604,4590.393515416824,351.7372434731495,1000,6.055,-1.335,2.057,109.3,blue,277,TRUE
501,1661912554.698,3198.488898150008,-582.4061577248373,1000,2.357,-1.496,0.072,171.5,red,277,TRUE
502,1661912557.028,5074.7797444807575,617.4087093296006,1000,6.111,-1.308,2.04,109.1,blue,277,TRUE
503,1661912557.122,3167.52627239546,-545.1314623792024,1000,2.338,-1.5,0.067,156.1,red,277,TRUE
504,1661912559.437,4622.404476225165,1211.5453040777124,1000,6.034,-1.335,2.286,1188.9,blue,277,TRUE
505,1661912560.626,2855.7331214940723,-2558.2485445283737,1000,5.287,-0.266,0.058,124.9,green,277,TRUE
506,1661912566.271,3167.534021690279,-612.025680817274,1000,2.361,-1.488,0.079,156.1,red,277,TRUE
507,1661912566.442,2948.2181021187457,-2640.3175161978447,1000,5.288,-0.261,0.062,156.5,green,277,TRUE
508,1661912568.728,3175.631682281403,-673.2618336475729,1000,2.445,-1.451,0.082,1156.0,red,277,TRUE
509,1661912569.853,2865.2285792579655,-2641.3877451328844,1000,5.296,-0.283,0.058,142.1,green,277,TRUE
510,1661912572.122,3207.37158297045,145.49801815759793,1000,6.279,-1.297,-0.397,1157.5,red,277,TRUE
511,1661912573.249,2836.384871851925,-2640.93209025773,1000,5.304,-0.275,0.06,126.5,green,277,TRUE
512,1661912574.439,4914.927199209053,1177.75506781616,1000,6.062,-1.192,2.379,109.4,blue,277,TRUE
513,1661912574.533,3110.1458223858936,351.8532694714964,1000,6.218,-1.297,-0.345,156.2,red,277,TRUE
514,1661912579.238,5186.975966726395,1155.0426971763811,1000,6.004,-1.248,2.359,124.9,blue,277,TRUE
515,1661912581.568,5719.382979357044,1473.7203345942437,1000,6.002,-1.25,2.357,124.8,blue,277,TRUE
516,1661912581.756,2810.5054309449606,-2642.390951473443,1000,5.306,-0.273,0.06,109.5,green,277,TRUE
517,1661912582.053,5802.097208108156,1430.6804432416354,1000,6.012,-1.245,2.354,109.5,blue,277,TRUE
518,1661912582.146,2935.9744196207457,-235.18077065302515,1000,2.219,-1.547,-0.017,93.7,red,277,TRUE
519,1661912582.271,2707.712234077312,-2628.9516593325757,1000,5.307,-0.266,0.067,1124.8,green,277,TRUE
520,1661912589.117,5759.692977274179,1515.4279534851364,1000,5.906,-1.43,1.773,109.2,blue,277,TRUE
521,1661912589.21,2163.0677185596137,3782.0338999371156,1000,3.353,-1.532,0.031,125.1,red,277,TRUE
522,1661912589.32,4112.420996501641,-2121.8335346591707,1000,1.056,-1.406,2.149,93.6,yellow,277,TRUE
523,1661912589.398,2517.8671105420267,-2318.2582640411147,1000,4.383,-1.246,-0.095,93.5,green,277,TRUE
524,1661912594.006,6277.268719159401,1290.4488817293995,1000,6.198,-1.368,1.093,109.5,blue,277,TRUE
525,1661912594.099,1764.2049717493348,5241.683962719778,1000,2.414,-1.505,-0.062,140.9,red,277,TRUE
526,1661912597.536,1677.3635409332392,6006.379597054168,1000,1.885,-1.419,-0.227,1141.7,red,277,TRUE
527,1661912602.224,5673.777632395631,1226.834506035778,1000,5.592,-1.337,1.442,1109.2,blue,277,TRUE
528,1661912603.318,3699.6699754359383,189.88346002202297,1000,5.0,-1.412,2.923,109.1,yellow,277,TRUE
529,1661912603.411,2199.5704760034537,-258.4760510626798,1000,3.054,-1.258,-0.17,140.7,green,277,TRUE
530,1661912604.645,5805.805342472239,1255.718434458638,1000,5.661,-1.469,0.099,109.3,blue,277,TRUE
531,1661912604.739,1846.2616272482283,6280.899722250682,1000,2.808,-1.477,-0.002,109.5,red,277,TRUE
532,1661912604.833,3380.5499816691845,1604.9942396317183,1000,4.668,-1.462,-3.063,109.3,yellow,277,TRUE
533,1661912604.927,2317.465213455538,17.184771292476853,1000,1.263,-1.247,-0.143,124.9,green,277,TRUE
534,1661912606.129,5768.104250526109,1281.963371128787,1000,4.886,-1.501,3.12,109.3,blue,277,TRUE
535,1661912606.223,1959.3195544165665,6473.361464637633,1000,2.77,-1.477,-0.021,140.3,red,277,TRUE
536,1661912606.363,2014.1289859352507,6873.291587993906,1000,0.031,31.276,14.921,1109.3,yellow,277,TRUE
537,1661912606.363,2216.443169410677,2302.6967736042047,1000,0.031,31.276,14.921,1109.3,green,277,TRUE
538,1661912606.363,2165.9351854117253,3445.3847101690653,1000,0.031,31.276,14.921,1109.3,green,277,TRUE
539,1661912607.723,5191.7157553759935,1696.3439877973165,1000,5.021,-1.415,1.374,1109.4,blue,277,TRUE
540,1661912607.723,5193.632708261551,1694.466297886917,1000,5.021,-1.415,1.374,1187.2,red,277,TRUE
541,1661912607.723,3603.649994843869,4284.06936003702,1000,5.021,-1.415,1.374,1187.2,yellow,277,TRUE
542,1661912607.723,4133.585354174231,3420.9041712150433,1000,5.021,-1.415,1.374,1187.2,yellow,277,TRUE
543,1661912611.05,3765.174143061502,4354.982150124248,1000,2.946,-1.452,0.045,1140.5,red,277,TRUE
544,1661912612.175,2661.4293123467673,3090.533927721519,1000,6.204,-1.282,-0.036,125.3,green,277,TRUE
545,1661912613.362,5167.99874943522,1607.924497035861,1000,6.008,-1.397,1.104,109.4,blue,277,TRUE
546,1661912613.456,3266.1663991407545,5370.38242701867,1000,2.932,-1.469,0.08,124.9,red,277,TRUE
547,1661912613.581,4456.886131238974,1278.4820776013696,1000,0.024,-1.396,-0.071,1124.9,yellow,277,TRUE
548,1661912613.581,2960.6586557815554,2788.495518681975,1000,0.024,-1.396,-0.071,1124.9,green,277,TRUE
549,1661912613.581,3336.8722611532357,3044.647885517808,1000,0.024,-1.396,-0.071,1124.9,green,277,TRUE
550,1661912614.908,3089.3208203552913,6072.485999321513,1000,2.625,-1.451,0.418,109.2,red,277,TRUE
551,1661912615.002,3246.488659505205,4095.3616075268765,1000,4.455,-1.532,3.138,109.6,yellow,277,TRUE
552,1661912615.096,3691.8925973654937,3237.892749209173,1000,6.085,-1.263,-0.053,125.2,green,277,TRUE
553,1661912616.299,5252.980997691638,1616.3816678268624,1000,5.99,-1.395,1.11,109.5,blue,277,TRUE
554,1661912616.392,2983.861426196376,6355.914375330918,1000,1.91,-1.472,-0.086,109.5,red,277,TRUE
555,1661912616.486,2870.4250353353214,5122.362075221382,1000,4.653,-1.537,3.11,109.1,yellow,277,TRUE
556,1661912616.58,4121.8767200429165,2362.32742227504,1000,6.082,-1.262,-0.044,109.4,green,277,TRUE
557,1661912616.877,5325.5151520565,1744.439897632818,1000,6.053,-1.38,1.146,109.4,blue,277,TRUE
558,1661912616.97,2917.9291768046355,6547.46285911201,1000,1.969,-1.464,-0.099,109.3,red,277,TRUE
559,1661912617.064,2636.1488531021464,5584.628829069168,1000,4.683,-1.53,3.103,109.3,yellow,277,TRUE
560,1661912617.158,4554.2954900512905,1485.0184278200402,1000,6.105,-1.261,-0.034,109.6,green,277,TRUE
561,1661912617.439,5301.985302199438,1698.0583219903535,1000,6.07,-1.38,1.122,109.2,blue,277,TRUE
562,1661912617.533,2481.4723576715805,7468.969584050396,1000,2.064,-1.462,-0.081,109.5,red,277,TRUE
563,1661912617.626,2501.304650590065,5897.88131502162,1000,4.721,-1.521,3.094,109.4,yellow,277,TRUE
564,1661912617.72,4548.087409152869,1476.053661951393,1000,6.102,-1.262,-0.031,125.1,green,277,TRUE
565,1661912618.923,5293.051537865645,1683.049213928072,1000,5.931,-1.394,1.209,109.7,blue,277,TRUE
566,1661912619.017,2504.8187167951487,7480.732481563828,1000,2.242,-1.43,-0.216,124.7,red,277,TRUE
567,1661912619.142,1924.3632988458762,7116.327281954169,1000,4.687,-1.523,3.099,1093.7,yellow,277,TRUE
568,1661912620.407,5283.402898680419,1667.3561193694434,1000,5.926,-1.396,1.143,109.5,blue,277,TRUE
569,1661912620.501,2510.2032753274266,7476.648352909188,1000,2.713,-1.443,-2.91,109.1,red,277,TRUE
570,1661912620.594,2171.862679753656,7032.231222328621,1000,5.415,-1.307,2.08,109.6,yellow,277,TRUE
571,1661912620.688,4578.626811020925,1531.225257142781,1000,6.14,-1.262,-0.011,109.2,green,277,TRUE
572,1661912621.001,5277.757729550883,1643.6549896176768,1000,5.917,-1.4,1.137,109.0,blue,277,TRUE
573,1661912621.094,2395.468780988638,7478.023194958266,1000,3.459,-1.427,-3.012,109.4,red,277,TRUE
574,1661912621.188,2278.1125516163956,7146.338317000045,1000,5.529,-1.314,1.905,124.9,yellow,277,TRUE
575,1661912621.282,4626.827714970691,1605.4990711521614,1000,6.14,-1.257,-0.013,125.0,green,277,TRUE
576,1661912621.594,5268.829759283022,1639.2934110227895,1000,5.902,-1.404,1.115,109.1,blue,277,TRUE
577,1661912621.688,2165.8430833817897,7566.208108439128,1000,3.117,-1.561,-3.132,109.1,red,277,TRUE
578,1661912621.782,2281.5938900491888,7396.728701334632,1000,5.205,-1.47,3.075,124.9,yellow,277,TRUE
579,1661912621.922,4712.774029712792,1703.4573768347007,1000,6.137,-1.259,-0.02,1078.1,green,277,TRUE
580,1661912623.11,5302.223176699895,1545.8182763150342,1000,4.968,-1.455,0.092,109.4,blue,277,TRUE
581,1661912623.203,1896.7932531706829,7706.90287188944,1000,2.32,-1.529,-3.106,109.4,red,277,TRUE
582,1661912623.297,2202.598729860543,7688.5497428667,1000,4.564,-1.367,2.461,109.3,yellow,277,TRUE
583,1661912623.391,4726.741352135412,1716.7225520633501,1000,0.209,-1.285,0.182,109.4,green,277,TRUE
584,1661912623.703,5439.065386360684,1517.609904172766,1000,5.284,-1.403,1.607,109.3,blue,277,TRUE
585,1661912623.797,1618.5354666786213,7890.514578437746,1000,2.409,-1.489,0.024,109.4,red,277,TRUE
586,1661912623.891,2139.24451979777,7903.109797282879,1000,4.55,-1.373,2.489,125.0,yellow,277,TRUE
587,1661912624.0,4748.747990780684,1645.8651591189343,1000,0.267,-1.246,-0.046,109.4,green,277,TRUE
588,1661912626.359,1834.290571086307,7735.984607197611,1000,3.751,-1.505,0.061,1155.9,yellow,277,TRUE
589,1661912628.579,5650.129724707577,1501.734050515728,1000,5.392,-1.474,0.072,124.7,blue,277,TRUE
590,1661912628.672,1439.732855361394,8142.7077344316285,1000,2.091,-1.493,-0.075,140.6,red,277,TRUE
591,1661912628.797,1507.1490966821268,7929.512406586881,1000,4.382,-1.43,2.308,109.3,yellow,277,TRUE
592,1661912628.891,4923.144226552777,1607.7901715379396,1000,6.081,-1.276,-0.019,109.6,green,277,TRUE
593,1661912630.125,5761.490990553829,1568.5336285441745,1000,5.136,-1.414,1.064,1155.8,blue,277,TRUE
594,1661912631.265,1206.4032648102427,8066.231844566325,1000,4.136,-1.47,3.07,140.9,yellow,277,TRUE
595,1661912631.422,5090.097090581586,1529.1593947887322,1000,6.018,-1.235,-0.195,1093.5,green,277,TRUE
596,1661912633.531,5888.144956741162,1535.163734887974,1000,5.471,-1.442,1.023,1156.2,blue,277,TRUE
597,1661912634.671,835.7575609504161,8097.252768188823,1000,4.14,-1.412,2.282,124.7,yellow,277,TRUE
598,1661912634.78,5061.773039815362,1586.4516781139912,1000,6.084,-1.26,-0.093,125.2,green,277,TRUE
599,1661912635.093,5930.208892764377,1510.7895261599633,1000,5.502,-1.445,1.084,109.3,blue,277,TRUE
