,timestamp,x,y,z,yaw,roll,pitch,latency,student,session,success
0,1661987515.268,2446.7200921393323,3106.80898244998,1000,4.991,-1.364,-0.448,126.3,red,279,TRUE
1,1661987515.378,4510.654691581867,-168.27360741413565,1000,4.297,-1.149,-0.662,123.2,yellow,279,TRUE
2,1661987517.644,2715.022035154514,3573.0346152217558,1000,4.059,-1.094,-0.413,120.5,blue,279,TRUE
3,1661987517.744,2454.596615946997,3072.5544345797894,1000,4.994,-1.366,-0.454,127.3,red,279,TRUE
4,1661987520.143,2429.3507178421914,3152.2540956771204,1000,4.972,-1.377,-0.487,118.3,red,279,TRUE
5,1661987520.237,4300.46350362622,-1705.994775979813,1000,4.282,-1.229,-1.713,157.8,yellow,279,TRUE
6,1661987520.511,2656.768064453722,3512.7920837645975,1000,4.135,-1.148,-0.559,110.2,blue,279,TRUE
7,1661987520.607,2456.941179945772,3228.5927750129977,1000,4.984,-1.378,-0.475,106.6,red,279,TRUE
8,1661987520.701,3798.7543190630727,-2062.5358835806987,1000,4.29,-1.234,-1.524,90.3,yellow,279,TRUE
9,1661987520.923,2643.0528862546266,3471.4984832159353,1000,4.127,-1.137,-0.547,107.0,blue,279,TRUE
10,1661987521.018,2458.0923468937417,3218.61865438365,1000,4.98,-1.377,-0.478,103.7,red,279,TRUE
11,1661987521.109,3779.528192446218,-2048.37887939464,1000,4.294,-1.233,-1.441,95.2,yellow,279,TRUE
12,1661987521.315,2635.4850545027557,3452.711130428943,1000,4.133,-1.119,-0.519,123.1,blue,279,TRUE
13,1661987521.421,2483.4651462969564,3227.32811076344,1000,4.981,-1.367,-0.461,108.0,red,279,TRUE
14,1661987521.517,3791.181702977152,-2026.820785756997,1000,4.299,-1.223,-1.326,91.2,yellow,279,TRUE
15,1661987521.771,2635.937078297718,3401.9677037619927,1000,4.13,-1.112,-0.517,122.3,blue,279,TRUE
16,1661987521.876,2445.3838998875676,3281.575991465652,1000,4.984,-1.36,-0.425,122.6,red,279,TRUE
17,1661987521.982,3281.6044328013922,-2382.929109488338,1000,4.289,-1.212,-1.269,154.6,yellow,279,TRUE
18,1661987522.239,2626.6132019813635,3398.163370283373,1000,4.13,-1.127,-0.529,123.6,blue,279,TRUE
19,1661987522.345,2412.490393222551,3299.0847297626115,1000,4.985,-1.35,-0.411,124.4,red,279,TRUE
20,1661987522.452,3332.2069780726747,-2345.4887299022575,1000,4.306,-1.185,-1.281,94.5,yellow,279,TRUE
21,1661987522.646,2612.327311669212,3411.8166526546665,1000,4.135,-1.149,-0.544,125.6,blue,279,TRUE
22,1661987522.753,2418.440114356672,3304.772487594501,1000,4.979,-1.349,-0.412,124.2,red,279,TRUE
23,1661987522.86,3352.1995194308006,-2348.3191735055184,1000,4.214,-1.149,-1.038,123.1,yellow,279,TRUE
24,1661987523.149,2643.311281332524,3409.1094251215013,1000,4.136,-1.143,-0.531,119.9,blue,279,TRUE
25,1661987523.245,2420.1096735497936,3302.348161475354,1000,4.962,-1.368,-0.451,128.1,red,279,TRUE
26,1661987524.541,2653.26691196134,3461.857145846532,1000,4.114,-1.104,-0.491,103.0,blue,279,TRUE
27,1661987524.63,2482.2139959578303,3289.052848502597,1000,5.834,-1.498,0.04,103.4,red,279,TRUE
28,1661987524.723,3823.9089891025396,-1990.3178964939882,1000,4.32,-1.192,-0.699,90.8,yellow,279,TRUE
29,1661987524.944,2651.9908583221113,3513.232126514556,1000,4.155,-1.116,-0.478,108.0,blue,279,TRUE
30,1661987525.038,2595.1855403744244,3243.3050835613735,1000,6.015,-1.445,-0.512,104.1,red,279,TRUE
31,1661987525.128,4311.171358503297,-1639.924054161025,1000,4.323,-1.157,-0.609,79.9,yellow,279,TRUE
32,1661987525.321,2629.993215369347,3561.1757694933235,1000,4.157,-1.136,-0.499,121.7,blue,279,TRUE
33,1661987525.426,2724.242008006443,3218.9880866876733,1000,6.049,-1.443,-0.549,108.1,red,279,TRUE
34,1661987525.52,4353.124885889133,-1650.5130798396387,1000,4.316,-1.192,-0.657,92.5,yellow,279,TRUE
35,1661987525.728,2611.237536253481,3586.0554229189693,1000,4.171,-1.139,-0.494,123.2,blue,279,TRUE
36,1661987525.834,2932.886457637467,3324.864866401867,1000,6.148,-1.454,0.002,123.7,red,279,TRUE
37,1661987525.939,4341.120355138903,-1643.7019759805637,1000,4.327,-1.217,-0.709,152.9,yellow,279,TRUE
38,1661987526.244,2610.2301639292623,3570.6598437705325,1000,4.175,-1.134,-0.489,105.5,blue,279,TRUE
39,1661987526.338,3106.4866072459226,3448.9364906859705,1000,5.501,-1.498,-0.053,101.6,red,279,TRUE
40,1661987526.427,4354.260744668214,-1659.4487533547738,1000,4.312,-1.176,-0.642,94.2,yellow,279,TRUE
41,1661987526.627,2613.2219189924376,3604.0260078425836,1000,4.175,-1.128,-0.482,116.0,blue,279,TRUE
42,1661987526.726,3267.2878334674374,3614.8092485042803,1000,5.417,-1.473,-0.069,122.3,red,279,TRUE
43,1661987526.832,4337.369425432332,-1673.998161497738,1000,4.323,-1.211,-0.714,107.3,yellow,279,TRUE
44,1661987527.049,2618.5165259866208,3581.3177715530815,1000,4.153,-1.113,-0.477,103.5,blue,279,TRUE
45,1661987527.142,3370.378678108507,3900.16507182371,1000,5.421,-1.514,-0.023,101.6,red,279,TRUE
46,1661987527.23,3889.9385344566767,-2030.5775575509476,1000,4.323,-1.2,-0.683,94.7,yellow,279,TRUE
47,1661987527.451,2617.1407944419934,3537.204670930858,1000,4.169,-1.133,-0.482,107.7,blue,279,TRUE
48,1661987527.545,3405.7381226539915,4243.141868858506,1000,5.112,-1.485,-0.076,106.3,red,279,TRUE
49,1661987527.638,3397.3303694639726,-2397.2150576942045,1000,4.326,-1.19,-0.661,147.2,yellow,279,TRUE
50,1661987527.95,2620.035410381714,3533.646609815051,1000,4.168,-1.146,-0.496,106.1,blue,279,TRUE
51,1661987528.043,3395.886160989776,4603.527901164055,1000,5.268,-1.455,-0.068,105.5,red,279,TRUE
52,1661987528.135,3864.5019437553196,-2044.6290460323726,1000,4.325,-1.182,-0.645,79.8,yellow,279,TRUE
53,1661987528.328,2629.7481200859183,3558.1641640286284,1000,4.168,-1.151,-0.501,108.3,blue,279,TRUE
54,1661987528.423,3288.904231229204,4926.958700483155,1000,5.149,-1.484,-0.031,117.7,red,279,TRUE
55,1661987528.545,3503.1977653399717,-2385.2273338878463,1000,4.326,-1.185,-0.649,1124.0,yellow,279,TRUE
56,1661987529.67,2671.368503207383,3657.1545953420796,1000,4.526,-1.199,-0.023,119.2,blue,279,TRUE
57,1661987529.769,3164.5214426250864,5399.341310775177,1000,4.948,-1.454,-0.094,109.5,red,279,TRUE
58,1661987529.868,3543.5869785203713,-2388.6521408976514,1000,4.34,-1.149,-0.583,133.1,yellow,279,TRUE
59,1661987529.985,2660.920936546022,-2020.388357466727,1000,5.464,-0.809,-0.192,106.8,green,279,TRUE
60,1661987530.173,2715.1967095664154,3787.416374554565,1000,5.317,-1.106,-0.151,100.8,blue,279,TRUE
61,1661987530.263,3026.5782821892794,5835.020970726421,1000,4.385,-1.36,-1.767,102.3,red,279,TRUE
62,1661987530.352,3522.4957314219587,-2400.4044725877047,1000,4.338,-1.126,-0.564,118.3,yellow,279,TRUE
63,1661987536.004,2886.8776069048495,6212.800040591377,1000,3.989,-1.422,-0.681,114.1,red,279,TRUE
64,1661987536.096,3524.423737775552,-2401.834261790877,1000,4.292,-1.178,-0.666,127.5,yellow,279,TRUE
65,1661987536.196,2673.3448286030216,-2015.9926727196817,1000,5.401,-0.697,-0.049,103.6,green,279,TRUE
66,1661987536.383,2233.603172627563,6712.931083280295,1000,4.481,-1.153,0.068,113.7,blue,279,TRUE
67,1661987536.479,2774.231550310445,6563.62515286472,1000,4.003,-1.427,-0.722,107.7,red,279,TRUE
68,1661987536.572,3510.2089517397044,-2403.5573867578355,1000,4.292,-1.164,-0.607,119.4,yellow,279,TRUE
69,1661987538.819,2322.174901838039,6786.584023861517,1000,4.441,-1.097,-0.057,122.8,blue,279,TRUE
70,1661987538.92,2692.635399271528,6893.478899791718,1000,3.974,-1.407,-0.605,125.6,red,279,TRUE
71,1661987539.028,3374.7482155822036,-2394.66790354862,1000,4.291,-1.168,-0.634,108.6,yellow,279,TRUE
72,1661987541.268,2351.8536087049883,6891.726155782352,1000,4.488,-1.069,-0.12,118.3,blue,279,TRUE
73,1661987541.367,2631.684123783121,7121.588063273535,1000,3.953,-1.398,-0.593,125.0,red,279,TRUE
74,1661987543.721,2658.4215690744636,7247.108195914679,1000,3.944,-1.383,-0.553,139.5,red,279,TRUE
75,1661987546.128,2674.9184290576363,7303.372818893099,1000,4.071,-1.403,-0.472,130.6,red,279,TRUE
76,1661987548.523,2676.6741330907894,7309.850543567256,1000,4.1,-1.395,-0.533,126.5,red,279,TRUE
77,1661987548.63,3330.248988439255,-2380.147691894122,1000,4.327,-1.122,-0.539,140.9,yellow,279,TRUE
78,1661987548.905,2307.7373986156363,6824.082797745332,1000,4.453,-1.062,-0.139,122.6,blue,279,TRUE
79,1661987549.01,2683.5687538399634,7308.847263011195,1000,4.15,-1.405,-0.53,123.7,red,279,TRUE
80,1661987550.304,2301.9564737363153,6886.520668608207,1000,4.404,-1.024,-0.169,99.7,blue,279,TRUE
81,1661987550.39,2682.6777131402782,7369.769304787836,1000,4.004,-1.379,-0.544,119.3,red,279,TRUE
82,1661987550.481,3308.229738463258,-2389.617890667014,1000,4.325,-1.161,-0.601,95.3,yellow,279,TRUE
83,1661987550.685,2270.866365708738,6848.20596038325,1000,4.402,-1.025,-0.17,112.5,blue,279,TRUE
84,1661987550.78,2696.8038064348607,7382.618551811589,1000,3.989,-1.373,-0.545,122.1,red,279,TRUE
85,1661987550.885,3280.4846740097905,-2405.990194230297,1000,4.325,-1.156,-0.602,108.0,yellow,279,TRUE
86,1661987551.102,2209.879433219489,6846.406488157217,1000,4.403,-1.026,-0.172,100.7,blue,279,TRUE
87,1661987551.192,2661.0253238871833,7313.119732057756,1000,3.99,-1.377,-0.569,117.8,red,279,TRUE
88,1661987552.474,2151.9796226534368,6884.432455196472,1000,4.418,-1.017,-0.148,100.7,blue,279,TRUE
89,1661987552.563,2663.041989992968,7389.860512125997,1000,4.003,-1.391,-0.573,104.2,red,279,TRUE
90,1661987552.653,3333.420517372467,-2402.019489245427,1000,4.326,-1.152,-0.6,94.3,yellow,279,TRUE
91,1661987553.842,2683.9834285876077,7373.2103151833735,1000,3.748,-1.374,-0.693,108.5,red,279,TRUE
92,1661987553.937,3285.778144478873,-2423.4811092583723,1000,4.33,-1.151,-0.603,148.8,yellow,279,TRUE
93,1661987554.243,2176.2247064830885,6816.986589566158,1000,4.941,-1.068,-0.088,100.9,blue,279,TRUE
94,1661987554.33,2696.7033241550666,7373.974529316056,1000,3.748,-1.36,-0.624,103.8,red,279,TRUE
95,1661987554.419,3392.033343539211,-2445.666319202223,1000,4.331,-1.143,-0.59,78.5,yellow,279,TRUE
96,1661987554.589,2238.0088832496563,6830.47713708683,1000,4.924,-1.052,-0.095,102.5,blue,279,TRUE
97,1661987554.679,2705.4097394338487,7288.295030675097,1000,3.738,-1.36,-0.628,104.1,red,279,TRUE
98,1661987554.769,3456.6086649368303,-2449.512481368937,1000,4.332,-1.138,-0.584,87.7,yellow,279,TRUE
99,1661987554.991,2272.225109768754,6750.278392134259,1000,4.753,-1.09,-0.127,92.7,blue,279,TRUE
100,1661987555.069,2702.683440689348,7263.804912844567,1000,3.8,-1.372,-0.627,106.7,red,279,TRUE
101,1661987555.164,3466.990466225346,-2446.779421140183,1000,4.333,-1.122,-0.556,95.5,yellow,279,TRUE
102,1661987555.385,2264.685612870263,6772.581248513954,1000,4.511,-1.06,-0.152,106.8,blue,279,TRUE
103,1661987555.477,2695.88493941194,7264.069385516647,1000,3.991,-1.392,-0.552,105.2,red,279,TRUE
104,1661987555.568,3504.9320711479018,-2433.977629946204,1000,4.334,-1.117,-0.554,150.1,yellow,279,TRUE
105,1661987555.882,2325.255805468632,6745.349567639827,1000,4.345,-1.106,-0.099,124.3,blue,279,TRUE
106,1661987555.988,2671.9810375198867,7185.264854728408,1000,4.237,-1.383,-0.394,106.8,red,279,TRUE
107,1661987556.081,3445.9421949302146,-2445.6729848737446,1000,4.335,-1.113,-0.548,97.3,yellow,279,TRUE
108,1661987556.291,2348.1799547794963,6655.584283436595,1000,4.288,-1.09,-0.133,108.6,blue,279,TRUE
109,1661987556.387,2634.553716333381,7262.117975306901,1000,4.285,-1.403,-0.568,102.3,red,279,TRUE
110,1661987556.476,3457.7521256209966,-2436.8722657834346,1000,4.335,-1.108,-0.545,90.8,yellow,279,TRUE
111,1661987556.663,2319.088543343428,6654.243672868003,1000,4.291,-1.094,-0.131,115.0,blue,279,TRUE
112,1661987556.76,2597.119101747126,7237.44582532354,1000,4.163,-1.394,-0.543,122.9,red,279,TRUE
113,1661987556.866,3484.567080287258,-2424.337007995297,1000,4.334,-1.132,-0.579,168.6,yellow,279,TRUE
114,1661987557.188,2322.186651104196,6702.04611876097,1000,4.434,-1.06,-0.028,103.3,blue,279,TRUE
115,1661987557.277,2633.7081245196773,7260.338108482342,1000,3.962,-1.378,-0.445,120.2,red,279,TRUE
116,1661987557.38,3460.202676686566,-2432.1935483313987,1000,4.335,-1.137,-0.584,96.7,yellow,279,TRUE
117,1661987557.568,2268.006726236622,6668.3960687076,1000,4.371,-1.086,0.041,100.6,blue,279,TRUE
118,1661987557.657,2657.882689257052,7262.186997427242,1000,3.841,-1.374,-0.626,102.1,red,279,TRUE
119,1661987557.746,3439.994422456831,-2423.774632297768,1000,4.336,-1.134,-0.581,105.7,yellow,279,TRUE
120,1661987557.983,2240.6463276816107,6629.1265752814,1000,4.292,-1.06,0.033,106.7,blue,279,TRUE
121,1661987558.076,2653.514777804181,7254.747307073296,1000,3.806,-1.373,-0.656,105.8,red,279,TRUE
122,1661987558.167,3430.558176648616,-2413.8593958786582,1000,4.334,-1.13,-0.577,92.7,yellow,279,TRUE
123,1661987558.375,2254.9635049722933,6668.865773238663,1000,4.292,-1.068,0.0,106.9,blue,279,TRUE
124,1661987558.469,2683.021641831544,7285.181432360015,1000,3.822,-1.391,-0.688,104.1,red,279,TRUE
125,1661987558.559,3386.5421964843995,-2418.4814954179296,1000,4.332,-1.118,-0.564,134.4,yellow,279,TRUE
126,1661987560.821,2242.0599079773897,6664.911002914949,1000,4.33,-1.05,-0.049,1148.0,blue,279,TRUE
127,1661987561.946,3366.345574371666,-2428.803483610815,1000,4.241,-1.269,-1.031,111.4,yellow,279,TRUE
128,1661987562.036,2652.45417575879,-2011.6429006874557,1000,5.356,-0.613,-0.105,127.3,green,279,TRUE
129,1661987562.301,2252.4356625664095,6643.6788569650735,1000,4.328,-1.08,0.035,104.7,blue,279,TRUE
130,1661987562.392,2735.537537296185,7292.895836649339,1000,3.915,-1.398,-0.55,103.9,red,279,TRUE
131,1661987562.483,3319.8038517558416,-2446.082972849985,1000,4.346,-1.197,-0.678,118.3,yellow,279,TRUE
132,1661987562.573,2627.973343625367,-1983.3627132709391,1000,5.355,-0.614,-0.103,121.0,green,279,TRUE
133,1661987562.798,1801.8808383779851,6457.970233802648,1000,0.022,-1.117,0.046,1088.8,blue,279,TRUE
134,1661987562.798,2620.763454945945,7192.6827382422525,1000,0.022,-1.117,0.046,1090.8,red,279,TRUE
135,1661987562.798,2439.117454054425,7047.39651838551,1000,0.022,-1.117,0.046,1093.8,red,279,TRUE
136,1661987563.871,3268.760236172549,-2469.6273302793343,1000,4.451,-1.141,-0.397,118.8,yellow,279,TRUE
137,1661987566.118,2150.6048118404433,6663.9742514836735,1000,4.621,-1.058,0.103,120.9,blue,279,TRUE
138,1661987566.219,2447.9029899417046,7122.704938372273,1000,3.917,-1.391,-0.559,124.6,red,279,TRUE
139,1661987566.323,3180.5164432402994,-2541.2371791133664,1000,4.412,-1.248,-0.69,97.6,yellow,279,TRUE
140,1661987566.406,2641.435302808846,-2003.7885641103678,1000,5.426,-0.737,-0.094,106.1,green,279,TRUE
141,1661987566.647,2215.0074407887164,6735.927964932122,1000,4.504,-1.08,0.07,121.6,blue,279,TRUE
142,1661987566.772,3457.413102778497,-2535.9231174335287,1000,0.013,-1.396,-0.602,1133.4,red,279,TRUE
143,1661987566.772,3175.974828629783,-2566.2118550917157,1000,0.013,-1.396,-0.602,1135.4,yellow,279,TRUE
144,1661987566.772,3214.077532730958,-2575.493829339257,1000,0.013,-1.396,-0.602,1136.3,yellow,279,TRUE
145,1661987570.043,2313.3387799125176,6613.63592524703,1000,4.747,-1.04,0.099,96.4,blue,279,TRUE
146,1661987570.132,3086.02742066625,2368.8440156362904,1000,4.072,-1.389,-0.432,130.1,red,279,TRUE
147,1661987572.535,2958.8124333986666,4161.886268000614,1000,3.93,-1.39,-0.533,127.0,red,279,TRUE
148,1661987572.641,3241.7631606885266,-2570.8497378532743,1000,4.418,-1.229,-0.62,95.3,yellow,279,TRUE
149,1661987574.864,2350.243970294254,6615.001713773794,1000,4.549,-1.1,0.136,122.7,blue,279,TRUE
150,1661987574.965,2945.4071033951905,4959.917166141589,1000,3.899,-1.39,-0.502,126.0,red,279,TRUE
151,1661987575.069,3288.8264676507692,-2574.0874700044046,1000,4.445,-1.274,-0.657,129.3,yellow,279,TRUE
152,1661987577.327,2304.6424141506645,6645.64019260689,1000,4.543,-1.049,0.099,120.5,blue,279,TRUE
153,1661987577.431,2881.339909753135,5449.28665550795,1000,3.888,-1.369,-0.512,123.9,red,279,TRUE
154,1661987577.534,3337.874645842256,-2580.0819783204242,1000,4.457,-1.272,-0.634,110.1,yellow,279,TRUE
155,1661987586.56,2361.0352082282843,6709.567015111016,1000,4.537,-1.013,0.097,116.1,blue,279,TRUE
156,1661987586.684,2664.105836244329,7399.974830261686,1000,3.967,-1.369,-0.449,1077.3,red,279,TRUE
157,1661987587.752,2644.4844694829776,-2006.6409380095001,1000,5.423,-0.663,-0.107,99.5,green,279,TRUE
158,1661987587.988,2359.973735793676,6722.672524835119,1000,4.56,-1.019,0.094,105.9,blue,279,TRUE
159,1661987588.081,2696.8086014901883,7329.788104357434,1000,3.944,-1.367,-0.425,104.1,red,279,TRUE
160,1661987588.17,3460.3842395865518,-2535.3379024745354,1000,4.444,-1.249,-0.652,118.9,yellow,279,TRUE
161,1661987588.277,2994.9284292754096,-2625.2670146054074,1000,5.417,-0.642,-0.117,103.3,green,279,TRUE
162,1661987588.484,2384.809954373343,6730.016651559231,1000,4.578,-1.021,0.094,107.3,blue,279,TRUE
163,1661987588.578,2745.642386244532,7307.036494607762,1000,3.95,-1.368,-0.428,104.8,red,279,TRUE
164,1661987588.668,3456.206593356759,-2542.7690898613073,1000,4.453,-1.27,-0.69,134.9,yellow,279,TRUE
165,1661987588.777,2889.314693516026,-2587.8226510209006,1000,5.412,-0.64,-0.14,102.8,green,279,TRUE
166,1661987588.969,2384.238085831875,6830.3995912588,1000,4.598,-1.036,0.089,105.4,blue,279,TRUE
167,1661987589.063,2775.920976794302,7296.897108871223,1000,3.963,-1.37,-0.405,103.1,red,279,TRUE
168,1661987589.152,3469.2668186116875,-2541.1398908630017,1000,4.46,-1.278,-0.702,120.3,yellow,279,TRUE
169,1661987591.401,2492.657032502589,6820.021880616179,1000,0.974,-1.036,-0.028,120.1,blue,279,TRUE
170,1661987591.501,2891.5873055831016,7304.51421309556,1000,1.298,-1.332,-0.675,126.3,red,279,TRUE
171,1661987598.337,3169.665185318794,7223.854811862675,1000,1.599,-1.39,-0.642,115.1,red,279,TRUE
172,1661987601.725,4767.130259768085,6792.557550481073,1000,1.412,-1.386,-0.716,1121.5,red,279,TRUE
173,1661987602.831,2893.3562615114606,-2641.7658444357735,1000,5.435,-0.615,-0.103,90.9,green,279,TRUE
174,1661987603.092,2838.4963930250483,6718.9106239025095,1000,0.446,-1.093,-0.17,103.0,blue,279,TRUE
175,1661987603.184,4629.814042577759,6788.455837002781,1000,1.601,-1.385,-0.55,116.1,red,279,TRUE
176,1661987606.578,4606.317160264523,6756.6066545800195,1000,1.66,-1.391,-0.505,1124.2,red,279,TRUE
177,1661987607.693,2895.381633185339,-2673.9527695684324,1000,5.427,-0.614,-0.096,114.2,green,279,TRUE
178,1661987608.892,3182.5838069574443,6635.005856334672,1000,0.415,-1.041,-0.133,104.1,blue,279,TRUE
179,1661987608.985,4553.788525359315,6836.35340915317,1000,1.547,-1.374,-0.673,124.1,red,279,TRUE
180,1661987613.517,2890.1970025738065,-2644.791332016349,1000,5.455,-0.575,-0.083,1147.7,green,279,TRUE
181,1661987614.733,3458.451365852324,6483.931341083698,1000,0.4,-1.092,-0.147,114.8,blue,279,TRUE
182,1661987614.827,4555.738571760989,6864.122050412506,1000,1.655,-1.397,-0.573,125.6,red,279,TRUE
183,1661987621.663,4502.2825035328615,6865.850513741207,1000,1.552,-1.386,-0.671,1138.1,red,279,TRUE
184,1661987624.936,3747.598928391934,6357.438255886777,1000,0.377,-1.046,-0.123,125.6,blue,279,TRUE
185,1661987625.041,4473.481371505298,6842.589383075728,1000,1.602,-1.393,-0.616,127.0,red,279,TRUE
186,1661987625.146,3391.0871002770077,-2520.331214085858,1000,4.491,-1.329,-1.006,97.4,yellow,279,TRUE
187,1661987627.369,4017.481570406413,6245.743942080352,1000,0.4,-1.059,-0.123,120.8,blue,279,TRUE
188,1661987627.471,4473.5946304266845,6843.223892581681,1000,1.542,-1.381,-0.576,123.2,red,279,TRUE
189,1661987627.574,3361.7955008525037,-2518.984252464176,1000,4.492,-1.257,-0.723,111.0,yellow,279,TRUE
190,1661987629.829,4207.556541227514,6180.618171516301,1000,0.388,-1.053,-0.122,119.5,blue,279,TRUE
191,1661987629.928,4453.060961618837,6860.392948447542,1000,1.565,-1.38,-0.566,126.5,red,279,TRUE
192,1661987635.724,4458.266075052169,6817.5409525448695,1000,1.506,-1.378,-0.622,115.6,red,279,TRUE
193,1661987636.847,2674.670187697872,-2490.3153489978044,1000,5.378,-0.581,-0.12,1174.5,green,279,TRUE
194,1661987638.032,4263.867770764397,6195.739036474741,1000,0.285,-1.02,-0.132,124.7,blue,279,TRUE
195,1661987638.135,4462.99350332285,6787.433098513479,1000,1.366,-1.353,-0.639,126.8,red,279,TRUE
196,1661987646.09,2635.9472686405893,-2508.8561202175933,1000,5.351,-0.552,-0.12,1139.1,green,279,TRUE
197,1661987649.452,2407.747863810782,-1814.1160211219865,1000,5.341,-0.523,-0.084,1131.9,green,279,TRUE
198,1661987651.602,4310.841547173733,6141.835944918935,1000,0.389,-1.02,-0.206,1142.4,blue,279,TRUE
199,1661987665.313,4305.2682611913815,6751.217699962966,1000,2.129,-1.433,-0.889,121.0,red,279,TRUE
200,1661987665.421,3340.788361909072,-2519.238402354245,1000,4.518,-1.233,-0.62,118.1,yellow,279,TRUE
201,1661987677.905,4431.89600657396,5531.649063137611,1000,1.101,-1.103,-0.048,1181.2,blue,279,TRUE
202,1661987679.095,2432.6356077570777,-1764.8918297064195,1000,5.26,-0.611,-0.158,127.6,green,279,TRUE
203,1661987679.364,4516.794637464637,5047.2543755772485,1000,1.173,-1.136,-0.034,100.4,blue,279,TRUE
204,1661987679.452,4201.946098452651,5982.4955792002975,1000,0.418,-1.429,-1.017,103.6,red,279,TRUE
205,1661987679.569,2451.845977867629,-1746.4412094876272,1000,5.259,-0.617,-0.156,107.9,green,279,TRUE
206,1661987679.757,4594.896851412674,4517.412558310082,1000,1.162,-1.149,-0.05,101.2,blue,279,TRUE
207,1661987679.845,4106.454413732825,5194.03116297738,1000,0.419,-1.427,-0.993,95.5,red,279,TRUE
208,1661987679.947,2433.246111603444,-1759.433579212028,1000,5.259,-0.615,-0.156,122.3,green,279,TRUE
209,1661987680.148,4670.849526740266,3988.0794863096494,1000,1.154,-1.122,-0.041,103.5,blue,279,TRUE
210,1661987680.242,4019.938066983564,4402.839877506579,1000,0.424,-1.425,-0.96,89.0,red,279,TRUE
211,1661987680.34,2658.1229766419588,-1909.7085868466368,1000,5.258,-0.613,-0.156,121.5,green,279,TRUE
212,1661987680.566,4669.932746273968,3470.668299227846,1000,1.137,-1.101,-0.047,106.4,blue,279,TRUE
213,1661987680.658,3936.9652012444803,3606.0102599903294,1000,0.429,-1.415,-0.857,120.9,red,279,TRUE
214,1661987680.763,3380.1451855975647,-2490.2242542760778,1000,4.541,-1.224,-0.651,107.8,yellow,279,TRUE
215,1661987680.859,2652.714339821452,-1871.4277108036028,1000,5.249,-0.608,-0.171,103.0,green,279,TRUE
216,1661987681.114,4660.449710177829,3017.0139587260546,1000,1.131,-1.094,-0.049,104.0,blue,279,TRUE
217,1661987681.205,3831.06254652134,2819.8508069870313,1000,0.436,-1.413,-0.834,103.0,red,279,TRUE
218,1661987681.299,3418.5192325301855,-2465.1203745183916,1000,4.54,-1.22,-0.649,100.1,yellow,279,TRUE
219,1661987681.386,2992.2576927817936,-2595.249427250011,1000,5.246,-0.612,-0.16,119.6,green,279,TRUE
220,1661987681.609,4599.429595743237,3168.721689356002,1000,1.121,-1.093,-0.058,108.4,blue,279,TRUE
221,1661987681.703,3932.418422462837,2064.620829590649,1000,0.433,-1.419,-0.889,104.4,red,279,TRUE
222,1661987681.793,3452.348430682667,-2444.1489511777218,1000,4.544,-1.23,-0.67,104.6,yellow,279,TRUE
223,1661987681.886,3016.618941331384,-2610.638733852542,1000,5.229,-0.629,-0.167,102.5,green,279,TRUE
224,1661987682.092,4579.203759480827,3180.7192217308907,1000,1.127,-1.089,-0.059,107.2,blue,279,TRUE
225,1661987682.185,3927.2973741402234,2070.547490681616,1000,0.442,-1.426,-0.928,103.7,red,279,TRUE
226,1661987682.275,3561.146553459938,-2454.3820598076836,1000,4.544,-1.226,-0.653,104.5,yellow,279,TRUE
227,1661987682.371,3034.8000808402026,-2629.669098949992,1000,5.21,-0.624,-0.177,98.9,green,279,TRUE
228,1661987682.612,4566.972803514321,3226.5673737502125,1000,1.127,-1.081,-0.057,98.9,blue,279,TRUE
229,1661987682.698,3938.2902131743162,2067.7716992653363,1000,0.445,-1.43,-0.93,104.1,red,279,TRUE
230,1661987682.79,3607.2482909033843,-2440.2258360249284,1000,4.548,-1.225,-0.696,117.7,yellow,279,TRUE
231,1661987685.055,4526.589567104688,3276.5318799168313,1000,1.17,-1.072,-0.041,105.8,blue,279,TRUE
232,1661987685.152,3946.2570216131703,2064.4865869434357,1000,0.439,-1.415,-0.82,99.0,red,279,TRUE
233,1661987685.244,3622.68472706689,-2429.206641079989,1000,4.554,-1.223,-0.68,100.0,yellow,279,TRUE
234,1661987685.335,3080.0020131429737,-2638.039739322933,1000,5.235,-0.616,-0.166,100.0,green,279,TRUE
235,1661987685.599,4551.462295412489,3303.056517098599,1000,1.079,-1.137,-0.096,108.6,blue,279,TRUE
236,1661987685.694,3948.40864375104,2062.399833457057,1000,0.439,-1.422,-0.89,119.1,red,279,TRUE
237,1661987686.823,3184.637484047145,-2697.810519366088,1000,5.223,-0.573,-0.168,1194.0,green,279,TRUE
238,1661987688.025,4569.080127555503,3345.4972169122116,1000,1.002,-1.079,-0.329,126.5,blue,279,TRUE
239,1661987688.131,3952.9553407964886,2061.0959580375443,1000,0.449,-1.427,-0.846,112.1,red,279,TRUE
240,1661987688.23,3526.4100976289924,-2411.0254382014814,1000,4.556,-1.208,-0.492,119.7,yellow,279,TRUE
241,1661987691.513,3924.042307553193,2155.113304557505,1000,0.471,-1.401,-0.622,1138.0,red,279,TRUE
242,1661987692.631,3182.9455579022674,-2723.019691584273,1000,5.249,-0.696,-0.176,110.9,green,279,TRUE
243,1661987693.882,4536.943315301386,3427.572741115968,1000,1.368,-1.07,0.136,1128.8,blue,279,TRUE
244,1661987694.996,3503.7759554147992,-2428.001448886122,1000,4.58,-1.235,-0.608,123.6,yellow,279,TRUE
245,1661987695.097,3159.221051384819,-2714.2314359385773,1000,5.241,-0.707,-0.155,110.3,green,279,TRUE
246,1661987695.404,3947.46000890243,2171.7682021837086,1000,0.49,-1.42,-0.702,118.6,red,279,TRUE
247,1661987695.505,3452.0390690591175,-2449.815790638723,1000,4.584,-1.233,-0.639,109.3,yellow,279,TRUE
248,1661987695.598,3134.2198462109122,-2703.6469795282974,1000,5.239,-0.701,-0.153,93.5,green,279,TRUE
249,1661987696.812,4058.036139783258,3092.2812049414442,1000,1.732,-1.001,-0.011,1141.8,blue,279,TRUE
250,1661987698.969,3081.516605795172,-2717.8735250014356,1000,5.235,-0.702,-0.143,1129.2,green,279,TRUE
251,1661987700.181,4241.2156887526635,2969.2670842599546,1000,1.157,-1.188,-0.083,143.5,blue,279,TRUE
252,1661987700.304,3924.289678785146,2164.658327194584,1000,0.488,-1.406,-0.625,112.0,red,279,TRUE
253,1661987700.407,3428.390240254617,-2468.1645347744857,1000,4.577,-1.257,-0.806,98.3,yellow,279,TRUE
254,1661987700.492,3038.474483410179,-2691.084492484357,1000,5.226,-0.706,-0.171,121.2,green,279,TRUE
255,1661987700.809,4340.575752148071,2902.717529205755,1000,1.21,-1.079,-0.075,120.3,blue,279,TRUE
256,1661987700.904,3922.7691260404463,2160.2376076943165,1000,0.503,-1.394,-0.587,113.9,red,279,TRUE
257,1661987701.005,3391.1255407180465,-2481.109879725252,1000,4.613,-1.263,-0.639,120.0,yellow,279,TRUE
258,1661987701.108,2929.3991336952063,-2648.7738186644547,1000,5.225,-0.722,-0.136,94.7,green,279,TRUE
259,1661987701.399,4314.785077498328,2842.274842837009,1000,1.266,-1.071,-0.064,1097.0,blue,279,TRUE
260,1661987702.479,3367.330434998595,-2501.522699535389,1000,4.536,-1.249,-0.688,105.7,yellow,279,TRUE
261,1661987704.765,3954.0855248656912,3000.9732291091323,1000,1.005,-1.131,-0.039,1145.8,blue,279,TRUE
262,1661987705.892,3407.2480287527305,-2547.0730767207374,1000,4.591,-1.223,-0.616,123.7,yellow,279,TRUE
263,1661987705.986,2924.907289643716,-2628.3856550986843,1000,5.168,-0.592,-0.151,120.3,green,279,TRUE
264,1661987706.274,4152.792007041199,2881.4028715511863,1000,0.923,-1.092,0.106,104.3,blue,279,TRUE
265,1661987706.368,3939.0752292072084,2140.042423812645,1000,0.479,-1.425,-0.794,116.5,red,279,TRUE
266,1661987709.792,3934.1434460809073,2119.103993388458,1000,0.485,-1.425,-0.795,126.4,red,279,TRUE
267,1661987709.901,3379.702722356836,-2546.9432703526654,1000,4.604,-1.224,-0.647,112.2,yellow,279,TRUE
268,1661987712.136,4178.274452070462,2739.939639188211,1000,0.974,-1.08,0.133,122.7,blue,279,TRUE
269,1661987712.237,3990.616755750157,2001.3723794725636,1000,0.493,-1.417,-0.733,125.7,red,279,TRUE
270,1661987712.346,3377.972809964607,-2546.941894660218,1000,4.622,-1.253,-0.646,107.7,yellow,279,TRUE
271,1661987714.583,4138.725402477564,2719.564577074326,1000,0.905,-1.11,0.1,105.6,blue,279,TRUE
272,1661987714.68,3970.2420287292975,1972.9883981595651,1000,0.481,-1.397,-0.661,130.3,red,279,TRUE
273,1661987722.931,4336.926468379475,2590.18414189251,1000,0.915,-1.091,0.089,1101.9,blue,279,TRUE
274,1661987726.182,4185.52880900244,2584.2445564162153,1000,0.89,-1.091,0.18,1155.7,blue,279,TRUE
275,1661987744.345,4031.6682753903438,2037.5038809517691,1000,0.47,-1.42,-0.714,1168.6,red,279,TRUE
276,1661987745.681,4242.957086990314,2411.8533463568892,1000,0.962,-1.033,0.145,103.6,blue,279,TRUE
277,1661987745.773,4038.867902984613,2035.7804713611476,1000,0.468,-1.4,-0.631,101.8,red,279,TRUE
278,1661987745.864,3350.5160678728553,-2526.092266277131,1000,4.561,-1.221,-0.647,96.2,yellow,279,TRUE
279,1661987746.085,4323.989641322619,2268.999755165369,1000,0.959,-1.032,0.135,107.5,blue,279,TRUE
280,1661987746.178,4038.808945747844,2054.1326624910635,1000,0.469,-1.401,-0.633,105.7,red,279,TRUE
281,1661987746.269,3307.9072129575784,-2508.832167513768,1000,4.579,-1.253,-0.641,97.7,yellow,279,TRUE
282,1661987746.493,4305.0981037125275,2299.213837505954,1000,0.947,-1.034,0.141,123.2,blue,279,TRUE
283,1661987746.599,4097.884772015514,2058.031028316272,1000,0.469,-1.403,-0.641,107.1,red,279,TRUE
284,1661987746.693,3251.448054387148,-2494.5716293967985,1000,4.577,-1.229,-0.591,134.5,yellow,279,TRUE
285,1661987746.796,2920.9831525937843,-2626.621676165378,1000,5.117,-0.784,-0.144,152.0,green,279,TRUE
286,1661987747.021,4296.698850496408,2299.843204936842,1000,0.941,-1.045,0.136,122.1,blue,279,TRUE
287,1661987747.126,4086.410779382158,2060.9436851569803,1000,0.47,-1.416,-0.707,108.8,red,279,TRUE
288,1661987747.222,3274.274602548281,-2511.713888738324,1000,4.575,-1.227,-0.598,119.1,yellow,279,TRUE
289,1661987749.47,4270.753226442473,2292.4602197632644,1000,0.962,-1.041,0.14,121.3,blue,279,TRUE
290,1661987749.6,3983.444666526098,2042.7139973439855,1000,0.47,-1.429,-0.798,1092.8,red,279,TRUE
291,1661987756.182,4293.506160316388,2333.7037211441702,1000,1.06,-1.011,0.108,1139.3,blue,279,TRUE
292,1661987757.301,3277.099274668492,-2488.3178540988324,1000,4.603,-1.208,-0.572,111.5,yellow,279,TRUE
293,1661987759.563,4228.2545027032975,2432.7104019257113,1000,0.922,-1.011,-0.015,1145.4,blue,279,TRUE
294,1661987760.698,3277.3259834693017,-2477.576159610215,1000,4.6,-1.164,-0.549,116.2,yellow,279,TRUE
295,1661987762.989,4127.471915226136,2486.484164247772,1000,0.851,-1.194,-0.035,119.4,blue,279,TRUE
296,1661987763.09,4019.268857012903,1765.726338537229,1000,6.175,-1.464,-0.062,107.2,red,279,TRUE
297,1661987763.189,3333.3311619588135,-2485.90266039038,1000,4.622,-1.18,-0.542,114.0,yellow,279,TRUE
298,1661987765.433,4046.292408385212,2430.518871413651,1000,0.794,-1.117,0.071,120.5,blue,279,TRUE
299,1661987765.532,4036.2450680230245,1656.3484657158704,1000,5.99,-1.424,-0.856,126.0,red,279,TRUE
300,1661987765.639,3357.9009177646262,-2494.0722295066976,1000,4.623,-1.191,-0.551,108.8,yellow,279,TRUE
301,1661987767.937,3728.823431593512,2201.221793559933,1000,0.827,-1.129,0.11,1095.2,blue,279,TRUE
302,1661987769.014,3412.6032546554034,-2470.75206771738,1000,4.623,-1.2,-0.565,123.4,yellow,279,TRUE
303,1661987769.11,2926.4502874844843,-2635.149852541231,1000,5.106,-0.756,-0.136,117.3,green,279,TRUE
304,1661987769.368,3738.3215911921534,2162.975414034434,1000,0.899,-1.103,0.115,102.0,blue,279,TRUE
305,1661987769.457,4031.995772755711,1589.9453228383213,1000,5.912,-1.412,-0.865,119.1,red,279,TRUE
306,1661987769.559,3363.340710297438,-2430.1860552145226,1000,4.64,-1.186,-0.523,122.3,yellow,279,TRUE
307,1661987769.664,2953.947225447923,-2614.3894746287197,1000,5.108,-0.758,-0.143,106.9,green,279,TRUE
308,1661987769.853,3736.663434212897,2138.6932988680796,1000,0.887,-1.098,0.111,100.8,blue,279,TRUE
309,1661987769.943,4020.5814464553164,1587.405117967509,1000,5.914,-1.415,-0.894,116.7,red,279,TRUE
310,1661987770.046,3346.58178380447,-2443.4385954484565,1000,4.657,-1.18,-0.484,118.4,yellow,279,TRUE
311,1661987770.147,2978.789383322893,-2643.2772676557574,1000,5.107,-0.765,-0.143,105.8,green,279,TRUE
312,1661987770.335,3743.5733889305534,2127.8511411652325,1000,0.887,-1.09,0.108,99.5,blue,279,TRUE
313,1661987770.422,4033.157631565458,1555.7818198658608,1000,5.913,-1.415,-0.885,135.1,red,279,TRUE
314,1661987772.799,4060.4067196569213,1477.239030551893,1000,5.902,-1.421,-0.923,118.8,red,279,TRUE
315,1661987772.895,3295.9328928137165,-2439.3226697063806,1000,4.652,-1.234,-0.575,124.5,yellow,279,TRUE
316,1661987775.15,3780.0083325704836,2063.7553254604104,1000,0.862,-1.114,0.067,120.8,blue,279,TRUE
317,1661987775.249,4039.5299075355288,1479.2662123968303,1000,5.922,-1.431,-1.033,128.2,red,279,TRUE
318,1661987775.36,3299.3433258130026,-2463.292667729534,1000,4.643,-1.228,-0.593,123.5,yellow,279,TRUE
319,1661987781.017,3801.1758190799806,2025.7820020099045,1000,0.849,-1.08,0.067,123.9,blue,279,TRUE
320,1661987781.125,4028.5990742121626,1510.1848397263573,1000,5.851,-1.404,-0.884,120.9,red,279,TRUE
321,1661987781.225,3385.765194529414,-2487.624274807263,1000,4.599,-1.129,-0.312,111.0,yellow,279,TRUE
322,1661987783.464,3824.2445680759934,2001.5742869916692,1000,0.915,-1.092,0.014,119.7,blue,279,TRUE
323,1661987783.565,4018.6792716120885,1555.0050407344752,1000,5.761,-1.403,-1.449,126.6,red,279,TRUE
324,1661987783.67,3382.465938360352,-2495.2057106955695,1000,4.839,-0.785,0.063,112.1,yellow,279,TRUE
325,1661987783.768,2982.0778412863224,-2627.6124206757704,1000,5.069,-0.604,-0.093,104.3,green,279,TRUE
326,1661987784.008,3870.811836954026,1966.9262246374685,1000,0.965,-1.101,0.052,104.3,blue,279,TRUE
327,1661987784.101,4000.837574307223,1578.059834135532,1000,5.849,-1.43,-1.082,102.3,red,279,TRUE
328,1661987784.19,3358.688378954364,-2500.615495586014,1000,4.832,-0.795,0.067,105.5,yellow,279,TRUE
329,1661987784.281,2994.748397121319,-2638.371218946923,1000,5.067,-0.605,-0.103,106.6,green,279,TRUE
330,1661987784.475,3899.8468562694816,1952.0045270600451,1000,1.033,-1.096,0.076,137.4,blue,279,TRUE
331,1661987784.596,3948.4538406317733,1600.3839246453506,1000,6.1,-1.479,-0.052,107.3,red,279,TRUE
332,1661987784.691,3344.6149164876697,-2496.8274575636988,1000,4.835,-0.79,0.072,102.9,yellow,279,TRUE
333,1661987784.781,2979.7099453531296,-2632.217955242591,1000,5.069,-0.608,-0.098,103.5,green,279,TRUE
334,1661987784.965,3927.323686117115,1941.999501551786,1000,1.04,-1.104,0.097,146.5,blue,279,TRUE
335,1661987785.1,3944.930897519664,1641.3061647083669,1000,5.73,-1.45,-0.559,100.1,red,279,TRUE
336,1661987785.189,3363.4982029900693,-2493.0855253870373,1000,4.835,-0.786,0.072,101.1,yellow,279,TRUE
337,1661987785.277,2963.3021243863095,-2629.49739316774,1000,5.069,-0.61,-0.096,104.9,green,279,TRUE
338,1661987785.517,3920.5903883864216,2009.6587126273143,1000,1.078,-1.093,0.083,121.2,blue,279,TRUE
339,1661987785.621,3990.545143199038,1657.9932632756743,1000,5.33,-1.42,-1.398,105.6,red,279,TRUE
340,1661987785.712,3312.0504312576813,-2462.471739912485,1000,4.833,-0.783,0.072,105.7,yellow,279,TRUE
341,1661987785.805,2952.6572336450477,-2624.789895055153,1000,5.07,-0.603,-0.1,104.0,green,279,TRUE
342,1661987787.028,3616.982804165273,1185.2379713361854,1000,5.591,-1.449,-0.637,1141.3,red,279,TRUE
343,1661987788.139,2954.643471662894,-2622.681180495447,1000,5.063,-0.6,-0.094,118.6,green,279,TRUE
344,1661987789.435,3806.614105370593,1188.1277603567166,1000,5.555,-1.422,-0.685,1143.9,red,279,TRUE
345,1661987792.76,3881.683056526927,2095.1673040162464,1000,0.614,-1.1,0.064,1140.1,blue,279,TRUE
346,1661987793.88,3225.7409336988517,-2423.9321321266925,1000,4.823,-0.769,0.062,125.0,yellow,279,TRUE
347,1661987793.991,2942.5132588658057,-2625.043961094487,1000,5.065,-0.565,-0.094,119.1,green,279,TRUE
348,1661987794.172,3868.4694731821887,2140.5302150270454,1000,0.681,-1.086,0.152,104.1,blue,279,TRUE
349,1661987794.263,3821.4430575805213,1198.12890757761,1000,5.557,-1.462,-3.045,103.7,red,279,TRUE
350,1661987794.354,3297.15925919043,-2450.1577853698486,1000,4.823,-0.76,0.057,105.4,yellow,279,TRUE
351,1661987794.447,2935.334764937954,-2614.9334535439943,1000,5.065,-0.565,-0.095,100.7,green,279,TRUE
352,1661987794.652,3827.2774495542,2213.900602220426,1000,0.689,-1.095,0.148,108.1,blue,279,TRUE
353,1661987794.747,3850.2618623798257,1238.1436917837664,1000,5.56,-1.467,-3.046,102.3,red,279,TRUE
354,1661987794.834,3412.7864306285805,-2473.0793842063317,1000,4.82,-0.758,0.052,106.3,yellow,279,TRUE
355,1661987798.133,3819.5652874085586,1217.339686180291,1000,5.64,-1.472,-0.081,1141.2,red,279,TRUE
356,1661987799.252,2961.552940198431,-2634.876106643236,1000,5.077,-0.569,-0.091,129.8,green,279,TRUE
357,1661987799.518,3827.1598043874656,2257.4619612018173,1000,0.724,-1.077,0.104,120.5,blue,279,TRUE
358,1661987799.621,3834.1462379685,1243.784675945615,1000,5.587,-1.45,-0.822,106.6,red,279,TRUE
359,1661987799.713,3436.543420455539,-2482.4855474967353,1000,4.84,-0.764,0.059,106.0,yellow,279,TRUE
360,1661987799.806,2964.7831838272155,-2638.333643565877,1000,5.076,-0.568,-0.092,102.7,green,279,TRUE
361,1661987799.998,3812.100950434024,2298.9285182457065,1000,0.726,-1.072,0.107,107.8,blue,279,TRUE
362,1661987800.094,4211.991498338193,1768.1114164034818,1000,5.611,-1.443,-0.841,103.2,red,279,TRUE
363,1661987800.183,3436.171606374151,-2487.1514050470264,1000,4.84,-0.75,0.055,104.4,yellow,279,TRUE
364,1661987800.276,2969.114785821165,-2651.1755533332603,1000,5.08,-0.566,-0.088,86.2,green,279,TRUE
365,1661987800.444,3821.0082319287344,2311.9950618622083,1000,0.731,-1.064,0.104,114.0,blue,279,TRUE
366,1661987800.542,4035.0146741018375,1778.4044907293962,1000,5.629,-1.453,-0.093,122.0,red,279,TRUE
367,1661987800.647,3454.068926219159,-2478.776608753602,1000,4.844,-0.752,0.06,124.5,yellow,279,TRUE
368,1661987806.319,3795.1645472615996,2275.6140933304882,1000,0.797,-1.097,0.113,1141.7,blue,279,TRUE
369,1661987807.443,3455.9113372711945,-2477.583324709303,1000,4.851,-0.728,0.064,139.4,yellow,279,TRUE
370,1661987809.713,3785.8359358987086,2238.2744907297392,1000,0.753,-1.08,0.082,120.6,blue,279,TRUE
371,1661987809.813,4320.186949322829,1720.054156526792,1000,5.624,-1.397,-1.957,125.7,red,279,TRUE
372,1661987809.92,3440.84297177103,-2466.1953314746147,1000,4.862,-0.731,0.071,124.9,yellow,279,TRUE
373,1661987812.189,3812.6292356898543,2192.1419196429642,1000,0.774,-1.059,0.048,1132.1,blue,279,TRUE
374,1661987813.312,3457.8567727140094,-2469.980031503504,1000,4.913,-0.85,0.031,115.0,yellow,279,TRUE
375,1661987813.406,2944.9006419126795,-2662.864301070382,1000,5.064,-0.616,-0.032,110.7,green,279,TRUE
376,1661987813.668,3791.99161675433,2171.2958100186556,1000,0.773,-1.042,0.013,106.9,blue,279,TRUE
377,1661987813.762,4595.145047552399,1656.8478104288642,1000,5.611,-1.394,-2.025,104.5,red,279,TRUE
378,1661987813.853,3564.632743528698,-2480.896178805377,1000,4.913,-0.843,0.032,103.8,yellow,279,TRUE
379,1661987813.946,2937.983446102857,-2682.0786451547,1000,5.053,-0.612,-0.035,101.7,green,279,TRUE
380,1661987814.152,3777.6833292743263,2141.0282506234175,1000,0.767,-1.045,0.014,106.8,blue,279,TRUE
381,1661987814.247,4877.356489253255,1608.8378206776997,1000,5.611,-1.4,-1.986,104.5,red,279,TRUE
382,1661987814.337,3711.1330602145586,-2506.693887802303,1000,4.922,-0.83,0.038,119.3,yellow,279,TRUE
383,1661987814.432,2935.684769525231,-2705.2835079516603,1000,5.045,-0.603,-0.05,98.6,green,279,TRUE
384,1661987814.635,3753.2248590631207,2115.9663618314107,1000,0.765,-1.041,0.017,106.9,blue,279,TRUE
385,1661987814.728,5107.075924669499,1546.9682887438219,1000,5.613,-1.407,-1.93,121.4,red,279,TRUE
386,1661987815.863,2923.590210714428,-2694.0398599627365,1000,5.049,-0.589,-0.052,1187.7,green,279,TRUE
387,1661987817.056,3794.320960751653,2116.7115437807265,1000,0.774,-1.055,0.02,98.6,blue,279,TRUE
388,1661987817.147,5357.27981728388,1482.1037297654477,1000,5.472,-1.429,-1.633,127.6,red,279,TRUE
389,1661987819.487,3863.3971226826166,2119.4596325922053,1000,0.76,-1.058,-0.004,125.5,blue,279,TRUE
390,1661987819.594,5625.046270429248,1375.6656230719727,1000,5.119,-1.344,-1.66,124.8,red,279,TRUE
391,1661987822.054,5286.666464791103,1438.9306217588535,1000,0.059,-1.374,2.495,124.9,red,279,TRUE
392,1661987824.405,5266.528499383607,1455.0921088536504,1000,6.022,-1.497,3.113,132.8,red,279,TRUE
393,1661987826.775,5266.636111663569,1500.45929099908,1000,5.354,-1.427,-1.534,143.9,red,279,TRUE
394,1661987829.194,5273.873947654811,1553.6422909755163,1000,5.495,-1.472,-3.046,127.8,red,279,TRUE
395,1661987831.592,5332.245887457466,1649.34637921431,1000,5.384,-1.46,-3.03,113.4,red,279,TRUE
396,1661987833.96,5356.128146405116,1786.5837235459283,1000,5.305,-1.451,-3.037,115.7,red,279,TRUE
397,1661987836.382,5313.459944268545,1803.9517881680792,1000,4.789,-1.239,-2.062,142.9,red,279,TRUE
398,1661987838.798,4745.573518133905,2308.3980131899784,1000,4.856,-1.316,2.763,116.2,red,279,TRUE
399,1661987841.218,4176.001611425735,2876.7452692240363,1000,2.223,-1.352,-1.776,127.0,red,279,TRUE
400,1661987843.691,3809.5945877954455,2875.392905220933,1000,1.859,-1.354,-0.021,128.5,red,279,TRUE
401,1661987846.105,3675.374869877784,2797.3344322770013,1000,5.813,-1.506,-3.09,124.5,red,279,TRUE
402,1661987847.241,2813.1318373659306,-2769.951172221616,1000,5.031,-0.636,-0.092,1182.6,green,279,TRUE
403,1661987848.483,4181.6862375355,2181.2460523838777,1000,2.454,-1.185,-0.254,121.5,blue,279,TRUE
404,1661987848.607,5273.559606321825,1815.6879051298652,1000,5.926,-1.464,-0.035,1092.0,red,279,TRUE
405,1661987851.86,5358.142914371041,1812.0840687099712,1000,5.631,-1.437,-0.745,143.8,red,279,TRUE
406,1661987854.272,5452.146701748258,1754.8890669530529,1000,5.832,-1.45,-0.506,116.3,red,279,TRUE
407,1661987856.646,5473.253487656502,1731.9431583034557,1000,5.834,-1.446,-0.514,126.3,red,279,TRUE
408,1661987859.122,5470.910467169701,1693.2904896688153,1000,5.77,-1.443,-0.62,127.1,red,279,TRUE
409,1661987859.231,3745.8637738395923,-2516.733936978793,1000,4.996,-0.845,-0.014,123.4,yellow,279,TRUE
410,1661987859.338,2709.633149759352,-2715.151180637992,1000,4.95,-0.55,-0.035,90.2,green,279,TRUE
411,1661987859.58,5482.097826148131,1679.9982614265653,1000,5.736,-1.434,-0.603,122.5,red,279,TRUE
412,1661987861.973,5531.831099696701,1643.249280807008,1000,5.76,-1.419,-0.458,131.2,red,279,TRUE
413,1661987864.359,5554.530120460439,1621.6905213692255,1000,5.804,-1.404,-0.518,115.3,red,279,TRUE
414,1661987866.749,5540.400750830842,1607.42892401337,1000,5.935,-1.418,-0.284,113.9,red,279,TRUE
415,1661987867.885,2690.43518120471,-2731.5697623518195,1000,4.965,-0.551,-0.056,1192.3,green,279,TRUE
416,1661987869.168,3303.405950839953,2624.444432633982,1000,2.697,-1.188,-0.132,106.2,blue,279,TRUE
417,1661987869.266,5524.824322497326,1608.3525751702225,1000,5.661,-1.44,-2.275,115.6,red,279,TRUE
418,1661987879.446,5571.790588410608,1630.251102926902,1000,5.043,-1.378,-1.297,1159.7,red,279,TRUE
419,1661987880.59,2755.6225810261585,-2730.604810958588,1000,4.97,-0.638,-0.1,121.3,green,279,TRUE
420,1661987880.897,3633.2363978058056,2468.364869056998,1000,1.03,-1.224,-0.096,117.0,blue,279,TRUE
421,1661987880.992,5579.789887189091,1637.2880413400846,1000,5.018,-1.369,-1.251,111.8,red,279,TRUE
422,1661987881.091,3801.176704131605,-2547.6156988597213,1000,5.003,-0.638,-0.009,120.5,yellow,279,TRUE
423,1661987881.193,2792.0459543423376,-2729.587448133105,1000,4.961,-0.632,-0.098,107.2,green,279,TRUE
424,1661987881.454,3689.2929296009193,2406.5807923579814,1000,0.638,-1.185,-0.477,101.7,blue,279,TRUE
425,1661987881.542,5583.977962895879,1647.7985375460669,1000,5.028,-1.372,-1.299,119.9,red,279,TRUE
426,1661987881.645,3738.506646152282,-2526.6853453814683,1000,5.003,-0.634,-0.009,121.7,yellow,279,TRUE
427,1661987881.751,2831.312344460239,-2734.4451089616955,1000,4.957,-0.627,-0.098,106.4,green,279,TRUE
428,1661987882.014,3734.964687174059,2496.7322567954825,1000,0.742,-1.517,-0.038,100.8,blue,279,TRUE
429,1661987882.102,5578.46859270054,1630.1068640389283,1000,5.641,-1.453,-0.108,133.5,red,279,TRUE
430,1661987882.204,3689.685400933646,-2522.395035528891,1000,5.001,-0.629,-0.009,122.7,yellow,279,TRUE
431,1661987882.314,2833.1895197426998,-2707.381608600444,1000,4.957,-0.626,-0.097,103.6,green,279,TRUE
432,1661987882.584,3738.2613362463876,2568.7637987767425,1000,0.592,-1.289,-2.799,119.7,blue,279,TRUE
433,1661987882.687,5598.138534225635,1652.3035619965547,1000,5.767,-1.48,-0.089,106.3,red,279,TRUE
434,1661987882.78,3619.329276757558,-2519.9063381428664,1000,5.001,-0.625,-0.002,104.7,yellow,279,TRUE
435,1661987882.871,2885.2492117118713,-2718.368096447302,1000,4.956,-0.635,-0.092,104.0,green,279,TRUE
436,1661987883.141,3748.5724156786696,2609.850693531554,1000,0.734,-1.264,-2.955,123.6,blue,279,TRUE
437,1661987883.248,5669.315978879836,1633.4670144379033,1000,5.894,-1.488,-0.079,122.2,red,279,TRUE
438,1661987886.641,5685.419745736887,1700.170905887504,1000,5.813,-1.464,-3.042,1125.6,red,279,TRUE
439,1661987887.756,2928.3735440035907,-2708.542051102811,1000,4.956,-0.629,-0.099,114.3,green,279,TRUE
440,1661987887.984,3986.9594109403547,2615.7325056521504,1000,0.8,-1.293,-2.974,99.8,blue,279,TRUE
441,1661987888.071,5684.275332277514,1695.8486810339502,1000,5.788,-1.458,-3.042,131.7,red,279,TRUE
442,1661987894.825,5652.694066993553,1692.4279655885941,1000,5.82,-1.452,-3.024,1136.4,red,279,TRUE
443,1661987901.4,4028.315578404474,2697.4500963552896,1000,0.925,-1.413,2.865,116.6,blue,279,TRUE
444,1661987901.496,5644.070241804915,1675.1237004681395,1000,5.563,-1.405,-1.704,130.4,red,279,TRUE
445,1661987901.631,3656.7540412402695,-2639.9768500089062,1000,5.036,-0.607,-0.002,1092.0,yellow,279,TRUE
446,1661987902.899,4050.8095750357975,2788.450478915702,1000,0.925,-1.418,2.81,112.7,blue,279,TRUE
447,1661987903.0,5636.57761143073,1610.4239920255823,1000,5.559,-1.406,-1.851,115.7,red,279,TRUE
448,1661987903.088,3567.9015059414023,-2581.6236308538873,1000,5.037,-0.607,-0.002,117.9,yellow,279,TRUE
449,1661987906.485,3575.9010683135025,-2536.330265358653,1000,5.037,-0.624,-0.004,1140.7,yellow,279,TRUE
450,1661987912.154,3889.4423818903197,2213.856027903375,1000,2.369,-1.052,-0.337,126.4,blue,279,TRUE
451,1661987912.259,5559.257057873551,1611.5275394776008,1000,5.768,-1.429,-1.598,124.3,red,279,TRUE
452,1661987915.72,5577.334379657441,1535.735467017805,1000,5.842,-1.473,-0.092,1139.5,red,279,TRUE
453,1661987916.844,2952.56623903404,-2705.560984137335,1000,5.029,-0.639,-0.081,110.8,green,279,TRUE
454,1661987917.133,3650.3075603807447,1705.6758084421065,1000,2.884,-1.095,-0.272,104.2,blue,279,TRUE
455,1661987917.223,5576.777482156666,1542.2570999350512,1000,5.84,-1.479,-0.089,118.9,red,279,TRUE
456,1661987918.354,2971.2953855081723,-2715.9403785167574,1000,5.045,-0.641,-0.088,1128.8,green,279,TRUE
457,1661987920.604,5687.4831460468695,1515.8986354009055,1000,5.837,-1.479,-0.091,1125.8,red,279,TRUE
458,1661987921.714,2932.592363709804,-2716.4786736977526,1000,5.039,-0.616,-0.08,120.1,green,279,TRUE
459,1661987922.005,3500.944531847525,1180.2504337099044,1000,2.397,-1.186,-0.131,100.4,blue,279,TRUE
460,1661987922.092,5709.687632330771,1549.5060189023322,1000,5.836,-1.478,-0.091,117.1,red,279,TRUE
461,1661987925.501,5697.914516696452,1627.910103736687,1000,5.833,-1.478,-0.092,1154.5,red,279,TRUE
462,1661987926.637,2949.8260967006486,-2717.3788621037397,1000,5.053,-0.657,-0.075,110.1,green,279,TRUE
463,1661987926.919,3154.153200493804,767.3624498217509,1000,1.311,-1.095,-0.084,100.5,blue,279,TRUE
464,1661987927.007,5741.222781016663,1615.4891728691857,1000,5.8,-1.451,-1.71,118.0,red,279,TRUE
465,1661987930.358,5758.827136748224,1590.4854259109118,1000,5.799,-1.449,-1.712,1140.6,red,279,TRUE
466,1661987931.476,2936.226264809975,-2717.17274335757,1000,5.055,-0.615,-0.036,129.1,green,279,TRUE
467,1661987931.775,2914.52605288367,313.7305983359094,1000,1.208,-1.174,-0.073,103.4,blue,279,TRUE
468,1661987931.865,5764.720688170804,1562.6388579764464,1000,5.796,-1.445,-1.793,103.9,red,279,TRUE
469,1661987931.956,3563.963412827081,-2534.2434455341327,1000,5.077,-0.704,-0.044,104.0,yellow,279,TRUE
470,1661987932.048,2901.6905039128455,-2698.305581969208,1000,5.073,-0.637,-0.039,87.4,green,279,TRUE
471,1661987932.302,2732.1977259251867,-115.19421176440534,1000,1.19,-1.089,-0.129,107.3,blue,279,TRUE
472,1661987932.397,5683.089642401453,1599.9961381785233,1000,5.793,-1.443,-1.836,116.9,red,279,TRUE
473,1661987935.776,5696.529238505326,1629.9061681575913,1000,5.698,-1.491,-0.031,1136.8,red,279,TRUE
474,1661987939.049,2745.444714854284,26.779923462635477,1000,0.471,-1.065,-0.249,1135.6,blue,279,TRUE
475,1661987943.451,5645.0574578475835,1521.4116019522296,1000,3.768,-1.371,-2.322,139.5,red,279,TRUE
476,1661987946.857,5119.812912345861,2034.2294813516721,1000,5.351,-1.487,-0.08,1144.0,red,279,TRUE
477,1661987947.985,2865.4433256791312,-2684.639030495759,1000,5.139,-0.704,-0.065,121.1,green,279,TRUE
478,1661987948.275,2817.5268186798767,113.24078722767831,1000,0.77,-1.06,0.051,101.9,blue,279,TRUE
479,1661987948.364,4612.3291108976155,2485.40610996771,1000,1.068,-1.444,-1.021,118.5,red,279,TRUE
480,1661987951.812,4541.327481673602,2486.224858272178,1000,5.529,-1.489,-0.069,1142.6,red,279,TRUE
481,1661987955.097,2789.3746113978546,251.64278101164822,1000,0.517,-0.952,-0.122,123.6,blue,279,TRUE
482,1661987955.202,4479.98054859357,2475.955683309071,1000,5.726,-1.443,-0.36,123.6,red,279,TRUE
483,1661987958.666,4368.582075626278,2490.1408050103882,1000,5.522,-1.42,-0.35,1143.6,red,279,TRUE
484,1661987968.842,2820.242678489285,283.06460304910405,1000,0.458,-0.909,-0.142,116.6,blue,279,TRUE
485,1661987968.937,4364.011246232497,2591.282130785064,1000,5.466,-1.468,-0.048,126.6,red,279,TRUE
486,1661987972.339,4854.387222094895,2091.47457301433,1000,5.123,-1.429,-0.923,115.5,red,279,TRUE
487,1661987975.774,5213.083846248887,1671.4343400706994,1000,5.159,-1.426,-0.641,127.6,red,279,TRUE
488,1661987975.879,3566.497847801551,-2544.9967407271924,1000,5.147,-0.838,0.033,128.5,yellow,279,TRUE
489,1661987975.986,2829.540219027686,-2661.3079456387773,1000,5.172,-0.595,-0.023,111.1,green,279,TRUE
490,1661987976.278,2801.7092645154257,317.67783119670736,1000,6.197,-1.088,-0.07,107.8,blue,279,TRUE
491,1661987976.371,5215.630693825092,1690.1184928426992,1000,5.157,-1.431,-0.677,105.5,red,279,TRUE
492,1661987976.463,3638.2849423757834,-2551.6628206335486,1000,5.149,-0.836,0.034,103.4,yellow,279,TRUE
493,1661987976.557,2826.012863048576,-2638.6494331213016,1000,5.193,-0.628,-0.056,100.7,green,279,TRUE
494,1661987976.836,2776.875701016903,318.8070247058069,1000,6.209,-1.105,-0.079,105.3,blue,279,TRUE
495,1661987976.927,5214.437029642869,1680.89575888761,1000,5.153,-1.439,-0.723,105.2,red,279,TRUE
496,1661987977.022,3655.213943273459,-2525.615821256849,1000,5.141,-0.838,0.026,101.1,yellow,279,TRUE
497,1661987977.11,2799.9172644330433,-2641.9482991719638,1000,5.195,-0.629,-0.055,118.2,green,279,TRUE
498,1661987977.409,2727.2711447159636,381.5812889788963,1000,0.123,-1.104,0.016,105.4,blue,279,TRUE
499,1661987977.5,5237.719230951924,1629.1598481502508,1000,5.153,-1.429,-0.671,120.2,red,279,TRUE
500,1661987977.623,3637.7761283131695,-2551.1221436791357,1000,5.142,-0.837,0.031,1098.7,yellow,279,TRUE
501,1661987978.893,2701.9490056861664,368.1678625044601,1000,0.404,-1.198,0.133,99.6,blue,279,TRUE
502,1661987978.98,5234.800292894785,1604.3488377960293,1000,5.149,-1.436,-0.722,102.0,red,279,TRUE
503,1661987979.072,3672.3562970951275,-2533.293867313507,1000,5.142,-0.828,0.029,100.0,yellow,279,TRUE
504,1661987979.159,2811.7281532367415,-2648.596578201285,1000,5.22,-0.657,-0.014,103.5,green,279,TRUE
505,1661987979.43,2688.115339240304,334.91135939892996,1000,0.216,-1.289,0.081,103.3,blue,279,TRUE
506,1661987979.523,5194.137018661436,1610.3020243411308,1000,5.148,-1.418,-0.621,102.5,red,279,TRUE
507,1661987979.614,3750.3456903613755,-2546.839055403311,1000,5.135,-0.824,0.025,116.9,yellow,279,TRUE
508,1661987979.703,2845.619916937301,-2676.23140558803,1000,5.224,-0.653,-0.012,118.5,green,279,TRUE
509,1661987979.988,2659.938986075246,356.9330352573106,1000,0.16,-1.067,-0.033,105.2,blue,279,TRUE
510,1661987980.081,5230.847735253951,1631.3900858491777,1000,4.957,-1.406,-0.697,105.8,red,279,TRUE
511,1661987980.172,3732.5898296803302,-2536.69938561418,1000,5.132,-0.83,0.012,133.9,yellow,279,TRUE
512,1661987980.274,2826.1101326023713,-2667.647738218435,1000,5.225,-0.653,-0.014,92.4,green,279,TRUE
513,1661987980.536,2678.233236170016,358.98102048299035,1000,0.218,-1.12,-0.039,101.1,blue,279,TRUE
514,1661987980.624,5261.37339666651,1657.2081231395111,1000,5.058,-1.405,-0.676,104.3,red,279,TRUE
515,1661987980.715,3726.595517571618,-2523.9480271069306,1000,5.136,-0.827,0.016,119.5,yellow,279,TRUE
516,1661987980.817,2832.587239943399,-2678.4180943423617,1000,5.225,-0.653,-0.015,107.0,green,279,TRUE
517,1661987981.094,2681.0164732173976,365.041124493376,1000,0.43,-1.173,0.044,102.0,blue,279,TRUE
518,1661987981.182,5290.994692047862,1688.6635436996423,1000,5.12,-1.409,-0.71,121.2,red,279,TRUE
519,1661987981.285,3719.711631387008,-2513.767295686342,1000,5.144,-0.83,0.017,106.4,yellow,279,TRUE
520,1661987981.378,2849.9001350017575,-2691.5738448670713,1000,5.222,-0.648,-0.034,91.2,green,279,TRUE
521,1661987981.653,2685.283076776182,317.6990833253587,1000,0.386,-1.18,0.009,117.9,blue,279,TRUE
522,1661987981.753,5326.329954533489,1713.84889955116,1000,5.144,-1.409,-0.702,121.5,red,279,TRUE
523,1661987985.13,5340.878085334605,1725.0462089733119,1000,5.168,-1.413,-0.706,126.8,red,279,TRUE
524,1661987985.238,3740.8032343787618,-2512.466995377108,1000,5.162,-0.822,0.002,109.2,yellow,279,TRUE
525,1661987985.327,2869.053600365544,-2702.245751818611,1000,5.223,-0.641,-0.047,95.3,green,279,TRUE
526,1661987985.595,2702.640502166331,374.63029310187136,1000,0.121,-1.109,-0.017,114.4,blue,279,TRUE
527,1661987985.697,5353.023048950056,1721.2023469372607,1000,5.168,-1.422,-0.757,119.9,red,279,TRUE
528,1661987985.799,3753.548705571086,-2523.3487629619453,1000,5.164,-0.821,-0.002,106.2,yellow,279,TRUE
529,1661987985.891,2873.771241750886,-2694.232727819474,1000,5.225,-0.647,-0.047,91.0,green,279,TRUE
530,1661987986.148,2713.3019437378666,420.9065989562643,1000,0.181,-1.119,0.011,121.0,blue,279,TRUE
531,1661987986.251,5340.253943377771,1690.582552609414,1000,5.196,-1.425,-0.717,111.4,red,279,TRUE
532,1661987986.345,3708.4840269744877,-2499.718642409016,1000,5.148,-0.817,-0.009,103.5,yellow,279,TRUE
533,1661987986.435,2881.43881499552,-2687.8724307213483,1000,5.226,-0.645,-0.047,106.3,green,279,TRUE
534,1661987986.708,2733.4365510303583,378.9955356384623,1000,0.241,-1.127,0.043,118.0,blue,279,TRUE
535,1661987986.809,5346.260760297566,1671.2064128156328,1000,5.73,-1.451,-0.252,120.7,red,279,TRUE
536,1661987991.332,2901.9218833297123,-2702.026077261429,1000,5.226,-0.69,-0.044,110.5,green,279,TRUE
537,1661987991.643,5744.523837959187,2155.3734940020186,1000,5.606,-1.484,-0.068,116.3,red,279,TRUE
538,1661987991.742,3686.037212756077,-2495.97736314004,1000,5.173,-0.853,0.002,121.1,yellow,279,TRUE
539,1661987991.845,2910.146307191031,-2699.9070001305545,1000,5.226,-0.672,-0.045,93.1,green,279,TRUE
540,1661987992.107,2627.528051955121,-30.015164824764312,1000,1.069,-1.107,0.194,103.4,blue,279,TRUE
541,1661987992.197,5669.482185357909,1899.280586731391,1000,5.791,-1.503,-0.041,118.6,red,279,TRUE
542,1661987992.298,3685.1148639259995,-2513.2455277838076,1000,5.163,-0.853,-0.008,137.0,yellow,279,TRUE
543,1661987992.407,2908.411658331923,-2699.631164589156,1000,5.227,-0.67,-0.046,89.7,green,279,TRUE
544,1661987992.664,2616.725921208188,106.6514107388802,1000,0.475,-1.121,-0.001,120.9,blue,279,TRUE
545,1661987992.768,5653.12409950717,1811.7700562752132,1000,5.936,-1.467,-0.016,121.7,red,279,TRUE
546,1661988004.18,2617.9361448490276,-1922.2874799733029,1000,5.224,-0.678,-0.057,1163.0,green,279,TRUE
547,1661988005.426,2645.102366494874,235.71582674756303,1000,0.074,-1.077,-0.011,127.4,blue,279,TRUE
548,1661988005.539,5712.853141472479,1832.989000781285,1000,5.26,-1.448,-1.598,120.2,red,279,TRUE
549,1661988008.892,5750.334322064446,1854.7876402074623,1000,5.258,-1.446,-1.624,1142.1,red,279,TRUE
550,1661988010.011,2611.4238833771433,-1917.7738981501109,1000,5.229,-0.634,-0.058,127.0,green,279,TRUE
551,1661988010.305,2664.6103491275835,323.1712549701354,1000,6.253,-1.064,-0.049,102.7,blue,279,TRUE
552,1661988010.394,5771.98402812459,1849.990976878608,1000,5.26,-1.446,-1.511,104.6,red,279,TRUE
553,1661988010.485,3679.6073962300457,-2530.934646741913,1000,5.208,-0.948,0.037,104.7,yellow,279,TRUE
554,1661988010.578,2615.6943123215747,-1923.4785242034116,1000,5.231,-0.636,-0.053,102.6,green,279,TRUE
555,1661988010.859,2683.699495346772,354.8563662797147,1000,6.021,-0.981,-0.143,108.7,blue,279,TRUE
556,1661988010.955,5794.103618319333,1806.9682500571319,1000,5.258,-1.446,-1.574,103.0,red,279,TRUE
557,1661988011.047,3659.8753237458363,-2535.086839262573,1000,5.202,-0.952,0.027,101.2,yellow,279,TRUE
558,1661988011.135,2625.0095779194103,-1934.5383618502856,1000,5.229,-0.645,-0.052,102.6,green,279,TRUE
559,1661988011.42,2685.768986549867,382.85145869830257,1000,6.195,-0.987,-0.096,106.0,blue,279,TRUE
560,1661988011.513,5841.485382517626,1853.6357164757853,1000,5.257,-1.446,-1.634,103.1,red,279,TRUE
561,1661988011.604,3639.910411174233,-2529.78441062111,1000,5.201,-0.956,0.029,102.4,yellow,279,TRUE
562,1661988011.696,2612.3515746782123,-1934.92683485421,1000,5.231,-0.644,-0.052,102.5,green,279,TRUE
563,1661988011.965,2703.579645168172,461.79902214214263,1000,6.029,-0.997,-0.123,102.5,blue,279,TRUE
564,1661988012.057,5887.001427134273,1891.2427279328092,1000,5.259,-1.446,-1.576,101.2,red,279,TRUE
565,1661988012.144,3646.6336317016444,-2554.116976044311,1000,5.193,-0.957,0.011,120.1,yellow,279,TRUE
566,1661988012.247,2620.30311573045,-1935.623767729062,1000,5.231,-0.641,-0.053,108.8,green,279,TRUE
567,1661988012.523,2729.089151864005,486.48918208326995,1000,6.038,-0.997,-0.147,103.8,blue,279,TRUE
568,1661988012.616,5882.5738897910405,1875.9902021008904,1000,5.259,-1.446,-1.563,101.5,red,279,TRUE
569,1661988012.706,3660.760366533525,-2571.0871282785915,1000,5.147,-1.117,-0.12,102.6,yellow,279,TRUE
570,1661988013.052,2734.246860091415,483.00507383082686,1000,6.048,-0.992,-0.139,101.6,blue,279,TRUE
571,1661988013.141,5878.003263536648,1858.6937871361722,1000,5.259,-1.446,-1.565,118.3,red,279,TRUE
572,1661988013.242,3659.8134654262135,-2566.0114071539633,1000,5.116,-1.103,-0.179,136.5,yellow,279,TRUE
573,1661988013.347,2880.623236732801,-2701.409963785241,1000,5.231,-0.636,-0.053,91.6,green,279,TRUE
574,1661988013.608,2734.6341259263504,451.27148444812383,1000,6.048,-0.994,-0.134,101.5,blue,279,TRUE
575,1661988013.699,5877.780462549877,1862.60730352704,1000,5.259,-1.446,-1.593,102.0,red,279,TRUE
576,1661988013.788,3661.8610004115685,-2565.191297588237,1000,5.095,-1.076,-0.177,103.6,yellow,279,TRUE
577,1661988013.877,2896.802054183584,-2710.9875832808216,1000,5.232,-0.644,-0.053,90.1,green,279,TRUE
578,1661988014.135,2727.052772446867,437.60341307937546,1000,6.076,-1.016,-0.109,118.9,blue,279,TRUE
579,1661988014.237,5879.28394515878,1869.1214158912637,1000,5.258,-1.446,-1.652,121.5,red,279,TRUE
580,1661988014.341,3652.2281775063943,-2563.900763914361,1000,5.109,-1.107,-0.188,108.1,yellow,279,TRUE
581,1661988014.435,2897.2261508979714,-2706.3847454544098,1000,5.234,-0.641,-0.059,106.5,green,279,TRUE
582,1661988014.71,2741.0803282365273,405.18441982749914,1000,0.11,-1.024,-0.1,105.3,blue,279,TRUE
583,1661988014.802,5875.196813951195,1863.9130887918,1000,5.258,-1.446,-1.623,103.3,red,279,TRUE
584,1661988014.893,3658.1441054348093,-2597.882733300544,1000,5.106,-1.09,-0.158,105.5,yellow,279,TRUE
585,1661988014.985,2894.6124283388526,-2708.6713304605746,1000,5.234,-0.641,-0.055,117.6,green,279,TRUE
586,1661988015.281,2767.652036376909,412.57927761732964,1000,0.316,-0.949,-0.001,107.2,blue,279,TRUE
587,1661988015.374,5869.088204212297,1860.878622669329,1000,5.259,-1.446,-1.549,104.3,red,279,TRUE
588,1661988015.465,3600.662076044702,-2576.5457823739653,1000,5.099,-1.085,-0.16,104.9,yellow,279,TRUE
589,1661988015.559,2890.9219206756375,-2700.7946875058374,1000,5.231,-0.635,-0.052,115.9,green,279,TRUE
590,1661988015.842,2786.7779344348605,434.6933947522443,1000,0.635,-0.982,-0.049,106.0,blue,279,TRUE
591,1661988015.935,5874.678246912476,1854.3632650146076,1000,5.26,-1.446,-1.491,104.2,red,279,TRUE
592,1661988016.024,3571.7825459745854,-2562.4206596467025,1000,5.131,-1.065,-0.034,106.1,yellow,279,TRUE
593,1661988016.119,2868.772811555962,-2675.198007319622,1000,5.236,-0.617,-0.046,117.7,green,279,TRUE
594,1661988016.417,2801.4499721132584,425.9851327261828,1000,1.118,-0.988,-0.122,105.8,blue,279,TRUE
