,timestamp,x,y,z,yaw,roll,pitch,latency,student,session,success
0,1661991189.401,1171.1584038818698,-866.7506596594612,1000,5.97,-1.376,0.578,135.4,red,280,TRUE
1,1661991191.788,1567.974285307809,-33.55996356858918,1000,0.946,-1.536,3.107,115.2,red,280,TRUE
2,1661991191.885,3617.6333308270937,-1522.59551739231,1000,5.286,-1.02,-0.119,128.7,yellow,280,TRUE
3,1661991201.099,1893.2985699964242,279.4366977367345,1000,0.519,-1.466,0.083,126.7,red,280,TRUE
4,1661991202.388,4704.4697576325825,3381.22285652076,1000,5.208,-1.448,1.716,102.8,blue,280,TRUE
5,1661991202.477,2010.4207284165254,535.3524168154012,1000,5.576,-1.53,0.027,133.7,red,280,TRUE
6,1661991203.777,4375.578524582673,3166.979597594887,1000,4.791,-1.524,3.101,114.8,blue,280,TRUE
7,1661991203.88,2075.152523399986,783.579174631359,1000,4.937,-1.237,-2.866,117.1,red,280,TRUE
8,1661991205.162,3929.8656869187907,3038.1633041437394,1000,3.358,-1.494,-3.126,116.1,blue,280,TRUE
9,1661991205.256,2429.022294276207,1487.6135747771816,1000,6.066,-1.536,0.033,127.2,red,280,TRUE
10,1661991206.612,3602.1536971063056,2994.7043363489793,1000,3.263,-1.478,0.035,100.2,blue,280,TRUE
11,1661991206.698,2699.799348758965,2004.1811647654074,1000,5.916,-1.475,0.044,118.0,red,280,TRUE
12,1661991208.964,3364.876095613028,2996.835933666207,1000,0.164,-1.52,-3.09,1139.1,blue,280,TRUE
13,1661991215.708,2906.3333901523024,2913.588428345591,1000,2.464,-1.563,3.135,127.3,blue,280,TRUE
14,1661991215.819,2950.5261126552614,2189.143656777875,1000,2.44,-1.448,0.173,123.0,red,280,TRUE
15,1661991218.095,2888.2022905127446,3056.2014093255298,1000,2.169,-1.508,3.137,1138.5,blue,280,TRUE
16,1661991220.449,2842.076361541151,3082.7444117594064,1000,3.362,-1.523,0.033,97.8,blue,280,TRUE
17,1661991220.534,3025.4699312687953,2562.6692481032733,1000,3.934,-1.451,0.118,117.1,red,280,TRUE
18,1661991221.853,2864.5157831429146,3140.2269198931276,1000,3.57,-1.534,0.024,110.6,blue,280,TRUE
19,1661991221.95,3069.0069938079628,2971.3393476160795,1000,4.037,-1.478,0.053,119.2,red,280,TRUE
20,1661991223.253,2822.440484114764,3177.5048550060856,1000,3.409,-1.524,3.096,110.4,blue,280,TRUE
21,1661991223.355,3076.148254036249,3301.938049237235,1000,2.719,-1.433,0.538,127.5,red,280,TRUE
22,1661991224.665,2663.893986572208,3185.9740245391063,1000,3.168,-1.476,0.001,114.3,blue,280,TRUE
23,1661991224.766,2986.268294088302,3537.787868707442,1000,2.293,-1.47,0.079,120.4,red,280,TRUE
24,1661991228.165,2849.697987580616,3612.2011065763822,1000,2.222,-1.467,0.075,1143.1,red,280,TRUE
25,1661991231.466,2633.648604427841,3330.488724994851,1000,3.367,-1.462,3.046,103.3,blue,280,TRUE
26,1661991231.556,2621.007401183946,3844.6072917440865,1000,2.45,-1.414,0.61,117.7,red,280,TRUE
27,1661991234.95,2488.67089932746,3908.3825622129625,1000,2.422,-1.385,0.469,127.7,red,280,TRUE
28,1661991239.728,2602.2253849943177,3535.1662865842604,1000,3.103,-1.541,-0.01,110.5,blue,280,TRUE
29,1661991239.828,2454.933085014867,3928.1806894801507,1000,2.423,-1.38,0.456,115.2,red,280,TRUE
30,1661991241.142,2670.872876553273,3665.412303904234,1000,3.22,-1.485,-0.003,99.7,blue,280,TRUE
31,1661991241.231,2480.753056974132,3936.3464889660304,1000,2.442,-1.396,0.429,115.9,red,280,TRUE
32,1661991242.536,2680.662552521408,3634.398482935989,1000,3.271,-1.482,0.011,110.6,blue,280,TRUE
33,1661991242.633,2511.2208928529312,3967.354997494726,1000,1.998,-1.44,0.726,120.6,red,280,TRUE
34,1661991243.955,2708.7849851858446,3588.636312859708,1000,3.222,-1.482,0.016,109.4,blue,280,TRUE
35,1661991244.055,2509.6925370987788,3996.569402428122,1000,2.013,-1.485,0.047,116.6,red,280,TRUE
36,1661991245.312,2683.546868591132,3557.078067761664,1000,3.216,-1.503,0.016,98.3,blue,280,TRUE
37,1661991245.397,2504.1516297885514,3953.306969820073,1000,1.825,-1.49,0.035,135.8,red,280,TRUE
38,1661991246.734,2663.045915063389,3504.5639252410288,1000,3.272,-1.477,0.015,129.5,blue,280,TRUE
39,1661991246.839,2494.417043389634,3953.7421654220907,1000,1.828,-1.463,0.059,127.9,red,280,TRUE
40,1661991248.163,2693.350937655347,3508.4174631006777,1000,3.288,-1.461,0.014,113.0,blue,280,TRUE
41,1661991248.263,2479.4308948385924,3901.8907424720983,1000,1.836,-1.462,0.053,119.5,red,280,TRUE
42,1661991249.569,2641.9547994842774,3512.0381510372913,1000,3.263,-1.417,0.179,109.6,blue,280,TRUE
43,1661991249.665,2450.0315163917344,3872.366249986799,1000,1.848,-1.463,0.056,120.1,red,280,TRUE
44,1661991250.972,2627.744728102754,3535.480721912491,1000,3.259,-1.416,0.133,110.5,blue,280,TRUE
45,1661991251.069,2458.5614809182075,3857.0366269219717,1000,1.837,-1.465,0.056,102.8,red,280,TRUE
46,1661991251.157,3651.144781761039,-1735.2871229195262,1000,5.273,-0.858,-0.089,93.7,yellow,280,TRUE
47,1661991251.49,2608.7393546619046,3540.7384741226906,1000,3.265,-1.446,0.131,119.5,blue,280,TRUE
48,1661991251.592,2442.9191654600263,3856.2187868685455,1000,1.833,-1.463,0.055,108.7,red,280,TRUE
49,1661991251.686,3692.7771024725553,-1967.714313091494,1000,5.273,-0.856,-0.089,94.2,yellow,280,TRUE
50,1661991251.986,2624.20433690684,3498.070899994847,1000,3.268,-1.433,0.076,123.1,blue,280,TRUE
51,1661991252.091,2418.9438981098247,3857.5205044986283,1000,1.825,-1.463,0.055,124.1,red,280,TRUE
52,1661991253.417,2630.1772274401533,3599.792950554162,1000,3.255,-1.427,0.016,128.2,blue,280,TRUE
53,1661991253.522,2410.250133841781,3870.763496550316,1000,1.825,-1.463,0.055,113.0,red,280,TRUE
54,1661991253.623,3706.719192541073,-2162.377429286972,1000,5.273,-0.855,-0.089,91.0,yellow,280,TRUE
55,1661991253.889,2555.9126389413195,3586.097876676822,1000,3.25,-1.442,0.051,122.6,blue,280,TRUE
56,1661991253.994,2387.2928707985316,3900.642790643094,1000,1.825,-1.462,0.055,138.0,red,280,TRUE
57,1661991255.306,2549.6304140839165,3605.8367030797945,1000,3.24,-1.462,0.012,110.0,blue,280,TRUE
58,1661991255.404,2391.8817575392636,3912.3712310036085,1000,1.829,-1.462,0.055,117.9,red,280,TRUE
59,1661991256.705,2568.663809935831,3655.293143259001,1000,3.235,-1.475,0.013,99.2,blue,280,TRUE
60,1661991256.794,2388.4669779926976,3930.041545464026,1000,1.83,-1.462,0.055,115.7,red,280,TRUE
61,1661991257.937,2730.878534542577,-1506.1485037597656,1000,6.122,-0.397,-0.061,1149.4,green,280,TRUE
62,1661991259.152,2559.749566975175,3638.746037371899,1000,3.271,-1.481,0.015,113.9,blue,280,TRUE
63,1661991259.251,2398.3554397468156,3965.1357324522946,1000,1.83,-1.466,0.053,105.9,red,280,TRUE
64,1661991259.345,3762.218300783347,-2387.6134511170467,1000,5.277,-0.85,-0.085,117.9,yellow,280,TRUE
65,1661991261.591,2580.54729596894,3768.0898478191557,1000,4.544,-1.545,3.124,121.9,blue,280,TRUE
66,1661991261.692,2413.5009005918796,3997.614400021253,1000,2.926,-1.385,0.658,127.4,red,280,TRUE
67,1661991273.282,2579.212472079329,4293.513470535688,1000,3.876,-1.51,0.013,124.4,blue,280,TRUE
68,1661991273.391,2330.361033040508,4387.740663911463,1000,4.844,-1.469,0.05,120.8,red,280,TRUE
69,1661991274.711,2608.9927513591824,4877.704136235229,1000,3.853,-1.474,0.007,113.3,blue,280,TRUE
70,1661991274.811,2303.4954498643287,4769.9821152231425,1000,4.851,-1.467,0.057,117.7,red,280,TRUE
71,1661991278.224,2377.130664985348,5353.79940561195,1000,4.842,-1.481,0.049,1153.8,red,280,TRUE
72,1661991279.358,2735.9185770510867,-1848.6391363969215,1000,6.148,-0.408,-0.111,155.2,green,280,TRUE
73,1661991279.68,2645.341977248872,5453.625617814344,1000,3.685,-1.46,0.028,105.0,blue,280,TRUE
74,1661991279.774,2286.6073404807807,5755.008047561358,1000,4.849,-1.473,0.05,115.2,red,280,TRUE
75,1661991283.154,2218.2777595752527,6133.340499701907,1000,4.866,-1.467,0.05,115.5,red,280,TRUE
76,1661991289.903,2136.959714535829,6529.939934335965,1000,4.914,-1.47,0.052,1153.7,red,280,TRUE
77,1661991291.042,2789.178396754676,-2159.602781963087,1000,6.147,-0.423,-0.119,118.7,green,280,TRUE
78,1661991291.332,2633.9999285919516,6033.882529490198,1000,3.936,-1.482,0.04,102.2,blue,280,TRUE
79,1661991291.422,2177.714721253234,6537.081149488862,1000,4.92,-1.466,0.049,100.7,red,280,TRUE
80,1661991291.509,3845.242956953003,-2610.1946753652596,1000,5.305,-0.829,-0.024,135.8,yellow,280,TRUE
81,1661991300.574,2647.8128808470933,6651.566781616508,1000,3.662,-1.485,0.0,123.7,blue,280,TRUE
82,1661991300.705,2544.8622573369953,6316.346872838456,1000,6.079,-1.486,0.028,1083.1,red,280,TRUE
83,1661991301.778,2859.1142259000867,-2410.110382844891,1000,6.14,-0.418,-0.133,101.7,green,280,TRUE
84,1661991302.063,2642.1348400493566,7146.395758086033,1000,3.835,-1.51,0.057,101.2,blue,280,TRUE
85,1661991302.152,2617.5252250138783,6305.474156854889,1000,6.136,-1.476,0.041,119.0,red,280,TRUE
86,1661991305.558,2614.7451231800746,6339.551788913569,1000,5.764,-1.524,0.014,127.1,red,280,TRUE
87,1661991308.998,2868.3668871882305,5610.939328144588,1000,2.052,-1.403,0.02,1159.9,red,280,TRUE
88,1661991312.297,2976.438456897649,6570.059769220941,1000,0.771,-1.526,-3.103,130.9,blue,280,TRUE
89,1661991312.405,3104.527771743262,4863.751725726897,1000,0.071,-1.43,1.394,139.7,red,280,TRUE
90,1661991319.221,3341.1058795581375,4247.319369163971,1000,5.776,-1.372,1.757,1138.2,red,280,TRUE
91,1661991320.338,2860.9368780712725,-2654.256191505266,1000,6.135,-0.412,-0.143,109.9,green,280,TRUE
92,1661991326.437,3470.1652749169475,5778.56821195978,1000,3.482,-1.453,-3.141,99.9,blue,280,TRUE
93,1661991326.524,3859.223071441109,3430.597592884708,1000,4.647,-1.522,0.024,103.1,red,280,TRUE
94,1661991326.64,2879.6289942059325,-2795.056735103231,1000,6.116,-0.425,-0.113,91.9,green,280,TRUE
95,1661991336.016,5133.169524960763,2848.479887787687,1000,3.642,-1.45,3.021,1175.6,blue,280,TRUE
96,1661991337.2,2912.13973632474,-2783.818429677123,1000,6.121,-0.421,-0.139,127.7,green,280,TRUE
97,1661991340.923,4295.897007676542,3349.007713696611,1000,5.572,-1.358,-2.617,1143.3,blue,280,TRUE
98,1661991342.051,3630.8102257448595,-2530.0863999701305,1000,4.272,-1.431,3.062,121.9,yellow,280,TRUE
99,1661991342.15,2733.73899773085,-2614.1486204573603,1000,5.094,-1.148,0.281,97.3,green,280,TRUE
100,1661991342.433,3716.999203223753,3590.3800025633595,1000,5.76,-1.564,0.001,100.9,blue,280,TRUE
101,1661991342.519,4408.3528275654635,2611.1139796863813,1000,5.636,-1.376,0.874,121.0,red,280,TRUE
102,1661991342.623,3331.1125938146033,-2357.3821393809544,1000,4.416,-1.436,-2.825,92.2,yellow,280,TRUE
103,1661991342.701,2499.840620150631,-2480.0711285104285,1000,5.089,-1.101,0.385,105.7,green,280,TRUE
104,1661991343.922,3274.97355658568,3831.086059155441,1000,0.524,-1.42,2.533,1136.4,blue,280,TRUE
105,1661991345.041,2996.9348911393586,-2068.366565269533,1000,5.051,-1.346,2.711,123.1,yellow,280,TRUE
106,1661991345.145,2171.007803281208,-2205.5052212601963,1000,0.134,-1.137,0.368,93.3,green,280,TRUE
107,1661991346.36,2961.7645196433705,4192.451749512969,1000,0.626,-1.493,-3.095,1126.1,blue,280,TRUE
108,1661991347.47,2649.7576417333835,-1765.3691313256775,1000,4.904,-1.41,2.815,121.9,yellow,280,TRUE
109,1661991353.113,3317.5174932990453,3745.167837369038,1000,5.828,-1.506,-3.089,125.5,blue,280,TRUE
110,1661991353.216,5008.746074356336,2052.079444023127,1000,3.123,-0.625,2.847,114.1,red,280,TRUE
111,1661991353.308,2366.8078927483484,-1273.9151723806408,1000,6.211,-1.469,3.124,112.1,yellow,280,TRUE
112,1661991353.422,1443.0348939451212,45.861263149363886,1000,0.69,-1.108,0.505,1098.9,green,280,TRUE
113,1661991358.941,3385.6513555866622,3591.4380278275344,1000,5.563,-1.153,2.994,117.2,blue,280,TRUE
114,1661991359.041,5310.343328862707,2042.9169133906253,1000,3.814,-1.324,0.256,124.2,red,280,TRUE
115,1661991359.145,2334.6033525389216,-525.5880659671984,1000,0.878,-1.42,2.959,111.4,yellow,280,TRUE
116,1661991359.244,2404.4994567969184,700.0953861587221,1000,0.771,-0.945,0.105,104.3,green,280,TRUE
117,1661991363.864,3681.1830265338817,3227.8685803644476,1000,4.636,-1.06,3.124,129.6,blue,280,TRUE
118,1661991363.975,5267.428990642303,2131.300930206355,1000,1.073,-1.41,-2.529,124.0,red,280,TRUE
119,1661991364.077,2538.59282193418,113.50483548732302,1000,0.815,-1.536,0.008,113.8,yellow,280,TRUE
120,1661991364.178,2883.7092973215,1043.9573241021378,1000,6.164,-1.062,0.267,108.0,green,280,TRUE
121,1661991364.454,4133.765443497072,2779.148627863491,1000,4.64,-1.067,-3.124,101.2,blue,280,TRUE
122,1661991364.542,5162.8075101884415,2336.349567663529,1000,1.031,-1.544,-3.132,119.3,red,280,TRUE
123,1661991364.643,2835.8966166931273,682.7793447031698,1000,0.699,-1.557,3.129,107.9,yellow,280,TRUE
124,1661991364.738,3150.415632553062,1217.3528717144857,1000,5.997,-1.069,0.225,105.5,green,280,TRUE
125,1661991365.01,4689.30691534977,2261.3965802122584,1000,4.66,-1.097,3.114,120.1,blue,280,TRUE
126,1661991365.113,4883.476726865815,2503.9867494896916,1000,1.189,-1.532,3.102,106.5,red,280,TRUE
127,1661991365.207,3085.927950633844,1134.1461329234069,1000,0.625,-1.527,-3.106,104.1,yellow,280,TRUE
128,1661991365.298,3339.2388661232226,1317.0461182058002,1000,5.897,-1.09,0.281,103.2,green,280,TRUE
129,1661991367.649,3109.7977038998215,1423.2707738755764,1000,0.743,-1.538,-3.13,1126.3,yellow,280,TRUE
130,1661991368.972,5305.222277522768,1582.7217732235465,1000,5.162,-1.228,2.853,103.9,blue,280,TRUE
131,1661991369.063,4520.792980357287,2701.1955999548477,1000,1.299,-1.512,0.028,119.5,red,280,TRUE
132,1661991369.165,3406.726375039037,1715.4191366674659,1000,0.738,-1.505,-3.129,107.4,yellow,280,TRUE
133,1661991369.258,3451.111023273799,1388.560287807322,1000,5.994,-1.184,0.401,103.4,green,280,TRUE
134,1661991369.528,5384.148715977419,1591.8470478295458,1000,5.221,-1.259,2.796,120.5,blue,280,TRUE
135,1661991369.63,4137.969556934174,2619.443715127525,1000,1.156,-1.514,0.013,109.2,red,280,TRUE
136,1661991369.726,3540.9701323275035,1837.935559667556,1000,0.741,-1.508,-3.129,103.0,yellow,280,TRUE
137,1661991369.815,3910.0819398303065,1673.4384360356978,1000,6.057,-1.132,0.356,105.9,green,280,TRUE
138,1661991375.688,4049.503897351107,1751.2403835070088,1000,6.246,-1.038,0.443,1169.0,green,280,TRUE
139,1661991382.356,3475.068153851107,1897.124223829942,1000,0.781,-1.504,-3.084,1143.9,yellow,280,TRUE
140,1661991385.744,3920.3450491928143,1736.5333506048373,1000,0.706,-1.496,-3.081,1144.7,yellow,280,TRUE
141,1661991387.099,5430.5528284683305,1473.1146103353497,1000,4.466,-1.129,-2.775,106.4,blue,280,TRUE
142,1661991387.192,3947.0851122750723,2482.392485867059,1000,1.104,-1.565,0.0,103.3,red,280,TRUE
143,1661991387.281,4004.1866206409545,1781.8723725371904,1000,0.707,-1.517,-3.095,105.3,yellow,280,TRUE
144,1661991387.374,4092.194712582919,1757.0247312534211,1000,0.06,-0.976,0.272,104.4,green,280,TRUE
145,1661991387.645,5555.234757163748,1431.2757909563668,1000,4.554,-1.173,-2.835,105.8,blue,280,TRUE
146,1661991387.739,3945.407019391277,2489.5182861937224,1000,0.812,-1.513,-3.085,102.3,red,280,TRUE
147,1661991387.827,4345.339370757741,1981.4442141525299,1000,0.742,-1.528,-3.107,106.2,yellow,280,TRUE
148,1661991387.922,4094.6767844105584,1792.93657784663,1000,0.033,-0.995,0.292,103.2,green,280,TRUE
149,1661991388.217,5714.436078170272,1484.7474081430526,1000,4.577,-1.204,-2.821,109.5,blue,280,TRUE
150,1661991388.313,3941.07416176094,2514.2207711094266,1000,0.913,-1.511,-3.102,103.9,red,280,TRUE
151,1661991388.403,4309.833682020041,2000.8436398927843,1000,0.914,-1.523,3.125,103.0,yellow,280,TRUE
152,1661991388.496,4099.900889078323,1803.8092793093895,1000,0.088,-0.974,0.289,102.8,green,280,TRUE
153,1661991388.75,5920.549748139573,1449.3493553415256,1000,4.965,-1.276,2.966,105.3,blue,280,TRUE
154,1661991388.842,3946.941968748782,2491.657955378647,1000,1.196,-1.454,-3.079,103.8,red,280,TRUE
155,1661991388.935,4191.805917662424,1904.4881525737703,1000,0.884,-1.56,0.001,102.4,yellow,280,TRUE
156,1661991389.024,4057.816253686607,1750.8109850590208,1000,0.072,-0.925,0.143,118.3,green,280,TRUE
157,1661991393.669,6132.985821343503,1435.5956486227144,1000,4.716,-1.408,3.083,1148.4,blue,280,TRUE
158,1661991394.827,3240.7730972341374,3007.78898480988,1000,5.868,-1.529,-3.109,1093.3,yellow,280,TRUE
159,1661991396.092,6141.421303839347,1395.5326238326404,1000,4.988,-1.332,1.801,113.9,blue,280,TRUE
160,1661991396.192,3966.8390538719614,2544.1819636113937,1000,0.476,-1.517,-0.017,103.4,red,280,TRUE
161,1661991396.282,3769.8142177522286,3257.0323363786974,1000,1.106,-1.5,-3.079,105.0,yellow,280,TRUE
162,1661991396.373,3967.998128917979,1995.3493039264606,1000,0.155,-1.117,0.17,105.3,green,280,TRUE
163,1661991397.594,6154.149652135203,1448.0707127770272,1000,5.344,-1.472,3.07,1131.7,blue,280,TRUE
164,1661991398.712,4210.572658427814,3099.681143862923,1000,2.45,-1.545,-0.025,118.7,yellow,280,TRUE
165,1661991398.81,3958.839718445495,2214.652184602119,1000,2.284,-1.122,0.184,157.9,green,280,TRUE
166,1661991399.135,6036.439916154704,1481.7122463371886,1000,5.381,-1.443,1.875,104.1,blue,280,TRUE
167,1661991399.228,3966.558515664065,2579.008822329217,1000,0.499,-1.512,-0.017,102.7,red,280,TRUE
168,1661991399.318,4517.32819542767,2941.3862533472566,1000,2.066,-1.552,-3.133,104.5,yellow,280,TRUE
169,1661991399.411,4042.6036622787724,2412.046805758523,1000,2.298,-1.1,0.149,100.5,green,280,TRUE
170,1661991399.678,5884.2734826913365,1472.3168496268675,1000,5.372,-1.439,1.905,119.8,blue,280,TRUE
171,1661991399.787,3898.232523252358,2629.4395475980427,1000,0.5,-1.517,-0.017,114.0,red,280,TRUE
172,1661991399.889,4713.665659263922,2818.4382984164367,1000,1.755,-1.409,-2.148,104.8,yellow,280,TRUE
173,1661991399.982,4049.2944942245626,2598.3772904632347,1000,2.292,-1.041,0.279,103.9,green,280,TRUE
174,1661991400.252,5696.530182510702,1541.4125841009152,1000,5.369,-1.439,1.935,105.1,blue,280,TRUE
175,1661991400.343,3916.6201900739557,2697.1984211704744,1000,0.491,-1.517,-0.02,117.3,red,280,TRUE
176,1661991401.47,4098.9555799704785,2745.030961361627,1000,1.84,-1.066,0.255,1135.2,green,280,TRUE
177,1661991402.692,5504.260311613355,1600.3663962736666,1000,5.369,-1.449,2.01,122.1,blue,280,TRUE
178,1661991402.795,3931.382970116049,2796.225062960399,1000,0.499,-1.509,-0.022,109.5,red,280,TRUE
179,1661991402.892,4861.348112118654,2757.056649206366,1000,2.208,-1.452,-3.03,117.9,yellow,280,TRUE
180,1661991402.983,4397.559453951635,2984.721092816635,1000,1.474,-0.925,0.201,103.4,green,280,TRUE
181,1661991403.252,5474.243080266267,1625.4417447805554,1000,5.378,-1.453,3.034,106.7,blue,280,TRUE
182,1661991403.346,3910.656592540044,2889.6992135048768,1000,0.501,-1.508,-0.022,103.5,red,280,TRUE
183,1661991403.439,5275.390187117413,2657.077029709399,1000,2.213,-1.454,-3.031,114.6,yellow,280,TRUE
184,1661991405.667,5449.648993886172,1571.5332028374642,1000,5.107,-1.364,2.572,1131.9,blue,280,TRUE
185,1661991406.789,5456.023116281831,2488.950794291088,1000,2.334,-1.477,-0.093,115.8,yellow,280,TRUE
186,1661991412.405,5491.82195153804,1577.0193930054484,1000,5.184,-1.393,2.513,114.8,blue,280,TRUE
187,1661991412.498,3919.429015815283,2825.265240073088,1000,0.564,-1.46,-0.101,128.5,red,280,TRUE
188,1661991412.629,6111.339531563471,3313.0130637950124,1000,1.132,-1.485,3.127,1103.1,yellow,280,TRUE
189,1661991413.91,5505.400397906894,1558.6898364895178,1000,5.211,-1.389,2.485,108.6,blue,280,TRUE
190,1661991414.009,3925.4117418239225,2847.525186969165,1000,0.425,-1.461,0.022,101.3,red,280,TRUE
191,1661991414.096,6126.298832026341,3305.4262394276097,1000,2.856,-1.374,-2.866,134.6,yellow,280,TRUE
192,1661991414.199,4682.68827176421,2914.3566394978775,1000,1.294,-1.107,0.147,121.9,green,280,TRUE
193,1661991414.492,5508.1289728130805,1495.8348496358076,1000,5.209,-1.389,2.489,99.6,blue,280,TRUE
194,1661991414.578,3922.4435378582493,2856.677719020599,1000,0.43,-1.474,0.02,119.5,red,280,TRUE
195,1661991414.68,6109.933237025252,3320.4294241492694,1000,3.271,-1.277,-2.894,121.4,yellow,280,TRUE
196,1661991414.774,4911.965574782206,2900.9090121166723,1000,1.348,-1.12,0.161,104.5,green,280,TRUE
197,1661991415.061,5513.443992027339,1453.8869647628173,1000,5.213,-1.383,2.476,118.9,blue,280,TRUE
198,1661991415.163,3917.467321496622,2865.979773573268,1000,0.439,-1.47,0.02,106.5,red,280,TRUE
199,1661991415.256,6127.017079932963,3311.3225745630148,1000,3.738,-1.206,2.801,104.9,yellow,280,TRUE
200,1661991415.347,5121.122694683171,2945.8488494881626,1000,1.461,-1.064,0.373,104.1,green,280,TRUE
201,1661991415.63,5537.562639868396,1471.6142122239316,1000,5.203,-1.386,2.475,107.4,blue,280,TRUE
202,1661991415.723,3905.4307747571256,2830.8362105701162,1000,0.445,-1.47,0.021,103.9,red,280,TRUE
203,1661991415.814,6153.2690699888535,3263.5274247199095,1000,3.646,-1.235,2.826,105.5,yellow,280,TRUE
204,1661991415.908,5396.822959931661,2954.285559094142,1000,1.496,-1.083,0.389,101.5,green,280,TRUE
205,1661991416.189,5510.517386391472,1530.796778389021,1000,5.202,-1.386,2.474,107.8,blue,280,TRUE
206,1661991416.282,3896.666466510343,2806.7257940974646,1000,0.432,-1.493,0.011,106.5,red,280,TRUE
207,1661991416.375,6167.818436383134,3235.8836978159234,1000,3.605,-1.263,2.824,103.9,yellow,280,TRUE
208,1661991416.469,5608.3859710117495,3046.3542375814613,1000,1.62,-1.044,0.313,100.1,green,280,TRUE
209,1661991416.75,5509.731111455356,1525.42194936072,1000,5.201,-1.388,2.469,105.2,blue,280,TRUE
210,1661991416.842,3904.798003081827,2877.6444272331923,1000,0.538,-1.5,-0.01,104.2,red,280,TRUE
211,1661991416.937,6194.676072267233,3197.526750578629,1000,3.556,-1.27,2.839,100.3,yellow,280,TRUE
212,1661991417.024,5659.515945838982,3055.255345679598,1000,1.524,-1.05,0.248,117.2,green,280,TRUE
213,1661991419.499,5677.859985531734,3145.807362849607,1000,2.327,-0.996,0.345,1132.0,green,280,TRUE
214,1661991420.714,5543.9806495966595,1533.177391333694,1000,5.205,-1.385,2.459,140.6,blue,280,TRUE
215,1661991420.834,3902.4478903188515,2870.9068591429677,1000,0.458,-1.523,0.02,112.1,red,280,TRUE
216,1661991420.933,6203.991518337102,3107.826483974875,1000,3.558,-1.352,2.879,118.4,yellow,280,TRUE
217,1661991421.055,4407.622369038257,3232.9891274835372,1000,2.261,-1.064,0.278,1099.5,green,280,TRUE
218,1661991422.232,5570.286575963143,1586.2832730781563,1000,5.205,-1.386,2.451,118.9,blue,280,TRUE
219,1661991422.327,3937.506822701198,2878.996384118844,1000,0.489,-1.482,0.024,113.6,red,280,TRUE
220,1661991422.428,6235.973446101604,3047.819634845284,1000,3.517,-1.389,2.817,103.5,yellow,280,TRUE
221,1661991422.52,4056.8614065568845,3101.0123284368706,1000,2.19,-1.154,0.661,115.4,green,280,TRUE
222,1661991422.821,5582.134293502856,1587.3017336042874,1000,5.216,-1.382,2.458,105.6,blue,280,TRUE
223,1661991422.916,3964.1930848649718,2861.7127052810524,1000,0.481,-1.482,0.024,100.4,red,280,TRUE
224,1661991423.007,6240.1660354909045,2972.5196991985035,1000,3.606,-1.38,2.515,115.0,yellow,280,TRUE
225,1661991425.262,5537.160995938449,1574.7686733166267,1000,5.331,-1.404,2.402,122.6,blue,280,TRUE
226,1661991425.362,3973.2015565170236,2852.4687982981236,1000,0.496,-1.476,0.023,128.8,red,280,TRUE
227,1661991425.468,6218.193098692073,2961.538637240333,1000,3.623,-1.259,2.716,128.5,yellow,280,TRUE
228,1661991428.858,6208.986544061547,3041.9772857598878,1000,3.828,-1.322,2.341,1145.3,yellow,280,TRUE
229,1661991430.192,5534.666983239578,1527.902203336621,1000,4.891,-1.518,-3.089,112.0,blue,280,TRUE
230,1661991430.291,4028.234143715059,2846.8934167758166,1000,0.53,-1.479,0.014,103.1,red,280,TRUE
231,1661991430.381,6091.377976464436,3072.7170835552965,1000,3.446,-1.422,-2.673,118.8,yellow,280,TRUE
232,1661991433.782,5899.243268636531,3149.832565128318,1000,3.135,-1.506,3.086,1124.3,yellow,280,TRUE
233,1661991435.101,5592.65722939017,1556.1102874350854,1000,4.19,-1.316,-2.714,108.5,blue,280,TRUE
234,1661991435.197,4010.485703048625,2838.878318383587,1000,0.562,-1.456,-0.003,100.9,red,280,TRUE
235,1661991435.284,5500.28183080082,3280.406661790859,1000,4.014,-1.54,0.027,105.8,yellow,280,TRUE
236,1661991435.376,4051.3185284760034,3117.5656073432965,1000,2.114,-1.132,0.526,103.8,green,280,TRUE
237,1661991435.66,5662.217823724827,1523.2950799120151,1000,4.647,-1.454,3.09,107.1,blue,280,TRUE
238,1661991435.754,3981.684038387593,2816.4046251579584,1000,0.563,-1.461,-0.002,104.8,red,280,TRUE
239,1661991435.845,5047.0855992714405,3361.9574635009776,1000,3.135,-1.517,3.094,120.8,yellow,280,TRUE
240,1661991438.091,5757.16217474459,1498.2034390383085,1000,5.497,-1.44,2.627,122.6,blue,280,TRUE
241,1661991438.196,3954.744952618937,2796.534740546334,1000,0.58,-1.48,-0.017,108.1,red,280,TRUE
242,1661991438.295,4751.382802584665,2982.8466646414295,1000,1.146,-1.528,3.135,114.2,yellow,280,TRUE
243,1661991438.381,4060.7023595493147,3122.9957161073194,1000,2.148,-1.152,0.555,104.3,green,280,TRUE
244,1661991438.649,5959.362773440286,1486.4919108619226,1000,5.107,-1.47,-3.094,122.8,blue,280,TRUE
245,1661991438.754,3936.425699255655,2786.182562036824,1000,0.568,-1.475,-0.015,109.8,red,280,TRUE
246,1661991438.85,4545.85715838755,2567.2583294587916,1000,0.48,-1.511,-0.037,118.4,yellow,280,TRUE
247,1661991438.942,4051.922998883514,3127.9216571422116,1000,2.127,-1.152,0.549,103.4,green,280,TRUE
248,1661991439.211,6145.758546495011,1433.0649802595592,1000,5.262,-1.508,-3.127,105.5,blue,280,TRUE
249,1661991439.303,3943.6517201830834,2779.5409105465747,1000,0.587,-1.475,-0.012,103.5,red,280,TRUE
250,1661991439.394,4495.860566184457,2163.7477990448997,1000,0.005,-1.503,-0.065,103.1,yellow,280,TRUE
251,1661991439.486,4056.2471030530583,3174.8274266489534,1000,2.135,-1.158,0.554,101.9,green,280,TRUE
252,1661991439.771,6391.9744196871625,1545.5755430575207,1000,5.196,-1.513,3.118,104.5,blue,280,TRUE
253,1661991439.861,3926.4053496339798,2794.91181464269,1000,0.569,-1.479,-0.01,104.6,red,280,TRUE
254,1661991439.954,4541.852937934743,1847.1094835207284,1000,6.137,-1.517,-0.036,101.7,yellow,280,TRUE
255,1661991440.042,4000.608501815128,3165.1701418713997,1000,2.133,-1.153,0.548,104.1,green,280,TRUE
256,1661991440.311,6494.066750895906,1426.430489920601,1000,4.88,-1.562,-3.134,105.1,blue,280,TRUE
257,1661991440.403,3937.2118415862874,2763.727255257763,1000,0.639,-1.46,-0.088,102.9,red,280,TRUE
258,1661991440.494,4821.318979872314,1476.0249195008776,1000,5.99,-1.525,-0.044,103.4,yellow,280,TRUE
259,1661991440.584,4050.9027452605424,3184.1307887113003,1000,2.131,-1.151,0.54,121.3,green,280,TRUE
260,1661991440.87,6524.3758030719355,1391.6351223204001,1000,4.439,-1.527,-3.132,104.2,blue,280,TRUE
261,1661991440.962,3969.793152703653,2735.26391901097,1000,0.67,-1.288,-1.468,104.1,red,280,TRUE
262,1661991441.054,5168.0173670586555,1161.8434146183215,1000,5.913,-1.536,-3.108,103.8,yellow,280,TRUE
263,1661991441.146,4050.6301253391575,3160.481490486376,1000,2.124,-1.156,0.541,102.3,green,280,TRUE
264,1661991441.4,6555.102556846295,1359.0897614173466,1000,4.33,-1.512,-3.132,104.1,blue,280,TRUE
265,1661991441.493,3973.728669069165,2704.6445769845395,1000,0.529,-1.341,-1.488,102.5,red,280,TRUE
266,1661991441.582,5356.7211100422055,1234.5407433318412,1000,5.284,-1.43,-2.209,135.2,yellow,280,TRUE
267,1661991443.853,6377.231145075132,1336.632739771248,1000,4.589,-1.511,-3.125,121.6,blue,280,TRUE
268,1661991443.954,3986.275297828239,2741.2804835574407,1000,0.446,-1.453,-0.01,127.3,red,280,TRUE
269,1661991444.06,5398.2280095775595,1344.6692044994195,1000,5.295,-1.516,-0.051,126.4,yellow,280,TRUE
270,1661991444.161,4030.8738390595613,3168.6061800056723,1000,2.1,-1.109,0.421,146.3,green,280,TRUE
271,1661991444.462,6266.287666056626,1386.9718138138599,1000,4.645,-1.448,-2.908,103.9,blue,280,TRUE
272,1661991444.553,3977.959881714593,2763.6459642199898,1000,0.443,-1.453,-0.016,117.7,red,280,TRUE
273,1661991444.654,5380.567129298962,1513.2629155288162,1000,5.431,-1.511,-3.087,122.1,yellow,280,TRUE
274,1661991444.76,4077.740420920545,3124.195500458003,1000,2.111,-1.114,0.427,106.9,green,280,TRUE
275,1661991445.021,5988.231810502098,1320.5845922639435,1000,4.927,-1.401,2.967,103.7,blue,280,TRUE
276,1661991445.113,3951.525927939145,2794.1074913662274,1000,0.447,-1.451,-0.016,103.5,red,280,TRUE
277,1661991445.203,5375.511550344082,1575.063176789652,1000,5.869,-1.493,-3.136,102.9,yellow,280,TRUE
278,1661991445.292,4084.586704180623,3078.7837364098723,1000,2.102,-1.117,0.433,105.4,green,280,TRUE
279,1661991446.514,5938.501007658365,1369.2146624498673,1000,4.89,-1.326,3.084,1133.9,blue,280,TRUE
280,1661991447.631,5260.47866347035,1552.3849118528078,1000,6.108,-1.332,2.577,120.8,yellow,280,TRUE
281,1661991447.734,4069.463604954855,3098.8206982701195,1000,2.131,-1.112,0.461,123.8,green,280,TRUE
282,1661991448.942,5882.415377376507,1415.7735193355975,1000,5.082,-1.173,2.883,104.9,blue,280,TRUE
283,1661991449.034,3951.7801448907862,2826.3135459397095,1000,0.447,-1.448,-0.192,120.4,red,280,TRUE
284,1661991449.132,5180.794564057614,1634.28301053962,1000,6.09,-1.331,2.582,110.7,yellow,280,TRUE
285,1661991449.234,4070.6721817000544,3148.4986406338726,1000,2.124,-1.143,0.493,146.2,green,280,TRUE
286,1661991449.534,5836.969442586286,1453.092856295328,1000,5.063,-1.109,2.942,102.0,blue,280,TRUE
287,1661991449.623,3956.615092255906,2882.5176288613898,1000,0.446,-1.448,-0.204,120.6,red,280,TRUE
288,1661991449.726,5098.358001688767,1685.739601299302,1000,6.104,-1.329,2.586,92.9,yellow,280,TRUE
289,1661991449.805,4068.3057907179955,3202.878120274612,1000,2.122,-1.148,0.514,106.0,green,280,TRUE
290,1661991450.078,5857.606933232478,1469.0278513855435,1000,5.019,-1.146,2.917,105.3,blue,280,TRUE
291,1661991450.172,3955.1089232131276,2926.792945102056,1000,0.446,-1.444,-0.2,101.8,red,280,TRUE
292,1661991450.26,5067.7218603298925,1699.9291641462144,1000,6.14,-1.317,2.623,105.1,yellow,280,TRUE
293,1661991452.5,5509.708868900806,1685.9523392267927,1000,5.011,-1.203,2.867,1148.8,blue,280,TRUE
294,1661991453.627,5052.797302450286,1708.1473312656074,1000,6.157,-1.321,2.619,127.5,yellow,280,TRUE
295,1661991453.736,4077.4684351429732,3240.1460720871783,1000,1.391,-1.136,0.485,124.3,green,280,TRUE
296,1661991454.016,5568.6773193178315,1655.3009641517644,1000,5.035,-1.248,2.758,101.0,blue,280,TRUE
297,1661991454.104,3946.9326794934477,2858.8513177083937,1000,0.696,-1.472,0.008,105.9,red,280,TRUE
298,1661991454.2,5008.195223623806,1731.7517976659453,1000,6.154,-1.326,2.607,98.8,yellow,280,TRUE
299,1661991454.286,4022.8163920881616,3270.8076089814476,1000,1.77,-1.151,0.649,104.6,green,280,TRUE
300,1661991454.542,5482.259239005957,1671.5950418067807,1000,5.039,-1.258,2.777,121.9,blue,280,TRUE
301,1661991454.646,3970.153170151327,2734.4601479973735,1000,0.736,-1.486,0.013,122.4,red,280,TRUE
302,1661991454.752,5032.71364840309,1831.9110683186389,1000,6.141,-1.333,2.621,106.3,yellow,280,TRUE
303,1661991454.846,3947.939508651203,3253.8732388858275,1000,1.409,-1.24,0.452,103.6,green,280,TRUE
304,1661991455.101,5497.335103427235,1707.0691604277008,1000,5.006,-1.218,2.913,105.7,blue,280,TRUE
305,1661991455.195,4020.2846401612896,2639.530995564151,1000,0.712,-1.475,0.021,101.9,red,280,TRUE
306,1661991455.284,4999.100723513113,1807.288995898122,1000,5.664,-1.321,-2.956,102.8,yellow,280,TRUE
307,1661991455.374,3914.594539451704,3229.8328203757305,1000,1.312,-1.21,0.346,102.6,green,280,TRUE
308,1661991455.645,5471.823974559072,1739.3463481822675,1000,5.027,-1.211,2.92,119.2,blue,280,TRUE
309,1661991455.747,4065.436219674464,2583.3794724720633,1000,0.707,-1.486,0.022,106.9,red,280,TRUE
310,1661991455.84,4978.727555161563,1850.2860180725731,1000,5.853,-1.479,-3.122,105.6,yellow,280,TRUE
311,1661991455.932,3918.0632908459647,3149.1795884395556,1000,1.743,-1.168,0.384,131.8,green,280,TRUE
312,1661991456.204,5458.576941269418,1761.316318116437,1000,5.016,-1.209,2.946,102.7,blue,280,TRUE
313,1661991456.293,4072.007547254297,2534.66577635614,1000,0.702,-1.491,0.022,104.6,red,280,TRUE
314,1661991456.383,4944.5076105213275,1833.8067012058739,1000,5.76,-1.506,3.108,118.7,yellow,280,TRUE
315,1661991456.476,3922.187299076608,3059.0268612603545,1000,1.737,-1.158,0.384,103.4,green,280,TRUE
316,1661991456.759,5850.544283318661,1575.2527821043525,1000,4.956,-1.215,2.992,108.5,blue,280,TRUE
317,1661991456.855,4100.583118290776,2446.535777255808,1000,0.761,-1.518,0.007,103.5,red,280,TRUE
318,1661991456.945,4900.527016799403,1766.317434197393,1000,5.563,-1.461,3.122,104.4,yellow,280,TRUE
319,1661991457.037,3928.025959555552,2989.3332528439028,1000,1.673,-1.198,0.319,104.2,green,280,TRUE
320,1661991457.308,5860.38624787718,1525.4523948787955,1000,4.938,-1.246,3.016,106.2,blue,280,TRUE
321,1661991457.401,4107.757074634407,2463.170511421285,1000,0.833,-1.415,-0.288,104.0,red,280,TRUE
322,1661991457.494,4828.299200875788,1693.1660240081783,1000,4.335,-1.381,-2.038,101.6,yellow,280,TRUE
323,1661991457.582,3937.1943229308813,2978.0782515830556,1000,1.659,-1.194,0.281,118.4,green,280,TRUE
324,1661991457.868,5871.468492436424,1506.1397618306567,1000,4.962,-1.261,2.999,105.1,blue,280,TRUE
325,1661991457.961,4082.2041459418674,2511.830455757077,1000,0.579,-1.458,-0.003,102.1,red,280,TRUE
326,1661991458.05,4707.825631998666,1567.9003689941646,1000,3.877,-1.452,-3.031,103.2,yellow,280,TRUE
327,1661991458.138,3951.4640488604396,2948.399413258052,1000,1.764,-1.188,0.4,121.7,green,280,TRUE
328,1661991458.413,5830.004301929956,1527.710097366021,1000,4.975,-1.259,2.986,105.9,blue,280,TRUE
329,1661991458.508,3984.7375394269106,2560.4153111294086,1000,0.057,-1.51,-3.083,102.0,red,280,TRUE
330,1661991458.596,4383.977980916633,1329.3671456568525,1000,3.372,-1.532,3.129,119.5,yellow,280,TRUE
331,1661991458.698,3924.462887114918,2909.106395772802,1000,1.189,-1.215,0.249,123.6,green,280,TRUE
332,1661991458.976,5797.063162945309,1509.2567509008122,1000,4.939,-1.268,3.047,102.0,blue,280,TRUE
333,1661991459.064,3877.6541559168454,2580.208156370292,1000,0.0,-1.537,-0.015,104.5,red,280,TRUE
334,1661991459.155,4009.5593470552353,1093.5293750698922,1000,3.306,-1.517,-0.052,106.2,yellow,280,TRUE
335,1661991459.249,3847.027940986305,2922.6801737293194,1000,1.119,-1.097,-0.038,102.1,green,280,TRUE
336,1661991459.506,5769.805457620121,1504.0819412004705,1000,4.946,-1.259,2.915,102.8,blue,280,TRUE
337,1661991459.595,3837.330636117533,2588.75064169972,1000,0.149,-1.557,0.012,104.0,red,280,TRUE
338,1661991459.687,3733.6650406141566,737.5610333726577,1000,2.138,-1.502,-0.056,102.3,yellow,280,TRUE
339,1661991459.775,3796.2428394684666,2948.4787610589556,1000,1.058,-1.13,0.279,106.0,green,280,TRUE
340,1661991460.033,5703.54120700925,1494.5747761471641,1000,5.012,-1.268,2.874,104.9,blue,280,TRUE
341,1661991460.125,3794.2506585104293,2611.3057314411576,1000,0.118,-1.517,-0.017,105.5,red,280,TRUE
342,1661991460.217,3415.6863930122,440.0111511602776,1000,1.824,-1.476,-0.065,104.2,yellow,280,TRUE
343,1661991460.309,3767.747215372236,2971.712240871562,1000,0.776,-1.173,0.307,114.0,green,280,TRUE
344,1661991460.576,5680.082282182363,1526.0750392326433,1000,4.987,-1.252,2.857,121.3,blue,280,TRUE
345,1661991460.68,3761.2423524653514,2674.7444295382547,1000,6.264,-1.53,-0.005,107.9,red,280,TRUE
346,1661991460.775,3136.765827835756,193.04505932569603,1000,1.88,-1.453,-3.029,103.5,yellow,280,TRUE
347,1661991460.864,3755.040591093708,3015.254635470066,1000,0.521,-1.235,0.204,104.7,green,280,TRUE
348,1661991461.136,5692.538402811241,1508.5269925142477,1000,5.081,-1.227,2.863,106.4,blue,280,TRUE
349,1661991461.229,3776.368197049443,2707.3554230764694,1000,0.036,-1.553,3.125,103.8,red,280,TRUE
350,1661991461.32,2912.2935232510845,17.67270118133208,1000,1.899,-1.542,-3.133,102.1,yellow,280,TRUE
351,1661991461.409,3755.3774460860864,3021.3008801691126,1000,0.958,-1.05,0.375,104.0,green,280,TRUE
352,1661991461.679,5713.971022185149,1438.3564108531752,1000,5.147,-1.27,2.642,108.1,blue,280,TRUE
353,1661991461.774,3825.0597670813477,2743.7596412722,1000,0.052,-1.542,3.12,103.7,red,280,TRUE
354,1661991461.864,2906.191957678508,54.800954489969094,1000,2.026,-1.547,3.119,105.5,yellow,280,TRUE
355,1661991461.955,3803.2753267798857,3049.666583207205,1000,1.095,-0.992,0.397,103.1,green,280,TRUE
356,1661991462.226,5675.757796434951,1415.1814938427988,1000,5.22,-1.352,2.746,105.8,blue,280,TRUE
357,1661991462.32,3905.713673984177,2750.770812267466,1000,0.074,-1.527,3.107,133.7,red,280,TRUE
358,1661991462.44,2959.437617694776,37.884886844795034,1000,2.03,-1.533,0.037,105.8,yellow,280,TRUE
359,1661991462.535,3843.4533456703753,3077.4485918033283,1000,1.01,-1.034,0.404,100.4,green,280,TRUE
360,1661991462.802,5732.05913470098,1411.7235708867067,1000,5.079,-1.458,3.086,105.8,blue,280,TRUE
361,1661991462.894,3915.8649737096807,2820.9333169192687,1000,6.273,-1.512,3.093,104.2,red,280,TRUE
362,1661991462.987,2950.457777409561,61.161972391372665,1000,2.017,-1.517,3.096,119.5,yellow,280,TRUE
363,1661991463.081,3842.317508233445,3103.237147497844,1000,0.654,-1.122,0.328,114.2,green,280,TRUE
364,1661991463.359,5805.78507275469,1343.08668591056,1000,5.13,-1.511,-3.109,106.7,blue,280,TRUE
365,1661991463.453,3935.8489507040454,2912.563536847465,1000,0.263,-1.458,3.046,103.4,red,280,TRUE
366,1661991463.546,2988.505734472484,66.92622410723266,1000,2.021,-1.505,3.093,101.8,yellow,280,TRUE
367,1661991463.634,3795.9516055617364,3188.0666091843104,1000,6.07,-1.227,-0.14,118.4,green,280,TRUE
368,1661991463.905,5942.2291423048,1391.4167791649863,1000,5.436,-1.517,-3.093,106.3,blue,280,TRUE
369,1661991464.0,3973.931906102007,2914.158121767124,1000,1.122,-1.477,0.093,102.0,red,280,TRUE
370,1661991464.089,2994.137303313009,100.97415591845909,1000,2.162,-1.47,3.043,103.0,yellow,280,TRUE
371,1661991464.178,3733.760449315007,3369.3729175632725,1000,5.862,-1.179,0.276,103.8,green,280,TRUE
372,1661991464.435,6034.518130351523,1412.1423653902573,1000,5.279,-1.486,-3.103,104.3,blue,280,TRUE
373,1661991464.528,3989.375752198865,2989.9630882120177,1000,0.89,-1.418,-1.931,100.4,red,280,TRUE
374,1661991464.614,2941.6589199437785,43.008299753602785,1000,2.321,-1.477,0.088,120.7,yellow,280,TRUE
375,1661991464.718,3714.6360951719726,3637.688488093576,1000,6.17,-1.117,0.12,107.0,green,280,TRUE
376,1661991464.995,6188.624712726578,1396.6367240753214,1000,4.868,-1.277,-2.427,101.5,blue,280,TRUE
377,1661991465.083,3943.1113400450336,3156.7177660888506,1000,6.209,-1.538,0.024,104.8,red,280,TRUE
378,1661991465.174,2956.202614132091,-117.91855257807318,1000,2.387,-1.528,0.008,103.8,yellow,280,TRUE
379,1661991465.264,3687.3656923187586,3989.4925267893595,1000,0.038,-1.109,0.325,104.6,green,280,TRUE
380,1661991465.522,6471.651054373339,1425.7494242630519,1000,4.836,-1.199,-2.441,103.5,blue,280,TRUE
381,1661991465.612,3826.803621619288,3459.571348612033,1000,5.322,-1.453,0.094,120.7,red,280,TRUE
382,1661991469.001,3841.8589481702675,4311.612206689449,1000,0.124,-1.453,-0.075,128.4,red,280,TRUE
383,1661991469.114,2898.261293133643,-239.0908102582267,1000,2.415,-1.536,0.022,124.1,yellow,280,TRUE
384,1661991469.211,3810.504410485931,4817.285537047145,1000,6.001,-1.19,0.382,127.7,green,280,TRUE
385,1661991469.509,6539.588450151154,1386.0228894445688,1000,5.053,-1.335,3.111,101.8,blue,280,TRUE
386,1661991469.598,3915.5481949550945,5189.4866809466375,1000,1.072,-1.547,-0.013,119.7,red,280,TRUE
387,1661991469.7,2807.7279384387243,-255.2014377152067,1000,2.427,-1.541,0.024,107.6,yellow,280,TRUE
388,1661991469.794,4030.2985765730623,5690.66080567329,1000,5.906,-1.215,0.179,105.1,green,280,TRUE
389,1661991470.068,6570.388403568794,1379.2584082233118,1000,4.759,-1.321,-2.875,149.8,blue,280,TRUE
390,1661991470.205,3948.9486747702067,6050.733663783033,1000,1.138,-1.486,-0.075,103.1,red,280,TRUE
391,1661991470.295,2844.1859735761277,-348.48532277825234,1000,2.448,-1.546,3.117,103.3,yellow,280,TRUE
392,1661991470.386,4247.18112322792,6490.749895767385,1000,5.0,-1.139,0.025,103.8,green,280,TRUE
393,1661991470.668,6457.851029073588,1304.3949682241007,1000,4.019,-1.336,-2.471,121.9,blue,280,TRUE
394,1661991470.773,4078.144837501524,6937.698324484033,1000,0.818,-1.401,-1.059,106.6,red,280,TRUE
395,1661991470.866,2833.3646702662804,-436.38508874397394,1000,2.166,-1.551,-0.013,104.2,yellow,280,TRUE
396,1661991470.955,4442.142744585438,7161.66109570472,1000,4.033,-1.114,-0.187,104.8,green,280,TRUE
397,1661991471.227,6334.330153348418,1338.2315545375877,1000,4.34,-1.37,-3.094,105.5,blue,280,TRUE
398,1661991471.319,4301.568582149497,7710.185174393361,1000,0.42,-1.456,-0.004,104.0,red,280,TRUE
399,1661991471.411,2901.9825457665047,-414.9026591151052,1000,2.295,-1.538,3.127,101.9,yellow,280,TRUE
400,1661991471.503,4613.19055242475,7832.28258813344,1000,4.409,-1.118,-0.157,101.0,green,280,TRUE
401,1661991471.786,6109.567837412685,1377.6181602816307,1000,4.597,-1.3,-3.043,103.2,blue,280,TRUE
402,1661991471.875,4504.770498791662,8376.69530690785,1000,6.231,-1.482,-0.052,105.0,red,280,TRUE
403,1661991471.969,2876.74226929486,-386.9835254683783,1000,2.5,-1.536,3.117,116.7,yellow,280,TRUE
404,1661991475.362,2886.37115536328,-241.99188818026937,1000,1.06,-1.518,-3.12,1144.7,yellow,280,TRUE
405,1661991476.697,5827.518027577444,1366.941140502731,1000,4.676,-1.148,-2.755,111.2,blue,280,TRUE
406,1661991476.795,4690.831826982892,8514.972065313557,1000,5.579,-1.499,-0.07,88.7,red,280,TRUE
407,1661991476.869,2914.889560562766,-142.22155608498315,1000,1.116,-1.514,-3.12,120.8,yellow,280,TRUE
408,1661991483.619,2951.0021647725966,-61.08297325148854,1000,1.974,-1.527,0.04,1141.5,yellow,280,TRUE
409,1661991485.937,4084.295381829142,8672.436391825273,1000,5.168,-1.401,2.695,88.4,red,280,TRUE
410,1661991486.011,2981.3153610434797,149.67692235952188,1000,0.387,-1.553,-3.126,117.5,yellow,280,TRUE
411,1661991486.131,5548.067915272018,9144.877460357551,1000,5.635,-1.308,0.195,1099.8,green,280,TRUE
412,1661991488.239,5710.3106086939515,1380.941572817074,1000,5.244,-1.114,2.99,1131.4,blue,280,TRUE
413,1661991489.36,3181.384198297253,611.9330283241173,1000,1.226,-1.541,0.028,116.7,yellow,280,TRUE
414,1661991489.454,5524.453715093308,9137.905086146873,1000,5.641,-1.24,0.087,126.6,green,280,TRUE
415,1661991489.761,5581.930974217431,1409.9538942349136,1000,5.213,-1.119,2.997,107.2,blue,280,TRUE
416,1661991489.855,3924.504533205524,8183.168251779401,1000,1.849,-1.422,-1.078,105.5,red,280,TRUE
417,1661991489.946,3394.26387470935,1094.0450018685608,1000,1.235,-1.5,0.065,104.5,yellow,280,TRUE
418,1661991490.039,5503.2060537824145,9127.243648013158,1000,5.644,-1.248,0.092,101.4,green,280,TRUE
419,1661991490.32,5544.613556825246,1467.1366552368388,1000,5.235,-1.121,2.988,103.2,blue,280,TRUE
420,1661991490.411,3710.839161154614,7471.927260461872,1000,1.95,-1.449,0.523,101.4,red,280,TRUE
421,1661991490.502,3672.715684935763,1522.382653845719,1000,1.184,-1.525,0.044,102.7,yellow,280,TRUE
422,1661991490.591,5426.210333323418,9208.58196847266,1000,5.655,-1.251,0.072,120.1,green,280,TRUE
423,1661991490.877,5525.517701622091,1425.4018544516823,1000,5.244,-1.126,2.985,104.8,blue,280,TRUE
424,1661991490.97,3490.5684811486244,6699.829203584559,1000,1.894,-1.521,-0.021,102.4,red,280,TRUE
425,1661991491.06,3955.5304673435676,1949.6136273022187,1000,1.126,-1.547,0.023,118.7,yellow,280,TRUE
426,1661991491.16,5388.060843694433,9209.856421525074,1000,5.66,-1.246,0.06,122.6,green,280,TRUE
427,1661991491.45,5566.508964840624,1435.8540438336277,1000,5.293,-1.134,2.97,105.1,blue,280,TRUE
428,1661991491.546,3370.1636833918237,5873.7201635657575,1000,0.901,-1.11,-2.526,100.2,red,280,TRUE
429,1661991491.633,4104.231505610361,2429.839083142758,1000,1.122,-1.544,0.023,118.8,yellow,280,TRUE
430,1661991491.736,5408.340402879289,9177.512428209704,1000,5.705,-1.306,0.211,91.9,green,280,TRUE
431,1661991491.999,5630.961115429306,1455.5208042522718,1000,5.372,-1.078,2.957,102.7,blue,280,TRUE
432,1661991492.089,3172.0008395879536,4933.533146538842,1000,0.731,-0.949,-2.537,120.4,red,280,TRUE
433,1661991492.191,4272.8449625010935,2659.978330076376,1000,1.094,-1.542,0.017,122.6,yellow,280,TRUE
434,1661991492.293,5393.0138610097765,9152.50865362575,1000,5.734,-1.342,0.391,111.9,green,280,TRUE
435,1661991492.576,5582.3254732259775,1523.0437327056443,1000,5.37,-1.068,2.958,103.0,blue,280,TRUE
436,1661991492.665,3730.000343442316,3956.5492169481236,1000,0.675,-0.929,-2.509,119.7,red,280,TRUE
437,1661991492.766,4244.53328483538,2645.3981345024717,1000,1.141,-1.548,0.021,107.2,yellow,280,TRUE
438,1661991492.859,5375.188647477015,9157.337173094846,1000,5.754,-1.34,0.509,105.4,green,280,TRUE
439,1661991494.077,5881.1889947812915,1506.2873582489017,1000,5.333,-1.113,2.964,1130.4,blue,280,TRUE
440,1661991495.191,4235.114809701648,2647.286801871414,1000,1.122,-1.55,0.02,122.1,yellow,280,TRUE
441,1661991495.293,5380.788881085896,9117.467883287576,1000,5.433,-1.25,0.131,110.5,green,280,TRUE
442,1661991495.572,5851.142890556141,1525.9474717657804,1000,5.294,-1.148,2.929,102.1,blue,280,TRUE
443,1661991495.662,3860.5769693830384,3694.4856526157523,1000,0.263,-1.377,-2.029,119.6,red,280,TRUE
444,1661991495.763,4297.358948829941,2554.3726924129555,1000,1.137,-1.55,0.02,107.2,yellow,280,TRUE
445,1661991495.857,5425.31067060382,9015.821070047725,1000,5.004,-1.134,-0.031,103.2,green,280,TRUE
446,1661991496.13,5861.332361250233,1525.0462123608593,1000,5.31,-1.151,2.895,120.5,blue,280,TRUE
447,1661991496.232,3858.9211807556203,3774.088198237236,1000,5.619,-1.468,3.125,107.8,red,280,TRUE
448,1661991496.327,4277.595729687088,2526.7178379668353,1000,1.137,-1.547,0.02,118.6,yellow,280,TRUE
449,1661991496.417,5403.792368941005,8971.106886796159,1000,5.323,-1.157,0.089,103.1,green,280,TRUE
450,1661991496.7,5842.251722593587,1486.4848972270963,1000,5.016,-1.077,-3.124,108.1,blue,280,TRUE
451,1661991496.798,3870.9929142065516,4035.532383560805,1000,5.505,-1.455,-0.115,101.8,red,280,TRUE
452,1661991496.886,4262.822767640661,2542.2269789251186,1000,1.136,-1.544,0.02,106.2,yellow,280,TRUE
453,1661991496.98,5394.595023867546,8969.284660615278,1000,5.186,-1.224,-0.149,102.3,green,280,TRUE
454,1661991497.276,5855.251796946725,1442.9642405554803,1000,4.719,-1.151,-2.866,107.0,blue,280,TRUE
455,1661991497.371,3838.597127932646,4485.443692272401,1000,5.464,-1.488,0.044,100.7,red,280,TRUE
456,1661991497.458,4334.694213911517,2615.8427664304563,1000,1.151,-1.549,0.02,103.8,yellow,280,TRUE
457,1661991497.552,5396.652687523113,8964.772248938576,1000,5.107,-1.242,-0.359,100.9,green,280,TRUE
458,1661991497.837,5865.755226427151,1383.401444237007,1000,4.196,-1.28,-2.77,106.5,blue,280,TRUE
459,1661991497.929,3880.832333637752,5192.57141000638,1000,5.827,-1.454,-0.074,102.7,red,280,TRUE
460,1661991498.021,4382.37651166189,2588.563649524495,1000,1.323,-1.482,3.095,101.0,yellow,280,TRUE
461,1661991498.109,5418.262393509789,8954.492895537327,1000,5.143,-1.236,-0.32,118.0,green,280,TRUE
462,1661991498.409,5501.7382243760085,1373.7635958742273,1000,3.787,-1.317,-2.811,102.8,blue,280,TRUE
463,1661991498.5,3927.1712963106343,5997.216006194667,1000,5.812,-1.479,-0.014,100.9,red,280,TRUE
464,1661991498.59,4338.97526486355,2537.3917548750646,1000,1.701,-1.43,2.917,101.1,yellow,280,TRUE
465,1661991498.678,5408.149512155936,9023.578850613167,1000,5.088,-1.198,-0.276,119.1,green,280,TRUE
466,1661991498.963,5375.2036029342,1347.7826192969744,1000,3.236,-1.347,-3.034,103.8,blue,280,TRUE
467,1661991499.055,4062.0370523574707,6843.130606907926,1000,6.004,-1.558,-0.004,102.4,red,280,TRUE
468,1661991499.143,4192.683006003649,2516.7564934533734,1000,1.698,-1.42,-2.439,117.5,yellow,280,TRUE
469,1661991499.244,5433.69157061093,9034.194305837318,1000,5.238,-1.175,0.011,106.9,green,280,TRUE
470,1661991502.951,5109.225175722034,1552.1267268533009,1000,0.416,-1.364,-2.055,111.1,blue,280,TRUE
471,1661991503.051,4455.315724122961,7565.175021217953,1000,5.719,-1.513,3.091,102.0,red,280,TRUE
472,1661991503.139,3839.514352424155,1448.939479695093,1000,0.248,-1.466,0.076,120.3,yellow,280,TRUE
473,1661991503.243,5466.177963474089,9049.465193398733,1000,5.38,-1.138,0.062,106.3,green,280,TRUE
474,1661991504.466,4966.883650553654,1953.4749567219726,1000,0.566,-1.438,-1.773,1129.4,blue,280,TRUE
475,1661991505.582,4191.340541761128,1507.3078275839287,1000,5.604,-1.506,-3.126,118.9,yellow,280,TRUE
476,1661991505.678,5484.037018810373,9095.220477135472,1000,5.637,-1.108,0.035,128.8,green,280,TRUE
477,1661991505.974,4992.534852411297,2326.8267816233247,1000,1.049,-1.416,-3.057,104.9,blue,280,TRUE
478,1661991506.068,4726.518123839924,8176.835583636133,1000,5.029,-1.541,3.133,102.1,red,280,TRUE
479,1661991506.155,4219.531343446625,1587.1621302412739,1000,5.772,-1.366,1.786,136.4,yellow,280,TRUE
480,1661991506.259,5484.036177927366,9089.228806302473,1000,5.689,-1.118,0.08,107.8,green,280,TRUE
481,1661991506.537,5091.683178712005,2697.6422429124664,1000,1.071,-1.416,-3.114,100.3,blue,280,TRUE
482,1661991506.627,4951.167200322709,8655.061971400903,1000,5.035,-1.544,3.131,100.8,red,280,TRUE
483,1661991506.713,4237.127294656699,1656.421803410704,1000,5.878,-1.321,1.743,105.8,yellow,280,TRUE
484,1661991506.809,5483.048223448909,9079.07050537123,1000,6.003,-1.038,0.119,115.4,green,280,TRUE
485,1661991507.122,5298.05848708626,3148.882851511106,1000,1.078,-1.421,3.12,133.1,blue,280,TRUE
486,1661991507.224,5109.7099156311915,8892.215575308493,1000,5.035,-1.544,3.124,106.9,red,280,TRUE
487,1661991507.316,4315.4091355861365,1692.0929149872893,1000,0.019,-1.37,1.619,104.5,yellow,280,TRUE
488,1661991507.406,5510.302043201572,9022.742687740885,1000,6.042,-1.024,0.125,104.9,green,280,TRUE
489,1661991507.701,5572.407232623263,3540.9377462374446,1000,1.244,-1.485,3.138,123.7,blue,280,TRUE
490,1661991511.115,5632.839998244759,3877.332093962057,1000,2.147,-1.373,-2.366,1154.7,blue,280,TRUE
491,1661991512.25,4268.810523065308,1675.68431496429,1000,6.23,-1.44,1.416,125.9,yellow,280,TRUE
492,1661991514.504,5428.0297106532225,3662.6184984958322,1000,1.8,-1.333,-2.881,117.7,blue,280,TRUE
493,1661991514.6,5356.612606228552,9017.164938929192,1000,4.67,-1.439,-2.19,111.2,red,280,TRUE
494,1661991514.692,4327.755357040175,1729.2008689558072,1000,6.15,-1.486,0.081,108.6,yellow,280,TRUE
495,1661991514.789,5557.287159070608,9047.816578557362,1000,5.886,-1.153,0.177,119.8,green,280,TRUE
496,1661991515.079,4986.039283896299,3340.4031499766147,1000,1.756,-1.358,-2.997,100.0,blue,280,TRUE
497,1661991515.166,5537.465897236798,9024.961586992076,1000,4.573,-1.557,3.137,119.4,red,280,TRUE
498,1661991515.269,4249.675670556816,1709.8034489231648,1000,6.209,-1.475,0.093,106.8,yellow,280,TRUE
499,1661991515.363,5499.486080433856,9077.135963341743,1000,5.889,-1.12,0.156,88.3,green,280,TRUE
500,1661991515.619,4562.465979776783,2988.663940586031,1000,1.6,-1.356,-2.958,122.3,blue,280,TRUE
501,1661991515.73,5516.638142961948,8990.211491014432,1000,4.662,-1.496,3.073,101.9,red,280,TRUE
502,1661991515.819,4169.91826014778,1672.8824317113233,1000,6.28,-1.444,0.949,118.7,yellow,280,TRUE
503,1661991518.053,4202.82863175192,2564.0803834915296,1000,0.401,-1.26,-2.838,137.3,blue,280,TRUE
504,1661991518.171,5716.82435368708,8924.966937196046,1000,4.621,-1.455,-3.03,110.2,red,280,TRUE
505,1661991518.283,4180.550257063614,1657.8675639975313,1000,0.319,-1.448,0.954,1083.4,yellow,280,TRUE
506,1661991523.986,6013.741185759266,8861.112718471912,1000,4.832,-1.509,-3.081,1139.5,red,280,TRUE
507,1661991527.257,4051.323448417838,2231.7751631084993,1000,5.751,-1.38,-3.015,1132.4,blue,280,TRUE
508,1661991528.376,4659.820314889522,1748.4508326530404,1000,0.046,-1.371,2.079,131.2,yellow,280,TRUE
509,1661991528.478,5490.867238825541,9051.967989128842,1000,6.194,-1.157,0.189,125.0,green,280,TRUE
510,1661991528.766,4282.382083503943,1662.2491711480627,1000,5.99,-1.378,-2.772,116.2,blue,280,TRUE
511,1661991529.891,5375.210310651514,1548.4758968918866,1000,0.029,-1.391,1.885,1133.7,yellow,280,TRUE
512,1661991535.481,4646.442681060372,1511.3933144749217,1000,5.629,-1.24,-3.132,128.8,blue,280,TRUE
513,1661991535.591,6097.707537422774,8878.49605682236,1000,5.071,-1.515,0.026,108.2,red,280,TRUE
514,1661991535.678,4780.968013279598,1245.678895156718,1000,1.45,-1.374,-2.234,125.5,yellow,280,TRUE
515,1661991537.949,5049.574256758721,1642.939974908894,1000,5.842,-1.083,3.069,1145.6,blue,280,TRUE
516,1661991539.072,4636.543423940302,1423.1741711421832,1000,1.16,-1.382,1.736,143.6,yellow,280,TRUE
517,1661991541.345,5373.211674267899,1649.611554889215,1000,5.946,-1.083,3.011,120.9,blue,280,TRUE
518,1661991544.754,5584.464433858394,1634.879124958763,1000,5.933,-1.121,3.066,123.6,blue,280,TRUE
519,1661991544.856,6202.902229944375,8951.004675157295,1000,5.068,-1.517,0.02,113.1,red,280,TRUE
520,1661991544.946,4511.714990496983,1524.3655233366972,1000,0.975,-1.522,0.0,116.2,yellow,280,TRUE
521,1661991545.036,4462.767472081586,1586.46732744432,1000,0.975,-1.522,0.0,1048.9,yellow,280,TRUE
522,1661991546.258,5643.6241370977,1620.9341067738599,1000,5.896,-1.175,3.028,126.8,blue,280,TRUE
523,1661991547.397,4596.783429763626,1669.5821186176947,1000,1.146,-1.518,-3.098,1149.4,yellow,280,TRUE
524,1661991548.72,5597.678228981508,1700.038416362597,1000,5.933,-1.122,2.871,125.3,blue,280,TRUE
525,1661991552.135,5100.18026047566,1852.4216584900107,1000,5.797,-1.172,2.892,1144.2,blue,280,TRUE
526,1661991553.263,4090.517763624683,1837.82700552049,1000,0.753,-1.5,-3.094,123.0,yellow,280,TRUE
527,1661991554.52,4825.877461734057,1783.7727426714148,1000,5.703,-1.206,3.118,1133.0,blue,280,TRUE
528,1661991555.635,4200.5842179987,2338.0888001003805,1000,6.065,-1.52,-3.096,120.9,yellow,280,TRUE
529,1661991562.37,4373.92889778213,2380.6696496221325,1000,2.52,-1.548,3.124,1146.1,yellow,280,TRUE
530,1661991563.706,4810.239174836349,1774.41626888444,1000,5.454,-1.338,2.903,112.3,blue,280,TRUE
531,1661991563.805,6284.738032495537,8920.852481363965,1000,3.876,-1.311,-1.415,104.4,red,280,TRUE
532,1661991563.894,4561.6222654360345,2524.851453508494,1000,2.539,-1.529,-0.037,120.8,yellow,280,TRUE
533,1661991566.148,4792.029957248206,1789.5676469895861,1000,5.67,-1.221,2.68,118.0,blue,280,TRUE
534,1661991566.245,5954.754583166215,8410.299235792876,1000,2.554,-1.229,-0.002,125.3,red,280,TRUE
535,1661991566.349,4768.23061290173,2561.8911358498594,1000,1.896,-1.379,-2.87,111.3,yellow,280,TRUE
536,1661991566.447,6019.74493820394,9092.662368639378,1000,5.068,-1.176,0.185,105.6,green,280,TRUE
537,1661991566.751,4772.603150328229,1767.1975795376923,1000,5.752,-1.285,2.634,117.8,blue,280,TRUE
538,1661991566.849,5456.342841290406,7725.632192643199,1000,2.461,-1.473,0.0,110.7,red,280,TRUE
539,1661991566.946,4632.160961365766,2547.7118733857496,1000,1.908,-1.383,-2.889,105.8,yellow,280,TRUE
540,1661991567.04,6155.416753745734,8934.953157794174,1000,4.523,-1.136,0.197,101.9,green,280,TRUE
541,1661991567.32,4809.416762947094,1800.0576380241785,1000,5.532,-1.402,3.089,107.4,blue,280,TRUE
542,1661991567.413,4916.97355094011,6924.38825827723,1000,1.877,-1.362,0.252,105.9,red,280,TRUE
543,1661991567.505,4851.423775759079,2559.6440785187347,1000,1.915,-1.371,-2.911,105.1,yellow,280,TRUE
544,1661991567.599,6161.05069669299,8905.594156960367,1000,4.563,-1.125,0.214,102.0,green,280,TRUE
545,1661991567.883,5269.927805736035,1609.862653206764,1000,5.305,-1.505,-3.094,105.0,blue,280,TRUE
546,1661991567.974,4616.560190904463,5951.597840775939,1000,1.653,-1.396,-0.157,104.4,red,280,TRUE
547,1661991568.067,5068.504970599354,2425.794447207993,1000,1.909,-1.366,-2.901,101.7,yellow,280,TRUE
548,1661991568.16,6165.469304414154,8887.827900394052,1000,4.604,-1.131,0.245,100.2,green,280,TRUE
549,1661991568.442,5472.603264533788,1493.189053879706,1000,5.223,-1.493,-0.062,104.5,blue,280,TRUE
550,1661991568.534,4161.077763010286,4904.536577187658,1000,0.608,-1.412,-1.911,103.4,red,280,TRUE
551,1661991568.625,5046.379182265206,2454.0753703783644,1000,1.949,-1.378,-2.854,100.2,yellow,280,TRUE
552,1661991568.712,6160.151911565337,8856.640436705336,1000,4.644,-1.106,0.268,119.9,green,280,TRUE
553,1661991568.999,5476.622500138436,1431.089929167468,1000,5.255,-1.178,-2.981,120.2,blue,280,TRUE
554,1661991569.109,3710.3516285257942,3971.6205371306355,1000,0.053,-1.244,-1.959,100.5,red,280,TRUE
555,1661991569.197,5154.3963294759515,2506.574097906073,1000,2.467,-1.454,-3.117,102.5,yellow,280,TRUE
556,1661991569.287,6158.127538531901,8839.006703437919,1000,4.619,-1.076,0.266,102.9,green,280,TRUE
557,1661991569.542,5460.192151691878,1403.1061570646336,1000,5.536,-1.141,-2.983,103.8,blue,280,TRUE
558,1661991569.632,3706.7332711361028,3496.248205786805,1000,0.031,-1.249,-1.943,119.2,red,280,TRUE
559,1661991569.734,5141.839348453439,2587.8911872183976,1000,2.546,-1.526,-3.111,125.1,yellow,280,TRUE
560,1661991569.84,6185.314659320392,8778.338174399587,1000,4.643,-1.073,0.272,121.5,green,280,TRUE
561,1661991570.102,5442.286557142977,1238.7650396178888,1000,5.407,-1.06,-2.709,117.0,blue,280,TRUE
562,1661991570.222,5164.183908832659,3031.089733842564,1000,2.557,-1.54,-3.115,1127.9,red,280,TRUE
563,1661991570.222,5147.9904788674085,2717.424758381132,1000,2.557,-1.54,-3.115,1131.9,yellow,280,TRUE
564,1661991570.222,5161.370157287592,2850.947201247726,1000,2.557,-1.54,-3.115,1135.9,yellow,280,TRUE
565,1661991571.333,6164.426875618318,8768.013521891738,1000,4.65,-1.042,0.262,106.5,green,280,TRUE
566,1661991571.628,5397.69360390353,1185.2905685995552,1000,5.49,-1.449,-2.418,114.5,blue,280,TRUE
567,1661991571.729,4504.40355695653,2988.9592640793935,1000,6.272,-1.354,-1.792,119.7,red,280,TRUE
568,1661991571.831,5131.89606660622,2847.891781330176,1000,2.614,-1.442,2.99,107.9,yellow,280,TRUE
569,1661991571.925,6167.906722668307,8748.91138472294,1000,4.668,-1.021,0.256,106.3,green,280,TRUE
570,1661991572.198,5370.595126431507,1203.2984462459412,1000,5.691,-1.385,-2.951,104.8,blue,280,TRUE
571,1661991572.289,4193.777563692408,3164.5817337437766,1000,6.081,-1.512,-0.039,102.5,red,280,TRUE
572,1661991572.377,5138.741520073113,2883.825836076729,1000,2.623,-1.437,2.952,105.9,yellow,280,TRUE
573,1661991572.47,6172.1388765704405,8725.5547382469,1000,4.707,-1.021,0.26,106.3,green,280,TRUE
574,1661991572.753,5350.8630434415,1192.4771013737898,1000,5.342,-1.4,-2.771,137.1,blue,280,TRUE
575,1661991572.876,4054.2203870237454,3175.848752787392,1000,5.912,-1.385,-1.014,105.2,red,280,TRUE
576,1661991572.967,4995.848179651554,2790.528545471662,1000,2.606,-1.428,3.014,104.6,yellow,280,TRUE
577,1661991573.06,6156.102946745889,8758.462904635917,1000,5.017,-0.983,0.24,100.2,green,280,TRUE
578,1661991573.327,5346.184568351081,1124.4152991973233,1000,5.722,-1.088,2.711,104.8,blue,280,TRUE
579,1661991573.419,3976.553720391753,3183.7035458892487,1000,0.059,-1.516,0.037,102.4,red,280,TRUE
580,1661991573.508,5018.549271362555,2888.8000595630147,1000,2.574,-1.431,3.049,119.6,yellow,280,TRUE
581,1661991573.601,6186.158166580625,8801.971105923885,1000,5.612,-1.126,0.551,119.3,green,280,TRUE
582,1661991573.891,5349.881783633572,1092.4751878887612,1000,5.598,-1.168,2.836,130.6,blue,280,TRUE
583,1661991574.009,3932.93523228241,3292.036198627759,1000,5.893,-1.436,2.354,118.2,red,280,TRUE
584,1661991574.189,5772.192633475775,2013.8694907252327,1000,0.021,-1.396,1.199,1114.7,yellow,280,TRUE
585,1661991575.38,5258.787057744862,1225.7428134630775,1000,5.743,-1.444,2.589,104.4,blue,280,TRUE
586,1661991575.476,3709.454556268475,3821.901283805723,1000,5.546,-1.433,-1.109,99.5,red,280,TRUE
587,1661991575.565,5406.234961997345,2411.594810869361,1000,2.595,-1.431,2.941,103.9,yellow,280,TRUE
588,1661991575.655,5231.038660801875,8946.590971244737,1000,5.603,-1.16,0.634,102.9,green,280,TRUE
589,1661991575.938,5206.859452764517,1219.706149785676,1000,5.767,-1.384,-2.758,104.9,blue,280,TRUE
590,1661991576.029,3758.4362682735773,4483.926389027739,1000,5.727,-1.52,0.05,105.0,red,280,TRUE
591,1661991576.123,5275.953092216031,2559.6820297033933,1000,2.599,-1.432,2.935,101.9,yellow,280,TRUE
592,1661991578.356,5173.180610907345,1227.7489377483603,1000,6.164,-1.057,2.844,121.5,blue,280,TRUE
593,1661991578.456,4087.191764381283,5404.285056230004,1000,5.27,-1.307,-2.311,126.8,red,280,TRUE
594,1661991578.563,5155.655485730344,2527.454155208778,1000,2.736,-1.463,3.139,125.5,yellow,280,TRUE
595,1661991585.374,5116.0903784873935,2506.645902251239,1000,2.304,-1.415,-2.547,1139.5,yellow,280,TRUE
596,1661991586.702,5138.098206514272,1282.9875971973197,1000,5.364,-1.201,2.901,99.7,blue,280,TRUE
597,1661991586.788,4518.95346178847,6311.606756466256,1000,5.706,-1.472,0.052,117.7,red,280,TRUE
598,1661991586.891,5098.979101481541,2471.2361314032346,1000,2.571,-1.544,3.126,119.6,yellow,280,TRUE
599,1661991589.14,5076.642384305243,1412.726417426749,1000,5.375,-1.163,-2.668,123.0,blue,280,TRUE
