,timestamp,x,y,z,yaw,roll,pitch,latency,student,session,success
0,1661998487.485,1732.354029209109,1714.615852023062,1000,0.68,-1.39,-2.714,1133.1,blue,281,TRUE
1,1661998491.932,2136.3234568826465,849.5235548004775,1000,2.848,-1.492,-0.065,1134.4,red,281,TRUE
2,1661998495.189,1873.1094205591519,2067.8517938993896,1000,0.886,-1.484,-3.074,115.4,blue,281,TRUE
3,1661998495.282,2248.849290779877,1417.3309034809613,1000,2.862,-1.523,-3.123,112.0,red,281,TRUE
4,1661998498.717,2312.3004188971336,1778.1821600268613,1000,2.755,-1.512,-0.031,1135.7,red,281,TRUE
5,1661998499.828,2962.2674880675804,-2529.04774018031,1000,5.599,0.062,-0.127,113.7,green,281,TRUE
6,1661998500.081,2160.3661368086073,2362.9783361174864,1000,0.909,-1.487,-3.075,99.6,blue,281,TRUE
7,1661998500.168,2372.950252727566,2687.3753923499517,1000,2.757,-1.537,-3.125,133.3,red,281,TRUE
8,1661998502.552,2308.4268105484275,2927.394558096359,1000,2.731,-1.532,-3.117,113.4,red,281,TRUE
9,1661998504.922,2692.4392407039336,3571.8543415178083,1000,2.704,-1.524,-3.105,113.7,red,281,TRUE
10,1661998507.291,2704.2099269612877,3601.8011029872246,1000,2.778,-1.523,-3.102,114.5,red,281,TRUE
11,1661998509.673,2727.5488047352646,3563.2572890909064,1000,2.781,-1.523,-3.103,128.7,red,281,TRUE
12,1661998512.038,2745.217068170967,3570.8805739662034,1000,2.727,-1.528,-3.118,115.7,red,281,TRUE
13,1661998512.135,3654.1782478328237,-2536.3988123382073,1000,4.999,-1.068,0.194,109.7,yellow,281,TRUE
14,1661998512.231,3076.3530852336016,-2564.059050345017,1000,5.623,0.035,-0.141,117.7,green,281,TRUE
15,1661998512.438,2349.6534603887126,3021.1897031985463,1000,1.032,-1.476,-3.071,104.8,blue,281,TRUE
16,1661998512.531,2737.488564101703,3599.101777741478,1000,2.676,-1.52,-3.109,101.8,red,281,TRUE
17,1661998512.619,3682.7314544801297,-2543.4192023393357,1000,5.007,-1.034,0.196,117.7,yellow,281,TRUE
18,1661998512.721,2966.0304615755176,-2557.847853864319,1000,5.627,0.032,-0.13,120.7,green,281,TRUE
19,1661998512.92,2361.9101973254296,3307.703496491966,1000,1.016,-1.474,-3.072,100.7,blue,281,TRUE
20,1661998513.011,2751.9950964299583,3587.515729393921,1000,2.653,-1.518,-3.11,100.7,red,281,TRUE
21,1661998513.098,3551.560591054745,-2505.6762054804967,1000,5.016,-1.071,0.233,119.1,yellow,281,TRUE
22,1661998513.2,2890.3337778519294,-2553.287486565082,1000,5.628,0.031,-0.132,120.6,green,281,TRUE
23,1661998513.456,2468.071089162761,3362.2615068469254,1000,1.018,-1.476,-3.072,103.7,blue,281,TRUE
24,1661998513.548,2716.7111665967163,3578.0977764837703,1000,2.635,-1.525,-3.108,116.7,red,281,TRUE
25,1661998514.669,2893.066005292275,-2542.3977836320537,1000,5.629,0.019,-0.12,1167.7,green,281,TRUE
26,1661998515.843,2514.092629095439,3426.962816568992,1000,0.998,-1.476,-3.07,113.7,blue,281,TRUE
27,1661998515.935,2705.9207907159566,3549.341283996324,1000,2.502,-1.493,-3.072,127.6,red,281,TRUE
28,1661998517.068,2897.689505351818,-2547.4279561864105,1000,5.64,0.007,-0.082,1166.1,green,281,TRUE
29,1661998518.241,2498.087758811713,3415.437010017618,1000,0.998,-1.484,-3.073,113.7,blue,281,TRUE
30,1661998518.332,2700.6187332823524,3575.9121044552426,1000,2.547,-1.518,-3.091,126.7,red,281,TRUE
31,1661998520.666,2709.49554411338,3577.7258344681336,1000,2.577,-1.512,-3.087,128.6,red,281,TRUE
32,1661998520.798,2956.9954403214056,-1503.5023254505873,1000,5.064,-1.29,0.68,1089.6,yellow,281,TRUE
33,1661998520.798,2896.664936400099,-2376.475000490595,1000,5.064,-1.29,0.68,1090.6,green,281,TRUE
34,1661998520.798,2857.799119639863,-2193.9582504913215,1000,5.064,-1.29,0.68,1092.6,green,281,TRUE
35,1661998522.03,2476.455153210172,3430.3444335028453,1000,0.911,-1.489,-3.075,114.0,blue,281,TRUE
36,1661998522.133,2706.950502708074,3563.669842171488,1000,2.585,-1.518,-0.051,114.7,red,281,TRUE
37,1661998524.456,2710.988241029363,3547.404258273262,1000,2.575,-1.522,-0.047,113.5,red,281,TRUE
38,1661998526.795,2752.4954621868687,3573.4712009963464,1000,2.592,-1.51,-0.046,113.5,red,281,TRUE
39,1661998529.166,2756.1095149709286,3592.663344670958,1000,2.581,-1.473,-0.057,127.6,red,281,TRUE
40,1661998529.271,3315.817474885813,-2098.962341435806,1000,5.064,-1.266,0.523,172.5,yellow,281,TRUE
41,1661998529.548,2455.4879670102473,3432.229930268994,1000,0.916,-1.48,-3.072,119.7,blue,281,TRUE
42,1661998529.652,2740.2011286380043,3592.4265106765397,1000,2.607,-1.489,-0.052,135.7,red,281,TRUE
43,1661998530.947,2440.8764142668783,3432.663285519038,1000,0.962,-1.523,-0.041,99.7,blue,281,TRUE
44,1661998531.036,2718.7503285494845,3554.615175941892,1000,2.65,-1.537,-3.11,115.7,red,281,TRUE
45,1661998532.31,2434.50223813041,3364.962221884359,1000,0.918,-1.508,-0.062,100.6,blue,281,TRUE
46,1661998532.397,2716.5798006051164,3548.8313658343886,1000,2.63,-1.534,-3.113,117.9,red,281,TRUE
47,1661998534.726,2717.0828289369174,3555.635857112022,1000,2.661,-1.54,-3.115,114.9,red,281,TRUE
48,1661998537.034,2721.371847490287,3540.2128818671604,1000,2.607,-1.534,-3.106,113.5,red,281,TRUE
49,1661998538.151,2751.399323882804,-2179.3399910000944,1000,5.651,0.059,-0.145,1170.3,green,281,TRUE
50,1661998539.329,2443.935744770477,3362.3794203542634,1000,1.043,-1.516,-0.052,113.7,blue,281,TRUE
51,1661998539.419,2729.0131695030395,3500.7510442570547,1000,2.593,-1.525,-3.099,97.0,red,281,TRUE
52,1661998539.503,3561.0802898867255,-2248.6222026016553,1000,5.051,-1.253,0.467,102.8,yellow,281,TRUE
53,1661998539.595,2778.2779526362815,-2213.7143054901103,1000,5.597,0.085,-0.152,86.7,green,281,TRUE
54,1661998539.786,2489.3193062116,3366.404698317878,1000,1.02,-1.509,-0.053,106.7,blue,281,TRUE
55,1661998539.879,2729.078104286514,3493.892004810041,1000,2.604,-1.529,-0.039,102.7,red,281,TRUE
56,1661998539.969,3654.102828125332,-2318.0548888572225,1000,5.052,-1.258,0.469,102.7,yellow,281,TRUE
57,1661998540.06,2732.7411000858206,-2240.453865225207,1000,5.592,0.068,-0.127,100.7,green,281,TRUE
58,1661998540.25,2515.336586829211,3375.36070840774,1000,0.983,-1.504,-0.055,121.1,blue,281,TRUE
59,1661998540.355,2739.44851794754,3521.5846004358195,1000,2.595,-1.528,-0.04,105.7,red,281,TRUE
60,1661998540.448,3685.28332235323,-2385.453601639364,1000,5.055,-1.257,0.488,102.8,yellow,281,TRUE
61,1661998540.536,2702.6691565437236,-2243.5944970714904,1000,5.603,0.059,-0.163,102.9,green,281,TRUE
62,1661998540.788,2541.2988259982503,3356.3706437528604,1000,0.933,-1.514,-0.05,106.7,blue,281,TRUE
63,1661998540.881,2738.534241673047,3485.7938543982455,1000,2.569,-1.527,-3.099,103.3,red,281,TRUE
64,1661998540.97,3691.7893344237655,-2423.9446915240196,1000,5.046,-1.253,0.468,103.7,yellow,281,TRUE
65,1661998543.184,2535.744109921502,3303.360725457986,1000,0.805,-1.425,-2.237,104.7,blue,281,TRUE
66,1661998543.281,2702.855064846732,3467.2154666012575,1000,2.675,-1.501,-0.047,113.3,red,281,TRUE
67,1661998543.372,3699.339438610518,-2576.0047110983724,1000,5.063,-1.286,0.579,96.7,yellow,281,TRUE
68,1661998543.455,2678.187794950003,-2435.162729902062,1000,5.615,0.109,-0.194,104.7,green,281,TRUE
69,1661998543.695,2513.54785036416,3322.951013886593,1000,0.602,-1.424,-2.175,119.7,blue,281,TRUE
70,1661998543.798,2637.302974695666,3441.7233467389037,1000,2.627,-1.497,-0.053,106.2,red,281,TRUE
71,1661998543.892,3682.7831858208187,-2558.883942119509,1000,5.063,-1.273,0.535,117.5,yellow,281,TRUE
72,1661998543.98,2630.8668718996796,-2627.519872708374,1000,5.612,0.104,-0.192,118.7,green,281,TRUE
73,1661998544.18,2505.4037672683094,3291.100250067439,1000,0.549,-1.397,-2.729,113.7,blue,281,TRUE
74,1661998544.277,2621.7754427575064,3474.9268206238025,1000,2.623,-1.489,-0.052,121.1,red,281,TRUE
75,1661998544.38,3627.821187969986,-2608.010265451116,1000,5.055,-1.281,0.535,107.7,yellow,281,TRUE
76,1661998546.605,2461.011696362397,3226.332060632993,1000,0.81,-1.404,-2.779,105.7,blue,281,TRUE
77,1661998546.702,2614.6119759300896,3474.231362183639,1000,2.634,-1.515,-0.032,112.7,red,281,TRUE
78,1661998549.066,2632.588401127659,3514.2125107646475,1000,4.493,-1.526,-3.098,115.7,red,281,TRUE
79,1661998550.186,2564.6190115728928,-2511.623541340367,1000,5.625,0.117,-0.141,1166.9,green,281,TRUE
80,1661998551.359,2436.342540792767,3185.3247930989432,1000,0.805,-1.404,-2.759,114.0,blue,281,TRUE
81,1661998551.478,2551.626455576423,3494.4457796444717,1000,3.039,-1.54,-3.113,1089.1,red,281,TRUE
82,1661998552.553,2614.3513675863164,-2490.7281832036615,1000,5.644,0.073,-0.168,105.3,green,281,TRUE
83,1661998552.793,2410.830917304342,3143.6853419981617,1000,0.974,-1.476,-3.097,104.7,blue,281,TRUE
84,1661998552.886,2599.275372416172,3637.7036579567202,1000,3.054,-1.488,0.004,116.1,red,281,TRUE
85,1661998555.199,2595.3565122997875,3803.619853640639,1000,4.0,-1.49,3.129,111.8,red,281,TRUE
86,1661998555.303,3535.0833725864723,-2583.5611788295523,1000,4.92,-1.18,0.362,98.3,yellow,281,TRUE
87,1661998555.389,2678.11972810643,-2483.4939627904528,1000,5.647,0.076,-0.165,102.2,green,281,TRUE
88,1661998555.572,2413.9015632595474,3121.9529562952407,1000,0.782,-1.273,3.05,113.4,blue,281,TRUE
89,1661998555.67,2664.723096906995,3978.9029621728487,1000,4.242,-1.487,-3.065,121.7,red,281,TRUE
90,1661998555.775,3477.213345216745,-2546.511567417953,1000,4.909,-1.184,0.352,121.8,yellow,281,TRUE
91,1661998555.879,2734.393356696936,-2487.3387631590276,1000,5.652,0.072,-0.166,106.4,green,281,TRUE
92,1661998556.066,2448.5466984424534,3077.446230469625,1000,0.77,-1.12,2.903,99.8,blue,281,TRUE
93,1661998556.155,2711.514924889848,4152.244137183467,1000,4.643,-1.479,-3.054,101.8,red,281,TRUE
94,1661998556.243,3445.177336357309,-2513.537234928475,1000,4.924,-1.175,0.359,117.7,yellow,281,TRUE
95,1661998556.345,2768.090564388723,-2462.4290808266455,1000,5.651,0.07,-0.157,106.2,green,281,TRUE
96,1661998556.588,2506.838646997648,3197.7051100563276,1000,0.374,-1.23,-2.709,101.7,blue,281,TRUE
97,1661998556.677,2743.5852190598703,4319.38547870509,1000,4.835,-1.554,3.126,118.7,red,281,TRUE
98,1661998556.779,3513.421155709675,-2514.869433583586,1000,4.923,-1.169,0.362,120.7,yellow,281,TRUE
99,1661998556.884,2735.1326910948515,-2456.544575831505,1000,5.642,0.076,-0.113,106.7,green,281,TRUE
100,1661998557.07,2574.518929459949,3398.721116998706,1000,0.048,-1.335,-3.029,98.7,blue,281,TRUE
101,1661998557.159,2814.9583806246574,4684.10989401379,1000,4.962,-1.467,-3.038,100.2,red,281,TRUE
102,1661998557.246,3478.9476810985793,-2495.713940566725,1000,4.914,-1.198,0.368,118.4,yellow,281,TRUE
103,1661998557.348,2915.539185928153,-2593.345942440621,1000,5.642,0.109,-0.159,121.1,green,281,TRUE
104,1661998557.549,2573.184879311783,3682.861115406266,1000,5.826,-1.34,3.106,99.7,blue,281,TRUE
105,1661998557.635,2857.9549774956863,5150.407749112247,1000,4.952,-1.511,-3.089,118.7,red,281,TRUE
106,1661998557.738,3465.6956161835224,-2442.433744423212,1000,4.904,-1.239,0.411,152.0,yellow,281,TRUE
107,1661998557.873,2872.5700394360265,-2619.312788779458,1000,5.646,0.117,-0.169,105.7,green,281,TRUE
108,1661998558.115,2563.5069486806883,4021.211056163023,1000,5.592,-1.364,-2.889,104.1,blue,281,TRUE
109,1661998558.208,2921.1097807126866,5531.663109976894,1000,4.8,-1.509,-3.079,118.0,red,281,TRUE
110,1661998560.551,2739.2835923631287,5956.275925343428,1000,3.9,-1.518,-0.024,130.7,red,281,TRUE
111,1661998562.886,2608.102599460393,6344.47795638331,1000,3.539,-1.53,-0.039,114.7,red,281,TRUE
112,1661998565.197,2462.7972787532913,6641.240452314597,1000,3.535,-1.544,-3.114,127.6,red,281,TRUE
113,1661998566.492,2123.37618395813,4510.786975405452,1000,4.652,-1.369,-2.971,105.9,blue,281,TRUE
114,1661998566.585,2306.230003386628,6888.583129329552,1000,3.515,-1.54,-3.114,117.0,red,281,TRUE
115,1661998568.94,2145.5695433327573,6989.227215992413,1000,3.493,-1.538,-0.031,115.6,red,281,TRUE
116,1661998570.076,2843.0781028158913,-2628.8130522537804,1000,5.685,0.099,-0.123,1165.8,green,281,TRUE
117,1661998571.249,1539.6013760676014,4955.921874035253,1000,4.332,-1.36,-3.033,112.7,blue,281,TRUE
118,1661998571.339,1960.2401395506752,7101.168747677017,1000,3.507,-1.541,-0.027,126.7,red,281,TRUE
119,1661998573.675,1945.9658034309386,7080.726018157754,1000,3.473,-1.527,-0.043,114.3,red,281,TRUE
120,1661998576.012,1894.5800663392665,7077.846111078795,1000,3.486,-1.526,-0.044,116.0,red,281,TRUE
121,1661998578.378,1903.9412779643171,7140.913404814957,1000,3.498,-1.527,-3.098,99.7,red,281,TRUE
122,1661998578.469,3536.4973900143827,-2462.7395834367035,1000,4.959,-1.25,0.412,158.6,yellow,281,TRUE
123,1661998578.746,953.2204749415337,5299.201216614295,1000,4.212,-1.356,-2.99,105.3,blue,281,TRUE
124,1661998578.835,1941.2521726551067,7141.37775508191,1000,3.495,-1.533,-0.037,106.2,red,281,TRUE
125,1661998578.929,3565.8242240344093,-2477.7271264090773,1000,4.963,-1.251,0.436,90.8,yellow,281,TRUE
126,1661998579.111,398.7729389948663,5592.013418543488,1000,4.217,-1.35,-2.999,86.0,blue,281,TRUE
127,1661998579.185,1989.3064601267872,7137.40743690393,1000,3.495,-1.53,-0.039,103.8,red,281,TRUE
128,1661998579.274,3595.006888364342,-2489.1770015282063,1000,4.953,-1.261,0.436,103.4,yellow,281,TRUE
129,1661998579.485,-195.8396079859273,5810.73093764182,1000,4.232,-1.366,-3.011,87.3,blue,281,TRUE
130,1661998579.56,2047.5436233001826,7144.87123586184,1000,3.486,-1.527,-0.043,102.2,red,281,TRUE
131,1661998579.649,3655.4603720957093,-2509.4689119918853,1000,4.943,-1.269,0.442,102.8,yellow,281,TRUE
132,1661998579.933,-772.8035515102475,5946.510842248383,1000,4.231,-1.376,-2.986,105.5,blue,281,TRUE
133,1661998580.023,2125.1294604051686,7190.476224641531,1000,3.495,-1.513,-0.052,104.6,red,281,TRUE
134,1661998580.116,3713.808821139057,-2510.0389061615656,1000,4.943,-1.264,0.44,145.6,yellow,281,TRUE
135,1661998580.365,-874.00301210953,5966.790429409116,1000,4.216,-1.373,-2.977,90.7,blue,281,TRUE
136,1661998580.442,2175.684881082336,7236.882218744281,1000,3.482,-1.505,-0.059,103.8,red,281,TRUE
137,1661998580.532,3731.4756573154195,-2505.401285612668,1000,4.944,-1.258,0.443,92.8,yellow,281,TRUE
138,1661998580.739,-750.8119584494439,6047.0875232866165,1000,4.211,-1.376,-2.967,120.8,blue,281,TRUE
139,1661998580.844,2178.5461160113896,7223.276674478778,1000,3.481,-1.511,-0.053,120.4,red,281,TRUE
140,1661998583.196,2163.18275551897,7224.277367290702,1000,3.5,-1.52,-0.046,113.8,red,281,TRUE
141,1661998583.314,3844.366087536952,-2539.9158731026864,1000,4.957,-1.242,0.431,1090.3,yellow,281,TRUE
142,1661998584.546,-881.0280115969904,5943.646609679668,1000,4.203,-1.373,-2.945,113.7,blue,281,TRUE
143,1661998584.647,2149.7799667034737,7225.712528652592,1000,3.503,-1.52,-0.046,116.1,red,281,TRUE
144,1661998585.766,2841.8123814847427,-2623.0103193134546,1000,5.743,0.033,-0.135,1199.0,green,281,TRUE
145,1661998586.971,-957.8528112770551,5898.357573814479,1000,4.21,-1.368,-2.955,112.9,blue,281,TRUE
146,1661998587.089,2247.353052465138,7216.332558029857,1000,3.497,-1.517,-0.048,1087.8,red,281,TRUE
147,1661998588.161,2815.694577335311,-2620.8774494262952,1000,5.751,-0.009,-0.122,105.1,green,281,TRUE
148,1661998588.403,-920.6167268647583,5897.016064313772,1000,4.193,-1.373,-2.938,102.1,blue,281,TRUE
149,1661998588.491,2187.7961817996356,7201.164704918454,1000,3.506,-1.518,-0.047,118.7,red,281,TRUE
150,1661998590.791,-904.0344587675717,5821.567802283215,1000,4.163,-1.359,-2.954,112.7,blue,281,TRUE
151,1661998590.907,2238.7306323094554,7139.370535957942,1000,3.485,-1.518,-0.05,1104.7,red,281,TRUE
152,1661998594.128,-937.6973800061359,5732.757963496551,1000,4.186,-1.372,-2.952,114.9,blue,281,TRUE
153,1661998594.221,2220.5940518279344,7147.359905365871,1000,3.499,-1.508,-0.062,125.7,red,281,TRUE
154,1661998595.355,3061.334807601777,-2684.0208733444574,1000,5.772,-0.155,-0.049,1194.8,green,281,TRUE
155,1661998596.557,-916.126895921566,5669.842278728863,1000,4.183,-1.377,-2.945,114.3,blue,281,TRUE
156,1661998596.648,2196.218116628355,7161.458656675978,1000,3.508,-1.508,-0.058,126.7,red,281,TRUE
157,1661998599.027,2186.6284770503376,7182.063286917309,1000,3.498,-1.497,-0.065,114.3,red,281,TRUE
158,1661998600.145,3311.6494377517333,-2914.1011949136155,1000,5.788,0.032,-0.119,1167.9,green,281,TRUE
159,1661998601.319,-713.4587099326685,5779.690305775787,1000,5.009,-1.498,3.134,128.7,blue,281,TRUE
160,1661998601.427,2067.4572014069768,7143.710234131478,1000,3.496,-1.511,-0.058,125.7,red,281,TRUE
161,1661998603.805,2041.307825614753,7182.060716881661,1000,3.514,-1.513,-0.052,115.3,red,281,TRUE
162,1661998606.176,1985.0874441242743,7186.705698186316,1000,3.58,-1.499,-3.081,128.1,red,281,TRUE
163,1661998608.546,1970.9995834187494,7203.940990785541,1000,3.575,-1.523,-3.094,114.7,red,281,TRUE
164,1661998609.835,-364.5136494537497,5931.6875661568965,1000,5.225,-1.503,3.082,104.1,blue,281,TRUE
165,1661998609.927,1955.5117889033233,7209.506734137772,1000,3.582,-1.514,-3.085,116.6,red,281,TRUE
166,1661998611.202,-184.66382617507392,5920.028301399235,1000,4.502,-1.313,-3.058,100.5,blue,281,TRUE
167,1661998611.291,1949.1624100122317,7225.956502322664,1000,3.432,-1.444,-1.367,117.1,red,281,TRUE
168,1661998612.567,10.407182820250247,5956.802311286035,1000,4.626,-1.306,3.077,101.7,blue,281,TRUE
169,1661998612.658,2025.5030935687253,7278.105807885338,1000,3.439,-1.452,-0.112,114.9,red,281,TRUE
170,1661998613.93,161.15569580016674,5991.721573157151,1000,4.632,-1.328,3.051,100.3,blue,281,TRUE
171,1661998614.017,2041.3746898139761,7259.267927347476,1000,3.46,-1.448,-1.223,118.8,red,281,TRUE
172,1661998615.291,162.93667876963207,6030.087582368706,1000,4.615,-1.294,3.01,100.7,blue,281,TRUE
173,1661998615.379,2063.746384149572,7268.679530735905,1000,3.472,-1.448,-1.11,102.9,red,281,TRUE
174,1661998615.47,3581.742998846683,-2460.0000672691476,1000,5.052,-1.211,0.412,89.5,yellow,281,TRUE
175,1661998615.676,209.4340130230435,5983.781358936358,1000,4.584,-1.299,3.026,121.0,blue,281,TRUE
176,1661998615.781,2070.135083312289,7265.2105068368755,1000,3.471,-1.455,-0.104,122.4,red,281,TRUE
177,1661998615.886,3616.924386438928,-2498.853422684595,1000,5.107,-1.133,0.376,93.7,yellow,281,TRUE
178,1661998616.073,274.84041110151054,6323.047362489029,1000,4.566,-1.31,3.035,114.6,blue,281,TRUE
179,1661998616.172,2079.5615634445553,7249.703668288061,1000,3.459,-1.45,-1.125,105.8,red,281,TRUE
180,1661998616.265,3610.9575310864593,-2521.412489104161,1000,5.073,-1.209,0.423,90.8,yellow,281,TRUE
181,1661998616.446,272.6670511247318,6277.5935858860275,1000,4.532,-1.319,3.059,100.7,blue,281,TRUE
182,1661998616.536,2077.9286133858045,7222.774041884989,1000,3.468,-1.445,-1.061,116.0,red,281,TRUE
183,1661998617.811,251.29130578204914,6264.660249649903,1000,4.526,-1.346,3.079,99.7,blue,281,TRUE
184,1661998617.898,2071.1985772925336,7190.635884284318,1000,3.459,-1.437,-1.116,103.7,red,281,TRUE
185,1661998617.988,3637.7404638459666,-2523.221328698756,1000,5.147,-1.167,0.387,90.8,yellow,281,TRUE
186,1661998618.105,151.9784113214219,6238.440738697908,1000,4.532,-1.347,3.072,108.9,blue,281,TRUE
187,1661998618.195,2072.1022746385065,7170.661005073235,1000,3.462,-1.438,-1.121,120.7,red,281,TRUE
188,1661998619.474,132.40002442485573,6174.221205475798,1000,4.535,-1.344,3.083,99.5,blue,281,TRUE
189,1661998619.561,2063.178055108584,7153.122122577738,1000,3.469,-1.438,-1.1,117.7,red,281,TRUE
190,1661998620.839,114.27830153790309,6164.788981079279,1000,4.523,-1.354,3.087,100.7,blue,281,TRUE
191,1661998620.926,2017.9450876207638,7143.503302781061,1000,3.482,-1.436,-1.122,117.7,red,281,TRUE
192,1661998622.202,-134.54728976414518,5682.302469957683,1000,4.508,-1.343,3.113,100.7,blue,281,TRUE
193,1661998622.289,1998.1127330633353,7131.49041599047,1000,3.469,-1.434,-1.155,116.7,red,281,TRUE
194,1661998623.563,-158.46272460296635,5674.1731691084215,1000,4.513,-1.355,3.114,99.8,blue,281,TRUE
195,1661998623.652,1966.3066510829012,7096.803181522201,1000,3.473,-1.433,-1.144,99.9,red,281,TRUE
196,1661998624.912,-151.89804520838763,5646.5250274604,1000,4.507,-1.35,3.119,100.4,blue,281,TRUE
197,1661998625.0,1961.0196247027477,7073.622291083558,1000,3.484,-1.43,-1.108,116.7,red,281,TRUE
198,1661998626.277,-62.46418378125353,5668.798554668257,1000,4.505,-1.36,3.133,100.3,blue,281,TRUE
199,1661998626.364,1958.626482360982,7048.93511565172,1000,3.482,-1.43,-1.126,117.8,red,281,TRUE
200,1661998627.64,-71.31490533746506,5695.182924002519,1000,4.499,-1.354,3.132,100.7,blue,281,TRUE
201,1661998627.728,1939.5389360262088,7024.702065855407,1000,3.491,-1.43,-1.106,118.8,red,281,TRUE
202,1661998627.83,3624.5993653606747,-2518.0962517429434,1000,5.079,-1.268,0.685,106.2,yellow,281,TRUE
203,1661998628.062,-67.07701307237457,5702.161313732914,1000,4.503,-1.357,3.134,98.7,blue,281,TRUE
204,1661998628.147,1956.9797864490167,6992.185425886625,1000,3.499,-1.428,-1.103,132.7,red,281,TRUE
205,1661998629.439,-33.75161989200504,5762.886795536423,1000,4.616,-1.374,3.07,100.7,blue,281,TRUE
206,1661998629.529,1939.230310534994,6971.997808187544,1000,3.499,-1.427,-1.094,115.7,red,281,TRUE
207,1661998630.803,-87.64451232312194,5715.460482193736,1000,4.679,-1.432,3.036,100.2,blue,281,TRUE
208,1661998630.891,1955.041726256685,6997.606706267773,1000,3.488,-1.438,-1.373,102.8,red,281,TRUE
209,1661998630.979,3604.3742377556614,-2524.5616908042143,1000,5.084,-1.225,0.516,91.8,yellow,281,TRUE
210,1661998631.173,-96.8874773430242,5732.469022893517,1000,4.645,-1.426,3.105,122.1,blue,281,TRUE
211,1661998631.278,1962.1492697879978,7028.925925835647,1000,3.498,-1.445,-1.383,106.8,red,281,TRUE
212,1661998631.37,3697.5205547509813,-2558.3448716561556,1000,5.092,-1.188,0.461,91.8,yellow,281,TRUE
213,1661998632.584,1973.5235971987952,7043.56045142872,1000,3.527,-1.46,-0.108,119.7,red,281,TRUE
214,1661998633.861,-172.98220880090867,5718.58548172013,1000,4.449,-1.326,-3.095,100.7,blue,281,TRUE
215,1661998633.951,2015.6222822937098,7088.706501651369,1000,3.533,-1.454,-0.112,100.7,red,281,TRUE
216,1661998634.038,3711.177929126394,-2555.622142124377,1000,5.096,-1.15,0.367,91.1,yellow,281,TRUE
217,1661998635.251,2027.658882858047,7130.450100062652,1000,3.538,-1.451,-0.115,104.7,red,281,TRUE
218,1661998635.347,3733.8650985655627,-2546.1731026490584,1000,4.946,-1.178,0.291,144.1,yellow,281,TRUE
219,1661998635.587,-280.7510345806192,5756.114357359435,1000,4.518,-1.35,-3.079,113.8,blue,281,TRUE
220,1661998635.688,2057.646696250123,7188.8371781494425,1000,3.539,-1.452,-0.113,118.7,red,281,TRUE
221,1661998635.79,3710.403816503132,-2547.3001776252295,1000,4.946,-1.152,0.359,105.7,yellow,281,TRUE
222,1661998636.004,-395.90558981363375,5784.7406440603445,1000,4.535,-1.348,-3.081,102.0,blue,281,TRUE
223,1661998636.094,2066.8251757140674,7206.895287426273,1000,3.539,-1.453,-0.113,102.0,red,281,TRUE
224,1661998636.184,3669.602746311812,-2525.8610902786277,1000,5.154,-1.162,0.397,103.8,yellow,281,TRUE
225,1661998636.395,-536.1314785316619,5764.139355218841,1000,4.524,-1.349,-3.071,101.9,blue,281,TRUE
226,1661998636.485,2078.587728792803,7210.309568294132,1000,3.53,-1.45,-1.366,100.9,red,281,TRUE
227,1661998636.573,3604.927694986818,-2481.0300562352377,1000,5.111,-1.187,0.359,92.4,yellow,281,TRUE
228,1661998636.84,-569.3862270653527,5845.478329898538,1000,4.531,-1.357,-3.076,120.7,blue,281,TRUE
229,1661998636.945,2090.7086839442086,7226.107573792222,1000,3.528,-1.449,-1.386,106.5,red,281,TRUE
230,1661998637.037,3514.728544382244,-2460.920389819307,1000,5.088,-1.193,0.396,148.6,yellow,281,TRUE
231,1661998637.289,-687.1522127579104,5872.607394221747,1000,4.547,-1.36,-3.094,105.7,blue,281,TRUE
232,1661998637.382,2089.7837086029044,7218.806389000063,1000,3.529,-1.449,-1.383,103.0,red,281,TRUE
233,1661998637.472,3431.9474483088475,-2418.504203793014,1000,5.084,-1.203,0.368,93.1,yellow,281,TRUE
234,1661998637.679,-575.8979263737575,5883.628581542057,1000,4.588,-1.355,-3.111,121.6,blue,281,TRUE
235,1661998637.784,2087.852889381315,7211.062722051014,1000,3.531,-1.45,-1.427,120.6,red,281,TRUE
236,1661998637.889,3447.5570450192354,-2406.2365748262964,1000,4.983,-1.212,0.335,94.5,yellow,281,TRUE
237,1661998638.131,-497.39740117690553,5856.7832769218485,1000,4.592,-1.305,-3.103,119.1,blue,281,TRUE
238,1661998638.233,2089.068419860118,7195.244875638891,1000,3.532,-1.451,-1.43,121.8,red,281,TRUE
239,1661998638.338,3477.4022244550033,-2399.9628535147344,1000,4.919,-1.198,0.372,150.7,yellow,281,TRUE
240,1661998638.586,-402.73960974473295,5844.386831866722,1000,4.553,-1.318,-3.073,114.0,blue,281,TRUE
241,1661998638.686,2087.000829755207,7188.523534753246,1000,3.531,-1.451,-1.439,117.7,red,281,TRUE
242,1661998638.788,3550.0680126943575,-2422.1516858042214,1000,4.939,-1.196,0.374,106.1,yellow,281,TRUE
243,1661998639.002,-296.5556370485336,5810.136693330468,1000,4.53,-1.334,-3.075,101.7,blue,281,TRUE
244,1661998639.091,2080.7984142361142,7191.585064390824,1000,3.528,-1.449,-1.427,101.7,red,281,TRUE
245,1661998639.18,3615.9014786432526,-2446.1716299412283,1000,4.947,-1.175,0.352,90.5,yellow,281,TRUE
246,1661998639.433,-243.1474529680692,5780.773402132188,1000,4.548,-1.335,-3.102,103.7,blue,281,TRUE
247,1661998639.526,2068.2317081344577,7190.4242700362365,1000,3.529,-1.448,-1.408,116.1,red,281,TRUE
248,1661998640.801,22.364701165077992,5861.123971831574,1000,5.27,-1.477,-3.117,101.1,blue,281,TRUE
249,1661998640.889,2058.624243736777,7185.143230562143,1000,3.509,-1.449,-1.513,101.6,red,281,TRUE
250,1661998640.977,3682.1752872156903,-2447.493778548723,1000,4.96,-1.161,0.355,91.8,yellow,281,TRUE
251,1661998641.169,150.98341839666568,5967.995519354866,1000,5.574,-1.49,-3.081,121.0,blue,281,TRUE
252,1661998641.274,2029.4228994820605,7171.242366203092,1000,3.507,-1.448,-1.557,106.7,red,281,TRUE
253,1661998641.366,3749.0281387567024,-2476.335794259265,1000,4.965,-1.163,0.368,92.3,yellow,281,TRUE
254,1661998641.55,338.9011161918999,6060.742468395314,1000,5.556,-1.492,-3.079,99.5,blue,281,TRUE
255,1661998641.636,2021.3371865725649,7137.198987091164,1000,3.504,-1.439,-1.433,119.6,red,281,TRUE
256,1661998641.739,3737.163106397345,-2482.0387738003424,1000,4.964,-1.161,0.358,106.3,yellow,281,TRUE
257,1661998641.962,417.35384890782467,6129.4904081580125,1000,4.963,-1.475,-3.093,108.1,blue,281,TRUE
258,1661998642.059,2014.5316710698578,7113.315397879884,1000,3.499,-1.437,-1.413,101.3,red,281,TRUE
259,1661998642.147,3756.841797493033,-2477.5322487588096,1000,4.97,-1.163,0.369,164.1,yellow,281,TRUE
260,1661998642.478,458.8042541431757,6176.0148992118475,1000,4.967,-1.458,3.113,105.5,blue,281,TRUE
261,1661998642.57,2008.6171592219646,7086.938693940842,1000,3.483,-1.419,-1.472,102.4,red,281,TRUE
262,1661998642.662,3713.3610721723776,-2468.652013597554,1000,4.945,-1.194,0.382,90.3,yellow,281,TRUE
263,1661998642.882,585.4209277835665,6217.517672730029,1000,5.16,-1.453,3.114,107.0,blue,281,TRUE
264,1661998642.974,1993.5064744785886,7063.5088575522095,1000,3.48,-1.421,-1.451,103.6,red,281,TRUE
265,1661998643.065,3670.864179582611,-2469.2050883454917,1000,4.958,-1.175,0.399,91.8,yellow,281,TRUE
266,1661998643.272,584.0975196648591,6279.485681478141,1000,5.172,-1.454,3.115,106.4,blue,281,TRUE
267,1661998643.366,1991.4644635130253,7043.269772255636,1000,3.48,-1.422,-1.477,102.6,red,281,TRUE
268,1661998643.455,3623.5550492169496,-2459.8460530377088,1000,5.005,-1.175,0.44,93.4,yellow,281,TRUE
269,1661998643.639,576.1630408458868,6322.620592543683,1000,5.178,-1.461,3.121,114.9,blue,281,TRUE
270,1661998643.738,2016.9288377322637,7030.664345723876,1000,3.479,-1.424,-1.472,120.8,red,281,TRUE
271,1661998643.843,3645.5092082820024,-2464.4090952826787,1000,4.971,-1.179,0.406,166.5,yellow,281,TRUE
272,1661998644.16,560.7917110527669,6288.984180480019,1000,5.253,-1.469,3.121,102.4,blue,281,TRUE
273,1661998644.249,2025.8481820188674,7054.368537566409,1000,3.485,-1.426,-1.42,119.6,red,281,TRUE
274,1661998644.352,3660.4114914088564,-2469.4021830315924,1000,4.984,-1.17,0.437,93.5,yellow,281,TRUE
275,1661998644.538,587.065990140227,6268.901665820387,1000,5.264,-1.469,3.121,100.1,blue,281,TRUE
276,1661998644.626,2035.8894882100624,7070.309279607135,1000,3.51,-1.434,-1.637,101.8,red,281,TRUE
277,1661998644.716,3554.9458942827164,-2454.501773826235,1000,4.991,-1.167,0.422,101.9,yellow,281,TRUE
278,1661998644.953,645.525743903881,6279.0548193431205,1000,5.265,-1.463,3.122,106.1,blue,281,TRUE
279,1661998645.045,2045.2887810629272,7077.314626838187,1000,3.523,-1.43,-1.895,104.7,red,281,TRUE
280,1661998645.135,3544.5188873552647,-2450.237823857094,1000,4.963,-1.172,0.351,93.3,yellow,281,TRUE
281,1661998645.343,657.3033808678089,6272.80199555697,1000,5.263,-1.452,3.123,106.7,blue,281,TRUE
282,1661998645.435,2069.691480513496,7093.618499476593,1000,3.536,-1.439,-1.837,104.2,red,281,TRUE
283,1661998645.525,3529.9849486620897,-2447.9311251803356,1000,4.933,-1.152,0.345,147.8,yellow,281,TRUE
284,1661998645.838,626.6312807300545,6145.2131547027575,1000,5.263,-1.449,2.988,121.0,blue,281,TRUE
285,1661998645.943,2077.385412786549,7102.46055748052,1000,3.535,-1.446,-1.213,107.1,red,281,TRUE
286,1661998646.036,3527.149866901955,-2457.4449099753224,1000,4.95,-1.137,0.343,90.8,yellow,281,TRUE
287,1661998646.227,572.0481107383335,6113.337400355212,1000,5.282,-1.458,3.123,121.6,blue,281,TRUE
288,1661998646.332,2086.811812734803,7138.537204634739,1000,3.524,-1.45,-1.175,106.9,red,281,TRUE
289,1661998646.426,3457.5241210915815,-2444.0352297197533,1000,5.01,-1.173,0.409,90.6,yellow,281,TRUE
290,1661998646.61,577.8096219501489,6143.6378438776765,1000,5.487,-1.442,2.947,115.7,blue,281,TRUE
291,1661998646.71,2091.218319245172,7189.663376609038,1000,3.518,-1.445,-1.193,135.9,red,281,TRUE
292,1661998648.004,676.3526174041979,6165.29112043784,1000,6.077,-1.385,-2.65,102.2,blue,281,TRUE
293,1661998648.092,2068.1953822113524,7219.282563929669,1000,3.523,-1.461,-0.1,118.3,red,281,TRUE
294,1661998649.369,726.3377185515827,6138.88664142273,1000,0.248,-1.35,-2.845,100.7,blue,281,TRUE
295,1661998649.458,2054.1544778727266,7240.316051997401,1000,3.459,-1.477,-0.091,117.0,red,281,TRUE
296,1661998650.733,928.9539691658987,6200.51484326879,1000,0.748,-1.427,-2.342,101.2,blue,281,TRUE
297,1661998650.821,2111.3906152134173,7249.033167420064,1000,1.636,-1.347,-1.72,132.7,red,281,TRUE
298,1661998652.111,1247.508691397915,6182.706039774776,1000,1.196,-1.451,-3.124,100.8,blue,281,TRUE
299,1661998652.201,2275.053970741265,7145.485160082306,1000,1.1,-1.439,-1.566,115.8,red,281,TRUE
300,1661998653.481,1593.1688851306915,6147.784809818296,1000,0.557,-1.341,-2.45,100.7,blue,281,TRUE
301,1661998653.57,2527.104509999451,6912.865113533699,1000,0.685,-1.448,-1.203,101.7,red,281,TRUE
302,1661998655.849,2813.290496885811,6653.783154995196,1000,0.292,-1.474,-0.096,1169.5,red,281,TRUE
303,1661998657.189,2109.0914696569325,6201.272019615556,1000,1.157,-1.422,-3.136,147.8,blue,281,TRUE
304,1661998657.323,3127.6643661505445,6442.602779882905,1000,0.315,-1.488,-0.08,132.1,red,281,TRUE
305,1661998658.617,2595.5507892080223,6330.401158346817,1000,1.234,-1.451,-3.129,99.9,blue,281,TRUE
306,1661998658.706,3408.7208932648646,6239.333225434013,1000,0.211,-1.427,-1.385,115.4,red,281,TRUE
307,1661998659.985,3187.8674011368853,6463.400296803855,1000,1.225,-1.46,-3.134,100.7,blue,281,TRUE
308,1661998660.072,3614.447925113492,6063.68462948775,1000,0.128,-1.422,-0.848,103.0,red,281,TRUE
309,1661998660.164,3423.089055599427,-2448.5590620579937,1000,4.999,-1.236,0.492,135.0,yellow,281,TRUE
310,1661998660.43,3552.191284575172,6548.801883720857,1000,1.234,-1.457,-3.135,106.1,blue,281,TRUE
311,1661998660.523,3728.912919688475,5988.375570828209,1000,0.169,-1.439,-0.853,117.7,red,281,TRUE
312,1661998661.801,3881.313242999728,6725.892579437047,1000,1.239,-1.461,-3.136,101.7,blue,281,TRUE
313,1661998661.89,3703.8129923970987,6058.394201501971,1000,0.097,-1.413,-0.887,101.7,red,281,TRUE
314,1661998661.981,3492.1737801630006,-2487.309080631882,1000,5.009,-1.233,0.491,88.8,yellow,281,TRUE
315,1661998662.185,4120.59307522817,6847.03922745914,1000,1.249,-1.464,-3.136,120.8,blue,281,TRUE
316,1661998662.29,3701.4971741910163,6155.595044442779,1000,0.099,-1.403,-0.745,122.1,red,281,TRUE
317,1661998663.569,4176.881749444935,6901.984620852635,1000,1.233,-1.452,-3.134,100.7,blue,281,TRUE
318,1661998663.659,3691.983883498396,6136.634351524362,1000,0.13,-1.41,-0.837,114.7,red,281,TRUE
319,1661998664.985,4191.6885384786465,6898.584795762541,1000,1.221,-1.468,-3.131,98.7,blue,281,TRUE
320,1661998665.07,3702.753438262526,6116.377205467856,1000,0.13,-1.412,-0.748,117.6,red,281,TRUE
321,1661998667.319,4037.5662750147535,6916.718726172475,1000,1.223,-1.464,-3.131,1133.1,blue,281,TRUE
322,1661998671.678,3692.98696484481,6088.213637593519,1000,0.124,-1.414,-0.677,1131.9,red,281,TRUE
323,1661998672.789,3174.0349902350463,-2789.1886051660185,1000,5.988,-0.205,-0.027,157.0,green,281,TRUE
324,1661998674.053,4070.215641505738,6949.2527914409175,1000,1.194,-1.485,-3.081,1144.3,blue,281,TRUE
325,1661998678.512,3655.6220941036445,6101.2401216163735,1000,0.151,-1.467,-0.089,1162.3,red,281,TRUE
326,1661998686.248,3813.1105367769487,6102.195719975652,1000,0.167,-1.46,-0.091,1148.1,red,281,TRUE
327,1661998689.534,3529.553255110922,6905.288027915816,1000,1.077,-1.481,-3.065,1135.4,blue,281,TRUE
328,1661998693.945,3819.405279656871,6058.684408212134,1000,0.136,-1.465,-0.094,114.5,red,281,TRUE
329,1661998694.037,3525.289101482879,-2504.434530102068,1000,5.035,-1.209,0.401,141.6,yellow,281,TRUE
330,1661998698.707,3787.026644831517,6799.946770687615,1000,0.945,-1.497,-3.081,115.4,blue,281,TRUE
331,1661998698.805,3839.5423756164223,6095.502070961622,1000,0.314,-1.432,-0.764,123.2,red,281,TRUE
332,1661998701.059,3967.4600215154737,6834.565402352441,1000,0.946,-1.481,-3.067,1134.8,blue,281,TRUE
333,1661998707.688,3976.080990851172,6808.545478580599,1000,0.974,-1.477,-3.066,114.1,blue,281,TRUE
334,1661998707.783,3838.9687790329012,6126.573296192987,1000,0.227,-1.419,-0.806,123.7,red,281,TRUE
335,1661998710.041,3858.7904439645804,6845.078451948239,1000,0.949,-1.479,-3.072,1137.9,blue,281,TRUE
336,1661998713.316,2746.29720326592,6242.863800662605,1000,0.968,-1.476,-3.066,1119.9,blue,281,TRUE
337,1661998714.42,3538.8112329735063,-2495.800806781617,1000,5.124,-1.148,0.38,149.4,yellow,281,TRUE
338,1661998715.696,2888.061910262457,6247.241420506041,1000,0.976,-1.478,-3.066,1140.0,blue,281,TRUE
339,1661998716.822,3543.4605804396692,-2494.0391698984017,1000,5.08,-1.134,0.383,148.3,yellow,281,TRUE
340,1661998718.109,2845.2846879594167,6276.681808818025,1000,0.975,-1.474,-3.065,1123.2,blue,281,TRUE
341,1661998719.218,3539.8821550022053,-2493.5721453008914,1000,5.078,-1.119,0.379,149.4,yellow,281,TRUE
342,1661998720.505,2840.019655381028,6291.089385287577,1000,0.981,-1.476,-3.065,1127.4,blue,281,TRUE
343,1661998721.616,3498.8695979239524,-2474.031543089483,1000,5.089,-1.109,0.369,150.6,yellow,281,TRUE
344,1661998722.909,2750.7975959290743,6327.5348228016455,1000,0.978,-1.47,-3.062,1124.8,blue,281,TRUE
345,1661998724.018,3465.379981276458,-2454.9196467323254,1000,5.061,-1.169,0.367,151.4,yellow,281,TRUE
346,1661998726.433,3437.1362692266516,-2443.1664057363664,1000,5.068,-1.186,0.374,1125.2,yellow,281,TRUE
347,1661998732.05,2865.2871399329433,6289.738827404373,1000,1.034,-1.454,-3.058,112.7,blue,281,TRUE
348,1661998732.154,3845.6421555734,6206.354545893427,1000,0.3,-1.437,-0.803,129.4,red,281,TRUE
349,1661998734.434,3900.447361833545,6893.396889952654,1000,1.037,-1.46,-3.049,1141.5,blue,281,TRUE
350,1661998741.125,3803.604410347389,6870.338427550028,1000,1.288,-1.426,-2.675,128.2,blue,281,TRUE
351,1661998741.263,3719.072454636486,6157.3600991191,1000,0.338,-1.443,-0.732,1119.7,red,281,TRUE
352,1661998743.514,3866.798454929565,6901.90619469474,1000,1.488,-1.333,-2.981,1132.5,blue,281,TRUE
353,1661998744.631,3417.1482386013536,-2454.8133636085718,1000,5.164,-1.083,0.326,150.7,yellow,281,TRUE
354,1661998749.321,3808.2512001884847,6864.104081751461,1000,1.66,-1.4,2.939,127.7,blue,281,TRUE
355,1661998749.427,3685.0366467136646,6074.778460829059,1000,0.91,-1.537,-0.033,127.7,red,281,TRUE
356,1661998756.09,2975.6063976730907,4010.1722852480157,1000,0.014,-1.449,-1.654,1168.2,red,281,TRUE
357,1661998765.238,3901.1647176454467,6093.765904781699,1000,1.445,-1.386,-3.132,122.6,blue,281,TRUE
358,1661998765.345,3286.6317603185485,3487.6641550655645,1000,0.321,-1.425,-0.692,119.3,red,281,TRUE
359,1661998765.446,3394.837870256047,-2426.8823354318497,1000,5.189,-1.27,0.517,139.9,yellow,281,TRUE
360,1661998766.72,3419.016299959703,4874.724584940881,1000,1.443,-1.386,-3.13,1146.0,blue,281,TRUE
361,1661998770.044,3419.711332037631,3168.4542089483743,1000,0.321,-1.418,-0.726,1179.6,red,281,TRUE
362,1661998776.87,3467.355516305786,2978.3971981836944,1000,0.184,-1.403,-0.953,1172.0,red,281,TRUE
363,1661998797.638,3419.599361434983,2286.6481905642945,1000,6.254,-1.324,-0.743,1194.3,red,281,TRUE
364,1661998808.38,3417.255724324867,1618.9746739487018,1000,6.279,-1.281,-0.648,1165.2,red,281,TRUE
365,1661998811.789,3356.4521555073206,-2454.0879675967885,1000,4.741,-1.272,2.317,131.1,yellow,281,TRUE
366,1661998817.507,3801.2790794396387,2008.4396224608201,1000,0.117,-1.241,-0.443,127.5,red,281,TRUE
367,1661998824.407,3787.711983069132,2156.144115173402,1000,0.131,-1.221,-0.473,1157.1,red,281,TRUE
368,1661998825.548,3126.532075809138,-2762.5746535394373,1000,0.061,-0.135,-0.058,122.0,green,281,TRUE
369,1661998825.836,3527.5958072928684,4173.666781576369,1000,1.215,-1.444,-2.743,105.7,blue,281,TRUE
370,1661998825.929,3766.897154898847,2180.3643191706515,1000,0.127,-1.216,-0.482,120.3,red,281,TRUE
371,1661998826.032,3357.5271626970193,-2452.8934617130476,1000,5.2,-1.224,0.463,122.3,yellow,281,TRUE
372,1661998838.681,3370.6122009770866,-2446.296547661404,1000,4.917,-1.056,0.124,133.5,yellow,281,TRUE
373,1661998842.124,3356.025330873747,-2445.842689828299,1000,4.933,-1.097,0.112,1143.1,yellow,281,TRUE
374,1661998844.478,4363.292639519816,1782.060818445548,1000,5.69,-1.444,-0.922,1148.6,red,281,TRUE
375,1661998847.757,3570.184586950216,3384.80677728059,1000,1.724,-1.505,3.132,129.4,blue,281,TRUE
376,1661998847.869,4408.072182973271,1752.5128690576369,1000,5.502,-1.456,-0.111,122.0,red,281,TRUE
377,1661998847.973,3397.027462490259,-2456.14664158562,1000,4.951,-1.162,-0.077,124.1,yellow,281,TRUE
378,1661998848.07,3063.032114708831,-2727.3060250687245,1000,0.172,-0.189,-0.024,101.5,green,281,TRUE
379,1661998849.351,4403.683389605097,1717.9324624705296,1000,6.034,-1.533,-0.027,1143.5,red,281,TRUE
380,1661998852.629,3543.9734384337153,2487.1545729176155,1000,1.756,-1.518,3.126,1131.9,blue,281,TRUE
381,1661998853.737,3438.9703638130723,-2504.031346551877,1000,5.084,-1.232,-0.17,113.7,yellow,281,TRUE
382,1661998853.828,3013.2377875784746,-2728.023223864712,1000,0.189,-0.23,-0.019,98.7,green,281,TRUE
383,1661998854.106,3586.2619412265885,1702.8324853278064,1000,1.748,-1.521,3.127,134.2,blue,281,TRUE
384,1661998854.227,4379.607495565605,1633.5431823928222,1000,6.253,-1.536,0.015,106.0,red,281,TRUE
385,1661998854.318,3473.346385563875,-2497.544611396196,1000,5.056,-1.241,-0.062,135.3,yellow,281,TRUE
386,1661998857.617,4294.600750863339,1463.823565490016,1000,6.246,-1.56,0.003,1139.6,red,281,TRUE
387,1661998862.025,3454.47142139956,-2469.4116496179918,1000,4.643,-1.344,-0.02,1142.3,yellow,281,TRUE
388,1661998871.154,4279.68325762744,1432.8926526023527,1000,5.691,-1.438,-1.535,127.5,red,281,TRUE
389,1661998871.259,3380.755194501128,-2460.1937467914436,1000,4.651,-1.184,-0.047,110.7,yellow,281,TRUE
390,1661998873.576,3401.411411667735,-2474.398262343519,1000,4.665,-1.283,-0.005,110.8,yellow,281,TRUE
391,1661998875.886,3689.601025430886,1827.0126776029786,1000,5.625,-1.429,-1.329,125.6,red,281,TRUE
392,1661998876.015,3106.90220977132,-2419.595157483395,1000,4.686,-1.234,0.023,1082.6,yellow,281,TRUE
393,1661998878.307,3393.99890816463,-2527.5057877438285,1000,4.701,-1.244,0.007,118.1,yellow,281,TRUE
394,1661998878.428,2803.642996447975,-2576.0589849360026,1000,0.26,-0.196,-0.01,1116.4,green,281,TRUE
395,1661998880.651,3274.1538247127287,-2482.730316259664,1000,4.671,-1.235,-0.021,111.4,yellow,281,TRUE
396,1661998882.938,3628.2872676188395,1703.9880998264896,1000,1.369,-1.491,-3.133,121.5,blue,281,TRUE
397,1661998883.041,3695.5568541828957,1843.933858031329,1000,5.509,-1.444,-1.37,125.6,red,281,TRUE
398,1661998893.451,3626.751053877302,1865.006409807481,1000,5.698,-1.489,-0.076,1158.3,red,281,TRUE
399,1661998896.758,4057.556610085178,2201.933449515556,1000,1.403,-1.477,-3.133,115.3,blue,281,TRUE
400,1661998896.853,3616.1892308716074,1903.5872554891723,1000,5.543,-1.448,-1.31,125.8,red,281,TRUE
401,1661998899.298,3629.973115099878,1888.2431657853806,1000,5.531,-1.431,-1.186,131.6,red,281,TRUE
402,1661998899.397,3397.187054957581,-2507.645177674569,1000,4.692,-1.118,0.0,122.9,yellow,281,TRUE
403,1661998902.841,3325.2220066826667,-2476.2414103446304,1000,4.662,-1.127,-0.022,1141.6,yellow,281,TRUE
404,1661998905.163,3521.9031369921777,1901.491041581098,1000,5.612,-1.444,-1.047,1130.5,red,281,TRUE
405,1661998906.278,2783.625024263056,-2620.600629438095,1000,0.344,-0.323,0.089,106.1,green,281,TRUE
406,1661998906.54,4062.6160261014043,2153.5804139724078,1000,1.568,-1.464,3.133,147.0,blue,281,TRUE
407,1661998906.67,3502.2587442457966,1901.848197701527,1000,5.598,-1.445,-0.954,107.2,red,281,TRUE
408,1661998906.763,3332.8521895873987,-2477.810143732957,1000,4.697,-1.113,0.021,120.3,yellow,281,TRUE
409,1661998906.856,2900.133734886715,-2704.5401595382505,1000,0.295,-0.117,0.027,104.2,green,281,TRUE
410,1661998907.047,4057.8495012406675,2204.2354795223323,1000,1.508,-1.509,-3.141,122.3,blue,281,TRUE
411,1661998907.152,3500.5265172610034,1902.92854304146,1000,5.595,-1.444,-0.966,108.1,red,281,TRUE
412,1661998907.247,3362.6280014585955,-2487.552584939032,1000,4.718,-1.117,0.045,104.5,yellow,281,TRUE
413,1661998907.338,2915.2786830478035,-2734.2614134278683,1000,0.304,-0.177,0.011,103.3,green,281,TRUE
414,1661998907.53,4091.7748739224608,2333.3830873920742,1000,1.472,-1.501,-3.126,123.9,blue,281,TRUE
415,1661998907.636,3576.504124008421,1891.696037304049,1000,5.58,-1.441,-0.981,106.8,red,281,TRUE
416,1661998907.729,3336.3443552711924,-2459.0552028259717,1000,4.687,-1.176,0.013,120.2,yellow,281,TRUE
417,1661998907.821,2940.2073469735924,-2732.323691247873,1000,0.316,-0.157,0.008,104.8,green,281,TRUE
418,1661998908.073,4099.894398474929,2389.3095732782845,1000,1.474,-1.488,-3.129,121.7,blue,281,TRUE
419,1661998908.174,3576.712335609844,1883.1392002915172,1000,5.568,-1.433,-1.001,127.2,red,281,TRUE
420,1661998910.605,3574.433344574933,1922.9724027190805,1000,5.568,-1.424,-1.04,126.2,red,281,TRUE
421,1661998910.709,3419.5835111650454,-2466.1110899983073,1000,4.692,-1.164,-0.037,129.7,yellow,281,TRUE
422,1661998912.965,4056.3020604644194,2352.59809138641,1000,1.516,-1.487,-3.133,121.9,blue,281,TRUE
423,1661998913.07,3695.10131347326,1920.3602585161645,1000,5.683,-1.451,-1.144,122.5,red,281,TRUE
424,1661998913.174,3307.6259095688947,-2423.727538248803,1000,4.688,-1.285,0.187,139.7,yellow,281,TRUE
425,1661998913.299,2990.563155971169,-2754.3367026953797,1000,0.322,-0.065,-0.029,105.1,green,281,TRUE
426,1661998913.541,4030.8131618294815,2313.0324868636994,1000,1.473,-1.493,-3.133,119.2,blue,281,TRUE
427,1661998913.643,3668.277019649664,1899.7534759553528,1000,5.665,-1.452,-0.107,121.7,red,281,TRUE
428,1661998916.043,3687.9524731240326,1888.422458685033,1000,5.576,-1.465,-0.097,128.7,red,281,TRUE
429,1661998916.153,3481.593811513509,-2468.9733902556395,1000,4.704,-1.178,0.077,109.2,yellow,281,TRUE
430,1661998918.394,3957.733535758313,2367.4748110036867,1000,5.983,-1.262,-2.794,102.1,blue,281,TRUE
431,1661998918.488,3602.241425015423,1931.2969484554526,1000,4.917,-1.52,-3.126,115.4,red,281,TRUE
432,1661998918.581,3557.5698452405454,-2490.9540865056683,1000,4.717,-1.158,0.091,142.1,yellow,281,TRUE
433,1661998920.864,3798.296021906605,2797.279429174238,1000,4.975,-1.367,-2.702,119.0,blue,281,TRUE
434,1661998920.964,3459.4289147525556,2259.569815627021,1000,4.892,-1.504,-0.033,126.2,red,281,TRUE
435,1661998923.396,2864.8193635881876,3898.0267218116264,1000,4.916,-1.484,0.053,1076.8,red,281,TRUE
436,1661998926.61,3277.141931587725,3441.274875009971,1000,4.568,-1.313,-2.97,115.8,blue,281,TRUE
437,1661998926.712,2844.8782124543927,3903.413033610332,1000,4.949,-1.439,0.94,131.3,red,281,TRUE
438,1661998927.855,2997.5295761167276,-2747.2215928503665,1000,0.367,-0.151,-0.01,1176.9,green,281,TRUE
439,1661998929.039,2496.792716007951,4142.397411730774,1000,4.569,-1.397,-3.009,111.9,blue,281,TRUE
440,1661998929.129,2743.6911082500715,3942.5371512628067,1000,4.889,-1.469,0.098,110.7,red,281,TRUE
441,1661998929.227,3667.524694503994,-2520.839144515709,1000,4.741,-1.222,0.089,106.2,yellow,281,TRUE
442,1661998929.319,3009.097628574263,-2737.226030371705,1000,0.372,-0.164,0.011,103.2,green,281,TRUE
443,1661998929.504,1777.4795412847031,4878.860999639671,1000,4.379,-1.408,-3.037,98.2,blue,281,TRUE
444,1661998929.589,2757.0479326875893,3921.537888898089,1000,4.722,-1.539,-3.126,133.8,red,281,TRUE
445,1661998931.985,2749.2578888461567,3910.756646811202,1000,4.755,-1.51,0.052,124.6,red,281,TRUE
446,1661998934.321,2744.3023622860824,3912.184289960227,1000,4.748,-1.493,0.033,131.8,red,281,TRUE
447,1661998936.7,2731.8934695585726,3894.9783962511733,1000,4.501,-1.482,-0.035,143.9,red,281,TRUE
448,1661998938.023,1203.9884222431936,5579.204390938748,1000,4.135,-1.461,-3.117,105.1,blue,281,TRUE
449,1661998938.119,2731.19629756562,3882.5811107715504,1000,4.443,-1.477,-0.041,116.8,red,281,TRUE
450,1661998939.408,635.5456975228091,6179.174293941079,1000,4.021,-1.421,-2.93,100.1,blue,281,TRUE
451,1661998939.495,2768.9762442705196,3852.913540810998,1000,4.497,-1.475,-0.036,116.7,red,281,TRUE
452,1661998941.898,2777.722674631235,3842.772384527503,1000,4.628,-1.496,-0.002,129.1,red,281,TRUE
453,1661998944.235,2802.060008710501,3836.7245165523295,1000,4.314,-1.479,-0.076,114.8,red,281,TRUE
454,1661998944.33,3652.0089688372695,-2529.784623194239,1000,4.712,-1.325,-0.236,126.6,yellow,281,TRUE
455,1661998944.446,2931.8352851603036,-2683.074908016087,1000,0.415,-0.207,-0.007,130.7,green,281,TRUE
456,1661998944.658,133.2004394202604,6399.447960777467,1000,3.935,-1.469,-3.102,100.1,blue,281,TRUE
457,1661998944.745,2822.682184976395,3754.864980389661,1000,4.027,-1.436,-1.114,104.3,red,281,TRUE
458,1661998944.836,3635.496077035128,-2532.617719236804,1000,4.745,-1.414,-0.039,118.8,yellow,281,TRUE
459,1661998947.095,-31.27973646941912,6388.050350569981,1000,3.994,-1.476,-3.1,120.3,blue,281,TRUE
460,1661998947.2,2815.0849259604947,3730.752019103318,1000,3.073,-1.425,-0.762,122.5,red,281,TRUE
461,1661998949.579,2878.9838677558014,3490.7700443672707,1000,2.013,-1.442,-0.894,124.1,red,281,TRUE
462,1661998951.969,3262.0075464351416,3072.5256715734145,1000,0.356,-1.415,-0.392,124.4,red,281,TRUE
463,1661998954.362,3768.752926656312,2636.205705834154,1000,5.076,-1.409,-1.165,131.4,red,281,TRUE
464,1661998955.687,165.6750896080919,6330.322308013342,1000,5.273,-1.343,2.93,106.4,blue,281,TRUE
465,1661998955.78,4223.912167087618,2214.617488404542,1000,4.92,-1.367,-1.174,119.5,red,281,TRUE
466,1661998958.109,4720.570974060634,1925.8275198360407,1000,4.876,-1.353,-1.382,115.7,red,281,TRUE
467,1661998958.205,3686.8224579188986,-2566.1409410406573,1000,5.126,-1.28,0.165,142.2,yellow,281,TRUE
468,1661998960.49,222.7377279331224,6287.742523456259,1000,4.688,-1.07,2.776,121.2,blue,281,TRUE
469,1661998960.591,5224.807258791346,1580.2586250672605,1000,4.864,-1.373,-1.383,125.7,red,281,TRUE
470,1661998962.987,5642.119424857188,1426.9640701524106,1000,4.859,-1.354,-1.415,126.2,red,281,TRUE
471,1661998963.097,3567.132413549318,-2550.3362502546074,1000,5.081,-1.194,0.208,120.4,yellow,281,TRUE
472,1661998965.362,586.4138730067424,6312.91318144985,1000,0.362,-1.319,2.903,121.6,blue,281,TRUE
473,1661998965.463,5768.65694973556,1462.2204476005172,1000,4.801,-1.36,-1.246,126.2,red,281,TRUE
474,1661998967.859,5751.747744791931,1539.158014943325,1000,4.876,-1.358,-1.145,142.9,red,281,TRUE
475,1661998967.969,3571.5686561792013,-2576.7016278371525,1000,5.118,-1.218,0.253,154.1,yellow,281,TRUE
476,1661998968.107,2902.162119074543,-2650.2147584589316,1000,0.389,-0.165,-0.016,106.8,green,281,TRUE
477,1661998968.292,681.0646996175809,6622.40444252543,1000,3.334,-1.299,-2.931,103.3,blue,281,TRUE
478,1661998968.384,5786.514554586414,1547.515565276719,1000,4.863,-1.353,-1.095,100.6,red,281,TRUE
479,1661998968.472,3522.247428271225,-2572.343931813088,1000,5.121,-1.214,0.243,135.1,yellow,281,TRUE
480,1661998968.574,2837.988060961772,-2620.083923727535,1000,0.395,-0.176,-0.012,125.0,green,281,TRUE
481,1661998968.778,819.0818474166578,6952.402101565153,1000,3.174,-1.32,-2.908,116.9,blue,281,TRUE
482,1661998968.872,5801.1596747559815,1535.371674032458,1000,4.78,-1.326,-1.082,127.5,red,281,TRUE
483,1661998971.25,5797.278198976596,1447.4609119947954,1000,4.682,-1.408,-1.415,130.7,red,281,TRUE
484,1661998973.656,5809.72648436594,1505.5939530059848,1000,5.109,-1.441,-1.89,114.6,red,281,TRUE
485,1661998976.04,5753.818011988083,1478.520724890317,1000,5.201,-1.432,-2.27,130.2,red,281,TRUE
486,1661998978.442,5718.23049251458,1503.6377891119364,1000,5.193,-1.46,-3.048,127.0,red,281,TRUE
487,1661998980.815,5662.405334640528,1558.132711093077,1000,5.069,-1.405,-1.814,129.0,red,281,TRUE
488,1661998983.18,5529.860685097039,1508.7945211203426,1000,4.194,-1.408,-1.991,133.6,red,281,TRUE
489,1661998985.589,5164.996933722788,1678.4877881054554,1000,5.236,-1.382,-1.981,113.1,red,281,TRUE
490,1661998987.954,4964.292081100029,1955.0087734173333,1000,0.41,-1.499,0.028,129.1,red,281,TRUE
491,1661998990.313,4987.35130523668,2209.794214426577,1000,0.254,-1.295,-2.489,115.3,red,281,TRUE
492,1661998991.607,978.5133266774006,7277.054873855569,1000,2.709,-1.395,-3.036,106.1,blue,281,TRUE
493,1661998991.7,5074.236671458195,2394.8499003275924,1000,0.649,-1.453,-0.111,116.5,red,281,TRUE
494,1661998994.104,5173.358720117646,2610.7678195514254,1000,0.233,-1.445,-0.085,123.8,red,281,TRUE
495,1661998996.485,5328.162469573413,2877.4539978217595,1000,6.142,-1.419,-0.515,115.6,red,281,TRUE
496,1661998998.87,5741.692849406237,3023.4169026165196,1000,0.464,-1.539,-3.11,115.2,red,281,TRUE
497,1661999001.23,5971.467419762629,2888.563941045293,1000,0.646,-1.441,3.095,125.3,red,281,TRUE
498,1661999003.557,999.3055641881429,7574.252631501881,1000,2.893,-1.455,3.123,121.1,blue,281,TRUE
499,1661999003.66,6009.0828237925025,2876.870280356808,1000,0.397,-1.517,-0.05,122.4,red,281,TRUE
500,1661999006.019,5935.567967531013,2902.266625326036,1000,5.657,-1.388,-1.01,114.7,red,281,TRUE
501,1661999007.149,1167.9446507402922,1045.3090318114055,1000,0.376,-0.187,0.015,1175.8,green,281,TRUE
502,1661999008.333,1146.9608674416286,7888.138162600465,1000,2.934,-1.366,-3.078,127.1,blue,281,TRUE
503,1661999008.44,5907.93116490921,2937.110992608341,1000,0.214,-1.504,-0.029,123.7,red,281,TRUE
504,1661999010.801,5974.283593590392,2930.9913572282735,1000,0.575,-1.42,-0.545,128.2,red,281,TRUE
505,1661999011.941,1963.5318986533844,-823.2733286660978,1000,0.376,-0.197,-0.022,1172.4,green,281,TRUE
506,1661999013.149,5983.767395261861,2912.4891070618573,1000,0.983,-1.405,-0.74,113.0,red,281,TRUE
507,1661999015.528,5906.086441482284,2865.411020897584,1000,2.005,-1.492,-0.068,129.3,red,281,TRUE
508,1661999017.877,5918.1098899764065,2777.100324125968,1000,1.518,-1.565,-3.137,114.7,red,281,TRUE
509,1661999020.259,5957.858881065309,2674.723800442325,1000,1.177,-1.347,2.714,116.3,red,281,TRUE
510,1661999021.549,1198.3833453136458,8176.861571356571,1000,2.938,-1.394,-3.038,105.4,blue,281,TRUE
511,1661999021.642,5926.412061258122,2568.4544833946406,1000,1.301,-1.499,3.07,134.6,red,281,TRUE
512,1661999024.055,5817.358962727292,2513.5702874056087,1000,1.457,-1.535,0.034,133.5,red,281,TRUE
513,1661999026.407,5806.187787989317,2434.8533134024947,1000,1.621,-1.449,0.059,121.6,red,281,TRUE
514,1661999028.748,5913.854256752093,2431.0248546799976,1000,1.81,-1.455,-0.007,126.5,red,281,TRUE
515,1661999031.102,5958.961251177447,2462.3801740708955,1000,1.509,-1.456,-0.094,128.3,red,281,TRUE
516,1661999037.931,5833.400661893782,2544.8339181033552,1000,2.774,-1.479,-0.043,1166.5,red,281,TRUE
517,1661999039.082,2221.1968428528803,-1417.283421690082,1000,0.36,-0.194,-0.015,121.7,green,281,TRUE
518,1661999043.657,1063.9946988830993,8215.141854999096,1000,2.989,-1.392,-3.058,127.6,blue,281,TRUE
519,1661999043.792,1838.1009935215427,4797.1819913175505,1000,3.732,-1.499,-0.068,1078.1,red,281,TRUE
520,1661999044.855,2332.1952121436284,-1738.1513515679808,1000,0.368,-0.223,-0.016,90.8,green,281,TRUE
521,1661999045.114,983.3543380391219,8232.086524009928,1000,2.994,-1.4,-3.06,118.7,blue,281,TRUE
522,1661999045.217,1957.1550756011725,4780.605306811203,1000,2.469,-1.372,-1.342,121.4,red,281,TRUE
523,1661999045.309,3563.473606551626,-2582.615160247827,1000,5.096,-1.215,0.284,120.3,yellow,281,TRUE
524,1661999045.416,2414.768318302039,-1916.9200426813768,1000,0.362,-0.216,-0.013,108.1,green,281,TRUE
525,1661999045.687,902.5794881932991,8233.221143075494,1000,2.982,-1.391,-3.051,103.7,blue,281,TRUE
526,1661999045.776,2163.4513604655826,4732.697548273925,1000,1.384,-1.392,-1.637,120.1,red,281,TRUE
527,1661999045.867,3594.534635764829,-2611.4960224752226,1000,5.096,-1.216,0.285,119.4,yellow,281,TRUE
528,1661999051.537,1126.122585651477,8087.464371947414,1000,3.212,-1.187,-3.091,110.9,blue,281,TRUE
529,1661999051.629,2882.6001725078377,3917.026451152107,1000,0.313,-1.474,-0.065,138.7,red,281,TRUE
530,1661999055.03,3277.2434326071334,3498.8454516652055,1000,0.257,-1.448,-1.661,1142.9,red,281,TRUE
531,1661999056.159,2465.9118550756357,-2018.330206592296,1000,0.353,-0.211,-0.016,134.3,green,281,TRUE
532,1661999056.478,1097.2595395310484,8092.336967750074,1000,3.295,-1.245,-3.079,104.4,blue,281,TRUE
533,1661999056.57,3611.2124998514296,3185.232149058133,1000,5.725,-1.457,-0.083,102.1,red,281,TRUE
534,1661999056.659,3637.12530757324,-2623.3695473798057,1000,5.105,-1.193,0.25,119.0,yellow,281,TRUE
535,1661999056.751,2737.6452879183266,-2647.823002304957,1000,0.364,-0.229,-0.023,85.8,green,281,TRUE
536,1661999057.96,972.4190773825475,7678.749386505994,1000,3.29,-1.25,-3.076,1145.3,blue,281,TRUE
537,1661999062.37,4271.002292385719,2626.321340668044,1000,5.347,-1.499,-3.083,115.3,red,281,TRUE
538,1661999065.782,4868.237727874924,2151.0643015942455,1000,5.103,-1.338,-2.065,1138.7,red,281,TRUE
539,1661999069.062,1288.7303177557483,7432.210124107511,1000,1.76,-1.237,-2.625,123.1,blue,281,TRUE
540,1661999069.165,5400.576691986941,1655.8988938650036,1000,5.286,-1.559,0.009,125.1,red,281,TRUE
541,1661999069.269,3689.2167466490814,-2636.8457875088766,1000,5.104,-1.187,0.314,96.6,yellow,281,TRUE
542,1661999071.515,1734.1308270364552,6628.460560108798,1000,2.421,-1.271,-2.897,120.8,blue,281,TRUE
543,1661999071.617,5525.19469546086,1668.096602194304,1000,5.492,-1.501,-3.074,123.8,red,281,TRUE
544,1661999080.843,5697.786276086231,1581.2840481172923,1000,5.799,-1.416,2.534,113.7,red,281,TRUE
545,1661999091.202,5977.175668224075,1366.0639769411398,1000,5.572,-1.436,-0.491,1146.5,red,281,TRUE
546,1661999097.851,6155.8074717887275,1285.543655813702,1000,5.856,-1.42,-1.336,115.9,red,281,TRUE
547,1661999099.135,2223.136483552347,5667.419648964725,1000,5.728,-1.374,3.074,112.4,blue,281,TRUE
548,1661999099.235,6321.923889606257,1220.4264998516958,1000,5.705,-1.386,-1.069,102.2,red,281,TRUE
549,1661999099.324,3331.691708344612,-2378.555768248461,1000,5.424,-1.096,1.764,91.5,yellow,281,TRUE
550,1661999099.53,2509.6498583295083,4927.121726877404,1000,5.74,-1.362,-2.521,123.7,blue,281,TRUE
551,1661999099.636,6485.204344670419,1181.761634751855,1000,5.708,-1.392,-1.145,122.8,red,281,TRUE
552,1661999099.741,3111.688442744444,-2103.668133868643,1000,5.227,-1.094,1.707,79.4,yellow,281,TRUE
553,1661999099.916,2883.8559942841807,4065.690680925564,1000,6.092,-1.295,-2.81,98.9,blue,281,TRUE
554,1661999100.002,6627.073735024358,1161.7667822422522,1000,5.701,-1.391,-1.121,103.9,red,281,TRUE
555,1661999100.091,2801.6444585248014,-1813.9529791389057,1000,5.773,-1.059,1.808,94.1,yellow,281,TRUE
556,1661999100.3,3532.5569846000385,3689.1519084868105,1000,0.476,-1.274,-3.083,107.8,blue,281,TRUE
557,1661999100.395,6746.794600846947,1134.6247812392837,1000,5.704,-1.4,-1.124,119.2,red,281,TRUE
558,1661999101.688,3778.5890092294053,3104.8318415343874,1000,1.527,-1.273,2.845,113.5,blue,281,TRUE
559,1661999101.79,6666.017031371252,1300.9031157651093,1000,5.585,-1.371,-1.133,100.4,red,281,TRUE
560,1661999101.877,2412.1678315953873,-1467.2114866668655,1000,0.547,-1.036,1.808,93.9,yellow,281,TRUE
561,1661999102.077,3941.604927685044,3074.4113472572244,1000,1.58,-1.28,2.85,116.3,blue,281,TRUE
562,1661999102.175,6606.4914659829365,1376.5887242061874,1000,5.378,-1.424,-1.108,124.0,red,281,TRUE
563,1661999102.281,2084.304268061354,-1082.391975223127,1000,0.711,-1.012,1.993,95.4,yellow,281,TRUE
564,1661999102.472,4133.532585751496,3220.2183105443273,1000,1.681,-1.346,2.89,129.5,blue,281,TRUE
565,1661999102.583,6561.366663156044,1311.0948290711447,1000,5.606,-1.394,-0.924,123.2,red,281,TRUE
566,1661999102.688,1725.4176225424237,-634.4060105910054,1000,5.816,-0.992,1.939,109.1,yellow,281,TRUE
567,1661999102.907,4212.823535488286,3301.4430185940732,1000,2.37,-1.313,2.866,118.1,blue,281,TRUE
568,1661999103.015,6454.854069650923,1323.1687102014164,1000,5.775,-1.434,-0.553,101.7,red,281,TRUE
569,1661999103.102,1671.9771173508036,-380.3990051479668,1000,4.134,-0.995,2.081,118.6,yellow,281,TRUE
570,1661999103.205,2563.358289111574,-2226.3519935683003,1000,1.193,-0.973,0.216,121.6,green,281,TRUE
571,1661999103.541,4427.477231420359,3336.396739576941,1000,2.313,-1.338,2.897,104.5,blue,281,TRUE
572,1661999103.635,6398.239136506544,1323.6534347291806,1000,6.033,-1.453,-0.069,101.9,red,281,TRUE
573,1661999103.723,1609.8277777078004,-101.8731089793586,1000,2.136,-1.072,2.058,117.1,yellow,281,TRUE
574,1661999103.817,2422.668383106719,-1770.7867888333483,1000,1.138,-0.992,0.239,98.5,green,281,TRUE
575,1661999105.12,6324.115116664078,1370.8675286195523,1000,5.49,-1.295,-1.513,1128.6,red,281,TRUE
576,1661999106.235,2290.8026675216884,-1317.8043560767742,1000,6.091,-1.329,0.299,118.0,green,281,TRUE
577,1661999106.542,4636.740047376948,3233.501979186553,1000,2.293,-1.298,3.053,101.7,blue,281,TRUE
578,1661999106.63,6304.81444021536,1313.1881217688976,1000,5.591,-1.32,-1.722,120.1,red,281,TRUE
579,1661999106.732,1866.2115242718498,343.37125321521853,1000,1.237,-1.232,1.682,106.0,yellow,281,TRUE
580,1661999106.825,2171.1501599340927,-872.4154747741296,1000,0.525,-1.069,0.584,106.3,green,281,TRUE
581,1661999107.099,4815.673566536866,3159.904079478841,1000,2.341,-1.285,3.054,103.4,blue,281,TRUE
582,1661999107.19,6315.639717380304,1237.861632706384,1000,5.562,-1.321,-1.655,102.7,red,281,TRUE
583,1661999107.279,2275.3588742336574,840.7419464341746,1000,1.144,-1.136,1.898,103.2,yellow,281,TRUE
584,1661999107.368,2110.1718146932385,-424.9066957879004,1000,1.185,-1.0,0.44,105.2,green,281,TRUE
585,1661999107.641,4914.355090359025,3079.144181927569,1000,2.354,-1.298,3.051,118.7,blue,281,TRUE
586,1661999107.741,6321.234140146645,1201.1646698753636,1000,5.631,-1.326,-1.671,108.6,red,281,TRUE
587,1661999107.836,2676.1221174744696,1255.7554552379818,1000,2.16,-0.94,1.984,103.8,yellow,281,TRUE
588,1661999107.926,2081.8809220111707,107.24718929909416,1000,1.398,-1.107,0.023,104.3,green,281,TRUE
589,1661999108.2,4944.79441459254,2956.2284083997856,1000,2.735,-1.251,2.925,101.9,blue,281,TRUE
590,1661999108.289,6381.38230839922,1127.6773993693987,1000,5.546,-1.302,-1.637,119.3,red,281,TRUE
591,1661999108.394,3101.8855159090203,1635.0647147106217,1000,2.595,-0.913,1.881,107.0,yellow,281,TRUE
592,1661999108.488,2346.5855422490017,343.6817780658389,1000,1.237,-0.963,0.231,102.5,green,281,TRUE
593,1661999108.769,5054.310112782334,2848.354090708502,1000,3.316,-1.245,3.0,107.7,blue,281,TRUE
594,1661999108.862,6381.796156027689,1097.9249740172424,1000,5.541,-1.31,-1.635,119.6,red,281,TRUE
595,1661999109.996,2613.3703899990337,630.5626114232884,1000,0.992,-1.235,0.091,1129.1,green,281,TRUE
596,1661999111.214,4888.354743933033,2768.2010604640586,1000,2.673,-1.282,3.072,123.2,blue,281,TRUE
597,1661999111.34,6344.1174668619515,1294.1776442248686,1000,5.677,-1.377,-1.086,1102.0,red,281,TRUE
