,timestamp,x,y,z,yaw,roll,pitch,latency,student,session,success
0,1662002410.451,3326.239732069241,-2091.22354130174,1000,5.199,-1.054,0.024,1174.6,green,282,TRUE
1,1662002416.023,2490.377164701748,1871.8062014864597,1000,4.034,-1.371,1.042,1144.0,blue,282,TRUE
2,1662002420.479,4643.510762125928,2567.538333274994,1000,4.311,-1.492,-3.07,1136.9,red,282,TRUE
3,1662002421.601,3296.6048974204255,-2046.2060878330194,1000,5.093,-1.084,0.2,121.5,green,282,TRUE
4,1662002422.841,2220.9266803301393,1986.5826907723485,1000,4.036,-1.365,0.776,1149.9,blue,282,TRUE
5,1662002429.66,4034.9695580638563,2612.0648676386563,1000,4.274,-1.524,-3.095,128.3,red,282,TRUE
6,1662002430.803,3289.648356261117,-2010.660074755261,1000,5.14,-0.977,0.173,1179.2,green,282,TRUE
7,1662002431.994,2191.524494130163,2327.109226599985,1000,4.154,-1.208,0.577,123.5,blue,282,TRUE
8,1662002432.097,3372.792511973139,2667.7216474639463,1000,4.273,-1.524,-3.095,125.1,red,282,TRUE
9,1662002434.449,2912.452327525151,2739.6809641875093,1000,4.192,-1.475,0.002,131.2,red,282,TRUE
10,1662002436.779,2540.5721410328774,3060.4705265736848,1000,3.843,-1.372,0.974,110.0,blue,282,TRUE
11,1662002436.868,2518.780919260563,2789.1018621289727,1000,4.142,-1.509,-0.031,128.6,red,282,TRUE
12,1662002438.004,3813.4822557625575,-2417.979333228893,1000,5.298,-1.124,0.879,1178.6,green,282,TRUE
13,1662002439.193,2530.0117234453087,3588.3248205815767,1000,3.656,-1.408,0.634,123.6,blue,282,TRUE
14,1662002439.294,2215.5536483660544,2896.967982109562,1000,4.554,-1.346,-0.723,113.8,red,282,TRUE
15,1662002441.664,2177.2390902064567,2789.5820766934626,1000,4.152,-1.453,-0.095,125.3,red,282,TRUE
16,1662002442.798,2529.8879565755597,-1995.5006149703083,1000,5.139,-1.062,0.148,1177.0,green,282,TRUE
17,1662002443.987,2476.931832452628,3663.152525225037,1000,3.976,-1.276,0.75,108.0,blue,282,TRUE
18,1662002444.074,2287.5058422854468,2834.6751950590246,1000,4.15,-1.503,-0.026,125.7,red,282,TRUE
19,1662002450.953,2397.9370026911506,2962.960640173855,1000,4.134,-1.518,-0.029,1159.9,red,282,TRUE
20,1662002452.099,2521.3406823043583,-2122.7538930889327,1000,5.104,-1.02,0.127,119.6,green,282,TRUE
21,1662002452.39,2516.265694746208,3676.06271521256,1000,4.025,-1.224,0.561,101.2,blue,282,TRUE
22,1662002452.48,2464.8310763287477,2913.251361169195,1000,4.126,-1.512,-0.035,116.9,red,282,TRUE
23,1662002459.345,2507.9285161158023,3015.1826495699083,1000,4.083,-1.485,-0.045,1144.2,red,282,TRUE
24,1662002460.47,2541.9500908832065,-2178.903346478879,1000,5.106,-1.133,0.13,123.3,green,282,TRUE
25,1662002465.096,2628.426493026617,3643.1236295505623,1000,4.009,-1.233,0.611,124.4,blue,282,TRUE
26,1662002465.208,2573.9275544356356,2996.897446288722,1000,4.17,-1.52,-0.012,123.7,red,282,TRUE
27,1662002469.746,2451.127686685478,-2186.642186725921,1000,5.287,-0.938,0.144,1168.5,green,282,TRUE
28,1662002470.922,2649.4718493969626,3748.1955154994757,1000,4.946,-1.251,1.27,127.8,blue,282,TRUE
29,1662002471.033,2640.6290921301456,3029.312073231568,1000,4.092,-1.356,-1.858,121.9,red,282,TRUE
30,1662002473.41,2531.0313080611286,3458.3241687245622,1000,4.626,-1.311,-0.791,128.9,red,282,TRUE
31,1662002475.779,2419.607765461888,3984.71484209619,1000,4.135,-1.404,-0.744,116.9,red,282,TRUE
32,1662002476.906,2502.9476745505385,-2225.0886737633505,1000,5.281,-0.985,0.115,1175.7,green,282,TRUE
33,1662002478.091,2567.122575802159,4441.210604716047,1000,3.98,-1.383,1.197,124.6,blue,282,TRUE
34,1662002478.196,2299.48633995109,4618.56151998934,1000,4.108,-1.39,-0.886,125.3,red,282,TRUE
35,1662002480.575,2181.7315585633532,5215.568481453805,1000,4.181,-1.417,-1.209,113.3,red,282,TRUE
36,1662002482.931,2008.5101478295458,5809.455462253292,1000,4.153,-1.467,-0.083,127.3,red,282,TRUE
37,1662002486.381,1790.8506308585422,6437.049948180346,1000,4.206,-1.508,-3.078,1157.5,red,282,TRUE
38,1662002487.522,2256.3606229706843,-2239.3466197109187,1000,5.3,-0.959,0.113,120.3,green,282,TRUE
39,1662002488.765,2517.396070505098,5184.366989130103,1000,3.963,-1.374,0.85,1144.6,blue,282,TRUE
40,1662002496.668,1898.0330369492274,6605.002676890718,1000,4.169,-1.496,-0.07,1121.0,red,282,TRUE
41,1662002497.779,2482.9717679145974,-2383.6148272462156,1000,5.221,-0.99,0.156,114.6,green,282,TRUE
42,1662002498.021,2437.7697582760643,5869.749784573797,1000,3.977,-1.39,1.107,101.2,blue,282,TRUE
43,1662002498.11,1889.1766689101926,6624.497021461947,1000,4.148,-1.492,-0.074,132.5,red,282,TRUE
44,1662002506.108,2474.356410927498,-2383.742578147811,1000,5.469,-0.984,0.192,116.2,green,282,TRUE
45,1662002507.329,2406.0974411196767,6478.526137505771,1000,3.903,-1.396,1.093,104.9,blue,282,TRUE
46,1662002507.419,1864.3289199217854,6611.769045998806,1000,4.193,-1.509,-3.081,119.6,red,282,TRUE
47,1662002510.877,1700.9024896131655,6665.545909839491,1000,4.147,-1.513,-0.057,1160.3,red,282,TRUE
48,1662002514.219,2342.67116939729,7139.400720084889,1000,3.846,-1.404,1.166,1142.0,blue,282,TRUE
49,1662002523.416,2327.5055448901808,7686.900908135743,1000,2.999,-1.358,1.068,104.4,blue,282,TRUE
50,1662002523.506,1888.116055164517,6762.834202164854,1000,5.758,-1.454,-0.116,116.1,red,282,TRUE
51,1662002524.789,2345.180154081119,7646.890245619096,1000,2.829,-1.389,1.381,101.5,blue,282,TRUE
52,1662002524.878,1994.3136991275483,6651.248191664402,1000,6.06,-1.467,-0.099,118.2,red,282,TRUE
53,1662002526.167,2403.062971682172,7514.974828313422,1000,3.163,-1.397,1.289,114.4,blue,282,TRUE
54,1662002526.271,2135.4392981054634,6345.654804021751,1000,0.914,-1.321,-1.077,114.3,red,282,TRUE
55,1662002527.556,2430.9490514196355,7527.374969374574,1000,3.846,-1.36,0.942,114.2,blue,282,TRUE
56,1662002527.656,2395.0680694543757,5825.766424706711,1000,1.37,-1.406,-0.213,133.2,red,282,TRUE
57,1662002528.952,2500.400445290388,7388.144637070702,1000,3.523,-1.33,0.743,101.0,blue,282,TRUE
58,1662002529.044,2759.624228513762,5029.868360097259,1000,0.327,-1.512,-0.058,114.5,red,282,TRUE
59,1662002530.324,2665.0501393440068,7138.740301322563,1000,2.17,-1.431,0.881,102.0,blue,282,TRUE
60,1662002530.412,3188.6185260314364,4236.872532849508,1000,5.607,-1.425,-2.297,118.2,red,282,TRUE
61,1662002531.701,2796.7223863847535,6899.407753220675,1000,2.633,-1.395,0.938,115.1,blue,282,TRUE
62,1662002531.803,3670.0019114196207,3305.3795037143122,1000,5.912,-1.376,-1.532,117.7,red,282,TRUE
63,1662002533.086,2998.038914566832,6529.924431099891,1000,2.329,-1.424,1.224,101.0,blue,282,TRUE
64,1662002533.175,4195.3618757819495,2585.345465197318,1000,5.343,-0.966,-1.757,117.1,red,282,TRUE
65,1662002534.459,3277.797034210702,6220.5979976711815,1000,2.35,-1.422,1.079,103.7,blue,282,TRUE
66,1662002534.553,4702.778562513662,1956.41989781206,1000,5.359,-1.238,-1.509,129.1,red,282,TRUE
67,1662002535.851,3535.3513951245623,5767.0796052382575,1000,2.231,-1.385,1.001,112.6,blue,282,TRUE
68,1662002535.951,5028.931442303408,1689.1105761086908,1000,4.545,-0.988,-2.237,117.4,red,282,TRUE
69,1662002537.237,3772.8820262025433,5507.765045679749,1000,2.289,-1.386,1.068,116.4,blue,282,TRUE
70,1662002537.344,5282.917525259312,1633.5907369803208,1000,4.602,-1.251,-2.003,116.2,red,282,TRUE
71,1662002538.628,3937.4917859316633,5293.453409011743,1000,2.284,-1.384,1.08,113.0,blue,282,TRUE
72,1662002538.729,5494.2228197764825,1589.1648909239668,1000,4.975,-1.064,-1.905,133.2,red,282,TRUE
73,1662002540.033,4046.3041343827367,5113.0516012896105,1000,2.301,-1.388,1.155,110.9,blue,282,TRUE
74,1662002540.131,5538.551409664223,1601.351113248534,1000,5.296,-0.995,-2.006,116.0,red,282,TRUE
75,1662002541.418,4097.06118369542,5082.188473225446,1000,2.296,-1.384,1.16,113.7,blue,282,TRUE
76,1662002541.519,5527.015171135964,1506.1336238223375,1000,5.303,-0.983,-1.969,118.5,red,282,TRUE
77,1662002542.801,4061.2900417676897,5062.994590552918,1000,2.298,-1.383,1.16,102.1,blue,282,TRUE
78,1662002542.889,5479.518248124287,1538.9407070049558,1000,5.307,-1.067,-1.91,104.6,red,282,TRUE
79,1662002544.163,4065.523230127154,5059.735390378198,1000,2.282,-1.388,1.17,100.0,blue,282,TRUE
80,1662002544.25,5425.805412427034,1514.7165439317534,1000,5.13,-1.143,-1.78,119.8,red,282,TRUE
81,1662002545.54,4061.0865321403912,5060.468229652889,1000,2.279,-1.388,1.187,111.8,blue,282,TRUE
82,1662002545.638,5408.887797864809,1530.3616938805199,1000,4.911,-1.22,-2.237,135.3,red,282,TRUE
83,1662002546.936,4010.7931394926377,5090.048461213826,1000,2.283,-1.388,1.196,101.3,blue,282,TRUE
84,1662002547.026,5582.6131223987895,1536.666211149008,1000,4.638,-1.15,-1.602,116.2,red,282,TRUE
85,1662002548.31,3996.392422804718,5087.126029482409,1000,2.278,-1.389,1.216,101.0,blue,282,TRUE
86,1662002548.4,5708.300590364255,1448.9401118068665,1000,5.063,-1.438,-1.274,117.2,red,282,TRUE
87,1662002549.688,4019.959797677519,5068.977492503937,1000,2.287,-1.381,1.132,112.9,blue,282,TRUE
88,1662002549.787,5846.241027251127,1423.759340441432,1000,4.969,-1.224,-1.344,120.7,red,282,TRUE
89,1662002551.079,4033.0176608388374,5061.630378262785,1000,2.242,-1.39,1.117,114.4,blue,282,TRUE
90,1662002551.181,6010.279987594676,1355.1233438124725,1000,5.064,-1.32,-1.397,133.0,red,282,TRUE
91,1662002552.483,4048.7198381106537,5071.991961711657,1000,2.247,-1.386,1.109,111.6,blue,282,TRUE
92,1662002552.585,6112.988053397818,1399.6770847705009,1000,5.001,-1.347,-1.7,115.3,red,282,TRUE
93,1662002553.87,4040.9395615031913,5074.921996996408,1000,2.197,-1.397,1.136,98.7,blue,282,TRUE
94,1662002553.957,6191.884155443123,1385.840129789139,1000,4.711,-0.855,-1.73,118.0,red,282,TRUE
95,1662002555.241,4053.5307310191833,5076.241486658725,1000,2.219,-1.391,1.121,100.0,blue,282,TRUE
96,1662002555.328,6134.941473019316,1317.4243355612464,1000,4.793,-1.007,-1.667,118.1,red,282,TRUE
97,1662002556.618,4102.832057823979,5139.18756603499,1000,2.297,-1.366,1.086,113.8,blue,282,TRUE
98,1662002556.719,6189.170274554658,1318.3165027750747,1000,5.141,-1.182,-1.652,133.0,red,282,TRUE
99,1662002558.018,4074.9685508231864,5138.815180344118,1000,2.94,-1.416,1.143,113.5,blue,282,TRUE
100,1662002558.11,6201.970750068733,1410.4050454234814,1000,5.77,-1.268,-3.049,129.1,red,282,TRUE
101,1662002559.407,4042.935220167245,4944.234177171477,1000,3.22,-1.458,0.108,99.4,blue,282,TRUE
102,1662002559.494,6197.167104921046,1485.402798597308,1000,5.587,-1.333,-2.395,117.9,red,282,TRUE
103,1662002560.778,3995.7004608415587,4543.47690874516,1000,3.049,-1.285,1.179,101.0,blue,282,TRUE
104,1662002560.866,6250.9559502854245,1419.8844935660434,1000,5.013,-1.218,-1.325,118.4,red,282,TRUE
105,1662002562.156,4113.634347168779,3910.3317962761025,1000,0.797,-1.437,1.824,127.9,blue,282,TRUE
106,1662002562.259,6274.431003448847,1351.684980077465,1000,4.33,-1.252,-1.57,127.4,red,282,TRUE
107,1662002563.556,4174.194885504829,3349.317582009727,1000,0.612,-1.252,1.925,113.9,blue,282,TRUE
108,1662002563.658,6266.929580158096,1380.4288867955731,1000,4.391,-1.265,-1.352,117.3,red,282,TRUE
109,1662002564.948,4269.746952494482,2672.892198505848,1000,0.824,-1.256,1.776,128.6,blue,282,TRUE
110,1662002565.067,6133.44280713809,1527.8430384167234,1000,4.598,-1.349,-1.544,116.0,red,282,TRUE
111,1662002565.154,6032.7970305799145,1524.3398936670083,1000,4.598,-1.349,-1.544,1102.5,red,282,TRUE
112,1662002566.422,4494.461948952119,2104.257362634667,1000,0.445,-1.358,1.776,103.4,blue,282,TRUE
113,1662002566.511,5912.598315096959,1378.837455529939,1000,3.746,-1.059,-1.684,120.5,red,282,TRUE
114,1662002567.804,4634.834495251695,1673.4380185668213,1000,1.106,-1.313,1.992,96.6,blue,282,TRUE
115,1662002567.889,5854.495746642828,1349.3400407327217,1000,4.432,-1.282,-1.54,118.3,red,282,TRUE
116,1662002569.172,4700.6604939784465,1485.728849108954,1000,4.796,-1.53,3.112,101.7,blue,282,TRUE
117,1662002569.261,5890.962758318194,1454.4823804087084,1000,5.079,-1.328,-1.853,133.6,red,282,TRUE
118,1662002571.707,5993.789772511996,1445.1573168199172,1000,5.207,-1.257,-1.671,125.7,red,282,TRUE
119,1662002583.143,2964.536118757392,-1803.2985086132148,1000,5.368,-1.384,-0.556,1186.0,green,282,TRUE
120,1662002584.336,4943.755452535409,1808.572535939449,1000,3.672,-1.389,1.679,157.7,blue,282,TRUE
121,1662002584.478,5983.445411507909,1376.536047881835,1000,4.012,-1.361,-0.704,121.0,red,282,TRUE
122,1662002586.808,5788.985120034418,1503.6102391014674,1000,4.018,-1.357,-0.629,1077.9,red,282,TRUE
123,1662002587.87,3413.21033969498,-1224.6975838847382,1000,5.319,-1.348,-0.405,106.5,green,282,TRUE
124,1662002588.116,5046.913016897922,1845.9048202427027,1000,2.881,-1.419,2.01,101.4,blue,282,TRUE
125,1662002588.205,5704.230853085884,1448.8218713051554,1000,4.015,-1.371,-0.617,134.9,red,282,TRUE
126,1662002590.577,5621.618930936184,1535.00459273417,1000,4.11,-1.302,-1.845,141.0,red,282,TRUE
127,1662002591.73,3743.1373287197553,-523.3351090670368,1000,5.19,-1.319,-2.1,1178.1,green,282,TRUE
128,1662002593.954,5614.821703326204,1734.9385295043703,1000,5.075,-1.282,-2.682,1126.6,red,282,TRUE
129,1662002595.069,4147.7738678031865,143.72387185296031,1000,5.063,-1.398,-1.71,116.2,green,282,TRUE
130,1662002595.325,5065.2403671024795,2034.9636239625981,1000,2.782,-1.457,0.112,102.1,blue,282,TRUE
131,1662002595.412,5613.921626617574,1758.7378788512717,1000,4.974,-1.259,-2.603,120.0,red,282,TRUE
132,1662002596.547,4508.121051943414,829.6820844862195,1000,5.008,-1.344,-1.566,1172.5,green,282,TRUE
133,1662002597.727,5015.6414090258495,2121.4717869545707,1000,2.759,-1.425,1.344,112.8,blue,282,TRUE
134,1662002597.831,5596.813579834176,1742.0517403422775,1000,4.911,-1.293,-2.477,130.1,red,282,TRUE
135,1662002600.209,5551.4007273530015,1705.0465371036787,1000,4.66,-1.182,-2.357,125.7,red,282,TRUE
136,1662002607.044,5743.336871458238,1636.3319551422649,1000,5.289,-1.443,-1.054,1155.5,red,282,TRUE
137,1662002608.184,4845.650720886684,1489.0945057531897,1000,5.51,-1.482,3.053,121.2,green,282,TRUE
138,1662002609.376,5022.203843401714,2255.5118813544213,1000,3.094,-1.344,2.659,104.7,blue,282,TRUE
139,1662002609.468,5922.807580079439,1541.4886188494802,1000,5.427,-1.4,-1.987,119.5,red,282,TRUE
140,1662002610.602,4869.55026582895,1305.3780456115073,1000,3.031,-1.417,0.317,1143.9,green,282,TRUE
141,1662002612.764,5385.229741385093,2259.017055669551,1000,2.872,-1.415,2.016,1134.7,blue,282,TRUE
142,1662002614.916,4737.016653167697,825.6708594158281,1000,2.605,-1.441,0.011,1128.4,green,282,TRUE
143,1662002616.181,5136.381353617105,2174.014980857674,1000,4.551,-1.146,1.715,120.3,blue,282,TRUE
144,1662002616.278,6053.849876146662,1300.652800164396,1000,4.732,-1.346,-1.097,113.1,red,282,TRUE
145,1662002626.513,6179.847920866899,1326.607733126669,1000,6.147,-1.347,-2.463,1139.3,red,282,TRUE
146,1662002627.637,4480.33606839191,492.3598142337076,1000,2.427,-1.358,-0.295,122.6,green,282,TRUE
147,1662002627.958,4965.985808903116,2274.102418586957,1000,1.637,-1.364,1.914,103.4,blue,282,TRUE
148,1662002628.048,6328.351821857326,1322.6215833654735,1000,6.116,-1.346,-2.356,117.7,red,282,TRUE
149,1662002631.427,6450.293080498163,1384.1940222017167,1000,6.101,-1.344,-2.082,1124.7,red,282,TRUE
150,1662002632.543,4164.737858711741,262.09234299678553,1000,1.316,-1.318,-0.408,129.7,green,282,TRUE
151,1662002633.892,6426.675192297861,1404.0837028906355,1000,5.411,-1.287,-1.127,1133.0,red,282,TRUE
152,1662002635.008,3852.107952660444,9.621971985353381,1000,2.245,-1.37,0.208,123.2,green,282,TRUE
153,1662002635.348,4822.322893810792,2309.590267001444,1000,1.548,-1.37,1.887,101.6,blue,282,TRUE
154,1662002635.435,6362.151861018897,1455.2117836072377,1000,4.671,-1.28,-1.345,120.2,red,282,TRUE
155,1662002636.566,3543.510852820869,-127.53631898432542,1000,1.382,-1.422,-1.011,1144.2,green,282,TRUE
156,1662002637.782,4697.415627589954,2395.0774965329497,1000,1.542,-1.372,1.878,128.1,blue,282,TRUE
157,1662002637.887,6363.789825038398,1594.4489901861336,1000,4.653,-1.283,-1.343,126.4,red,282,TRUE
158,1662002639.022,3368.9526275250023,140.6900894693427,1000,0.578,-1.458,0.084,1164.2,green,282,TRUE
159,1662002644.62,4590.346802922808,2500.425037044541,1000,1.597,-1.381,1.851,126.0,blue,282,TRUE
160,1662002644.732,6223.710118678937,1560.9037743621784,1000,3.927,-1.202,-1.812,154.6,red,282,TRUE
161,1662002644.889,3467.7237400060953,720.7524603978864,1000,0.376,-1.449,1.321,112.4,green,282,TRUE
162,1662002646.134,4219.449616722671,2801.377211151834,1000,1.607,-1.377,1.869,1175.2,blue,282,TRUE
163,1662002647.319,3676.429031782469,1080.7574892329044,1000,0.381,-1.448,1.333,124.1,green,282,TRUE
164,1662002650.002,4190.469958777561,2883.323706716365,1000,1.982,-1.427,2.158,102.2,blue,282,TRUE
165,1662002650.09,6127.145962368792,1538.2241422282852,1000,4.215,-1.391,-1.336,95.4,red,282,TRUE
166,1662002650.222,6030.909400098645,2167.4248520830092,1000,2.471,-1.452,0.112,1121.4,green,282,TRUE
167,1662002651.435,4279.64617148946,2990.8855922038542,1000,2.301,-1.467,3.054,120.4,blue,282,TRUE
168,1662002651.534,6046.863191082335,1533.5278269707717,1000,3.971,-1.157,-1.95,157.1,red,282,TRUE
169,1662002651.692,4812.041141737537,2828.8432334723493,1000,5.956,-1.371,-0.384,120.4,green,282,TRUE
170,1662002651.979,4345.399711610628,3085.981744524825,1000,2.497,-1.4,2.134,104.0,blue,282,TRUE
171,1662002652.073,5865.9959963479305,1554.7179849370514,1000,3.962,-1.093,-2.045,92.0,red,282,TRUE
172,1662002652.166,4510.960471695275,3099.031780341267,1000,6.236,-1.349,-0.454,127.7,green,282,TRUE
173,1662002655.798,4554.154808677544,3096.161265617607,1000,2.678,-1.391,1.742,1173.5,blue,282,TRUE
174,1662002656.978,4762.032225143319,3084.20843270797,1000,2.281,-1.5,0.045,117.3,green,282,TRUE
175,1662002657.262,4748.721895926958,3025.8280340228616,1000,2.647,-1.414,1.536,118.7,blue,282,TRUE
176,1662002657.363,5861.311320358386,1521.750577802264,1000,4.291,-1.269,-1.215,94.1,red,282,TRUE
177,1662002659.596,4936.405510148757,2842.1537246562348,1000,2.611,-1.417,1.638,123.1,blue,282,TRUE
178,1662002659.699,5743.775938722824,1520.1558411449112,1000,4.259,-1.35,-1.484,157.3,red,282,TRUE
179,1662002659.857,4916.9102677559,3129.936162503717,1000,1.761,-1.433,-1.05,104.0,green,282,TRUE
180,1662002661.081,4993.400672391428,2713.15688355032,1000,2.507,-1.441,1.398,1172.2,blue,282,TRUE
181,1662002662.264,5013.071419649829,3114.6768389582535,1000,1.743,-1.402,-0.878,127.4,green,282,TRUE
182,1662002670.735,5245.32666825648,2468.6863409511,1000,1.949,-1.451,0.119,1174.1,blue,282,TRUE
183,1662002671.954,4894.24710314864,3187.827714144834,1000,1.809,-1.409,-0.607,136.7,green,282,TRUE
184,1662002673.212,5304.620210561837,2343.827026018087,1000,3.106,-1.415,0.743,1174.9,blue,282,TRUE
185,1662002674.398,4975.998146027192,3229.2868411061354,1000,2.302,-1.496,3.079,122.4,green,282,TRUE
186,1662002675.64,5563.431217344333,1778.0890592767048,1000,2.393,-1.389,2.117,1178.0,blue,282,TRUE
187,1662002676.827,4993.871519288132,3206.154262374292,1000,1.93,-1.445,-2.93,125.7,green,282,TRUE
188,1662002678.07,5535.185083604975,1812.697136553963,1000,2.514,-1.429,1.81,1193.5,blue,282,TRUE
189,1662002679.272,4725.599097281702,3288.140069777546,1000,1.978,-1.502,-3.111,110.8,green,282,TRUE
190,1662002681.949,5526.619695175349,1733.6053294685719,1000,2.974,-1.331,2.041,102.3,blue,282,TRUE
191,1662002682.039,5428.162561260103,1741.5238847152716,1000,5.399,-1.225,-1.114,91.6,red,282,TRUE
192,1662002682.16,4049.975334570768,3445.9491071904567,1000,1.963,-1.503,-3.082,1112.5,green,282,TRUE
193,1662002686.689,5046.71681123121,959.3765908466594,1000,3.131,-1.093,2.13,1171.7,blue,282,TRUE
194,1662002687.867,4020.2248871421566,3385.6558358159464,1000,1.736,-1.395,-0.59,99.3,green,282,TRUE
195,1662002693.827,4874.026235787101,1020.1106631620893,1000,3.077,-1.053,2.331,106.4,blue,282,TRUE
196,1662002693.919,5060.384823467644,2015.0056296528762,1000,5.349,-1.205,-1.197,151.3,red,282,TRUE
197,1662002696.227,4931.293180775575,1015.5640576109769,1000,3.74,-1.359,1.768,119.3,blue,282,TRUE
198,1662002696.328,4732.8817384385065,2337.3201732788298,1000,5.582,-1.329,-1.37,153.7,red,282,TRUE
199,1662002696.485,4399.873071335665,3283.4103968371164,1000,2.248,-1.467,-0.083,104.3,green,282,TRUE
200,1662002697.764,4436.569156912302,2643.079824588675,1000,5.838,-1.256,-0.894,151.7,red,282,TRUE
201,1662002697.922,4681.598436951926,3117.7111757699913,1000,2.16,-1.461,-0.088,100.3,green,282,TRUE
202,1662002698.191,4669.9723066063025,1677.6946182797699,1000,3.904,-1.418,2.208,103.3,blue,282,TRUE
203,1662002698.281,4037.3455261003182,2979.2674754326586,1000,5.786,-1.189,-0.983,90.4,red,282,TRUE
204,1662002698.374,4819.53722490066,2968.8677574614294,1000,2.46,-1.489,-0.05,101.9,green,282,TRUE
205,1662002698.644,4747.941565622427,1790.9047153292686,1000,3.955,-1.417,2.013,105.0,blue,282,TRUE
206,1662002698.737,3698.452993548702,3212.4521788587076,1000,5.76,-1.165,-1.056,92.5,red,282,TRUE
207,1662002698.839,4878.556479771342,2820.9002197219797,1000,2.644,-1.494,-0.019,125.2,green,282,TRUE
208,1662002701.508,4458.186497800264,2007.0499879355355,1000,3.206,-1.434,1.177,103.1,blue,282,TRUE
209,1662002701.598,3792.962457188816,3222.842979887046,1000,5.904,-1.164,-1.606,94.3,red,282,TRUE
210,1662002701.693,5066.851165113553,2642.366067735501,1000,2.167,-1.458,-0.106,114.2,green,282,TRUE
211,1662002701.973,4713.348873493296,2783.283419359894,1000,2.385,-1.319,1.299,120.0,blue,282,TRUE
212,1662002702.08,3866.530508335693,3229.454173512679,1000,5.921,-1.157,-1.598,94.6,red,282,TRUE
213,1662002702.175,5278.233801031486,2392.5914298512175,1000,2.051,-1.409,-1.654,144.8,green,282,TRUE
214,1662002705.746,4578.761683559012,2709.9662187003337,1000,6.214,-1.353,2.918,105.9,blue,282,TRUE
215,1662002705.839,3880.4028779733812,3152.224009539372,1000,5.577,-0.934,-1.33,146.5,red,282,TRUE
216,1662002705.988,5212.8341193040515,2248.2642655252353,1000,2.328,-1.469,-3.041,105.1,green,282,TRUE
217,1662002707.21,4561.512660236406,2516.8896807287233,1000,0.185,-1.367,1.682,1175.4,blue,282,TRUE
218,1662002708.397,5133.430967677867,2252.950137444963,1000,2.118,-1.464,-0.105,121.9,green,282,TRUE
219,1662002709.623,4293.987903078342,2271.979906117051,1000,0.292,-1.377,1.488,1171.8,blue,282,TRUE
220,1662002710.804,5086.543251690202,2239.76933861587,1000,2.221,-1.419,-1.899,125.9,green,282,TRUE
221,1662002716.888,4060.776629183714,2033.7857649445161,1000,0.184,-1.437,2.496,1159.2,blue,282,TRUE
222,1662002732.342,3909.0336034850393,1855.8839183595176,1000,1.12,-1.326,1.108,1179.1,blue,282,TRUE
223,1662002733.552,4875.519654113716,2493.8907028426834,1000,1.854,-1.511,-3.135,122.2,green,282,TRUE
224,1662002734.787,4016.367264878046,1746.514130093803,1000,1.092,-1.323,1.066,1180.8,blue,282,TRUE
225,1662002735.978,4704.517714682433,2651.2915983455846,1000,1.66,-1.426,-1.721,125.4,green,282,TRUE
226,1662002736.286,3954.907705509162,1846.3563243320277,1000,1.076,-1.312,1.012,104.0,blue,282,TRUE
227,1662002736.377,3883.3095004294823,3114.0196874125463,1000,6.06,-1.13,-1.275,103.6,red,282,TRUE
228,1662002736.493,4509.977218624755,2883.407534824591,1000,1.624,-1.39,-1.809,123.6,green,282,TRUE
229,1662002737.737,3825.6861613909714,2036.3244363629171,1000,1.128,-1.314,0.954,1172.9,blue,282,TRUE
230,1662002738.917,4388.00779056485,3014.0787041519106,1000,1.632,-1.38,-1.954,114.3,green,282,TRUE
231,1662002740.15,3825.3046268966336,2065.1583861493928,1000,1.215,-1.314,0.975,1176.6,blue,282,TRUE
232,1662002743.47,3736.3464461064664,2096.6769051952124,1000,1.155,-1.332,0.884,134.1,blue,282,TRUE
233,1662002743.667,4464.67964092883,3084.082236724449,1000,1.301,-1.344,-0.653,121.9,green,282,TRUE
234,1662002756.92,3991.2840245878137,2099.074467531424,1000,1.029,-1.418,2.006,1188.4,blue,282,TRUE
235,1662002758.123,4585.676737861412,3108.99725978802,1000,2.232,-1.502,3.088,122.3,green,282,TRUE
236,1662002760.749,4014.9731359241155,2118.941913155375,1000,0.834,-1.406,1.73,131.1,blue,282,TRUE
237,1662002760.868,3241.884909603362,3478.1731226250618,1000,4.194,-1.223,-1.222,94.5,red,282,TRUE
238,1662002760.964,4802.791068360173,2916.238173952452,1000,2.056,-1.396,-2.967,111.0,green,282,TRUE
239,1662002762.316,2656.2308642968937,4176.783461569479,1000,2.481,-1.184,-1.419,1138.1,red,282,TRUE
240,1662002763.438,4998.79085480772,2768.7491358688026,1000,2.117,-1.412,-2.971,106.2,green,282,TRUE
241,1662002775.077,3739.367515730972,2998.7528775339306,1000,3.86,-1.22,-1.724,158.6,red,282,TRUE
242,1662002778.858,3989.40058151957,2975.130407143091,1000,1.59,-1.324,0.782,103.5,blue,282,TRUE
243,1662002778.947,4294.572586639575,2593.378080697021,1000,4.268,-1.369,-1.004,92.1,red,282,TRUE
244,1662002779.042,5230.339835670785,2621.107583906289,1000,1.71,-1.133,-2.946,102.4,green,282,TRUE
245,1662002779.323,4057.473442164267,2952.300652403673,1000,1.598,-1.32,0.809,107.4,blue,282,TRUE
246,1662002779.416,4637.98830112606,2228.465675633317,1000,4.36,-1.383,-0.98,104.9,red,282,TRUE
247,1662002781.659,4049.8121266343774,2938.119397935137,1000,1.633,-1.314,0.785,120.1,blue,282,TRUE
248,1662002781.76,4901.174316191181,1966.5134153679203,1000,3.412,-1.366,-1.38,155.3,red,282,TRUE
249,1662002781.916,5387.418840575967,2441.0735056762355,1000,1.938,-1.461,-3.076,149.4,green,282,TRUE
250,1662002782.236,4036.2238479855664,2925.268604462973,1000,1.628,-1.316,0.796,130.7,blue,282,TRUE
251,1662002782.353,5398.206275260124,1512.6821338334682,1000,3.434,-1.373,-1.197,104.5,red,282,TRUE
252,1662002782.471,5350.923958032162,2305.08877220054,1000,1.823,-1.443,-1.719,108.2,green,282,TRUE
253,1662002782.75,4038.592057399956,2918.4721759766153,1000,1.625,-1.316,0.798,101.0,blue,282,TRUE
254,1662002782.836,6117.59500929563,810.764610955592,1000,3.522,-1.409,-1.311,94.5,red,282,TRUE
255,1662002782.93,5284.156681977285,2285.0618638087312,1000,2.125,-1.498,-3.078,118.2,green,282,TRUE
256,1662002784.134,4047.3279904229817,2906.507534441562,1000,1.628,-1.329,0.781,107.3,blue,282,TRUE
257,1662002784.23,6207.857184020092,835.298265384164,1000,3.539,-1.403,-1.608,146.2,red,282,TRUE
258,1662002786.544,4056.619277815976,2902.270372100771,1000,2.327,-1.286,2.089,120.9,blue,282,TRUE
259,1662002786.646,6222.656273360597,741.9021070523273,1000,3.554,-1.361,-1.589,160.9,red,282,TRUE
260,1662002786.81,5324.429450329474,2242.908305029727,1000,2.237,-1.404,-0.743,142.0,green,282,TRUE
261,1662002787.136,3886.5766084168845,2832.5471609620895,1000,3.057,-1.277,1.897,103.6,blue,282,TRUE
262,1662002787.23,6244.276330736352,728.6560750176153,1000,2.877,-1.138,-1.513,103.4,red,282,TRUE
263,1662002787.341,5315.284616443766,2218.961751653664,1000,2.233,-1.394,-0.777,136.2,green,282,TRUE
264,1662002787.631,3756.0028635302824,2668.820704524009,1000,3.043,-1.448,1.682,105.5,blue,282,TRUE
265,1662002787.725,6260.8160803640385,639.9031076814601,1000,2.697,-1.188,-1.539,91.8,red,282,TRUE
266,1662002787.825,5261.013661705634,2222.0630138753318,1000,2.237,-1.393,-0.794,122.4,green,282,TRUE
267,1662002788.115,3696.3251658137256,2329.48540899224,1000,2.462,-1.212,1.305,105.7,blue,282,TRUE
268,1662002788.209,6216.3220810125995,464.4300691458869,1000,2.532,-1.24,-1.58,148.1,red,282,TRUE
269,1662002788.358,5338.866988570243,2284.3291663238347,1000,2.251,-1.415,-0.87,119.8,green,282,TRUE
270,1662002788.646,3599.1544635101686,1913.4779335743472,1000,2.13,-1.454,3.033,166.2,blue,282,TRUE
271,1662002788.788,6068.092407532135,373.057257921746,1000,3.526,-1.328,-1.482,102.4,red,282,TRUE
272,1662002788.898,5354.717347059871,2268.3142513994385,1000,2.275,-1.419,-0.855,108.9,green,282,TRUE
273,1662002789.176,3777.304442089912,1552.2735596898465,1000,0.869,-1.474,0.094,117.7,blue,282,TRUE
274,1662002789.282,5867.764938104599,246.8914546140667,1000,3.968,-1.352,-1.433,91.6,red,282,TRUE
275,1662002789.383,5316.007475546802,2260.8364123001643,1000,2.26,-1.409,-0.821,122.5,green,282,TRUE
276,1662002789.674,3974.3442845720488,1075.5496923673065,1000,0.542,-1.478,3.076,103.3,blue,282,TRUE
277,1662002789.767,5742.640030516822,154.7792744781013,1000,4.188,-1.381,-1.204,143.7,red,282,TRUE
278,1662002789.924,5280.759187417964,2261.6906747559565,1000,2.268,-1.414,-0.868,108.6,green,282,TRUE
279,1662002790.202,4296.099656131303,675.7672385424403,1000,0.26,-1.5,3.102,102.1,blue,282,TRUE
280,1662002790.294,5599.308288006413,108.12584777246347,1000,4.217,-1.38,-1.218,88.3,red,282,TRUE
281,1662002790.393,5278.434372585619,2253.2267251417893,1000,2.273,-1.41,-0.831,123.6,green,282,TRUE
282,1662002791.725,5460.051836052365,74.57850784760473,1000,4.55,-1.444,-1.586,1144.5,red,282,TRUE
283,1662002792.839,5297.387219116857,2227.5897879511795,1000,2.145,-1.365,-1.186,119.5,green,282,TRUE
284,1662002793.127,4638.835153288537,357.3814618503897,1000,6.013,-1.384,-2.967,105.1,blue,282,TRUE
285,1662002793.221,5506.167954787769,230.89599483368707,1000,4.876,-1.312,-1.15,146.9,red,282,TRUE
286,1662002793.368,5276.389385199646,2249.4122236114385,1000,2.151,-1.362,-1.158,120.7,green,282,TRUE
287,1662002793.655,4820.862122010657,297.6671138030304,1000,5.8,-1.472,3.121,103.7,blue,282,TRUE
288,1662002793.749,5606.232567594252,380.79970924451703,1000,4.213,-1.324,-0.988,90.7,red,282,TRUE
289,1662002793.847,5251.4363264928825,2304.1040320155676,1000,2.159,-1.364,-1.129,121.4,green,282,TRUE
290,1662002794.137,4901.847246570277,366.660165597613,1000,4.905,-1.509,3.083,104.8,blue,282,TRUE
291,1662002794.233,5758.137537763302,547.8173947387587,1000,3.746,-1.295,-1.224,89.6,red,282,TRUE
292,1662002794.331,5280.2558467872,2302.5031675843693,1000,2.481,-1.465,-0.083,122.8,green,282,TRUE
293,1662002794.621,4614.420133300472,470.0935472825299,1000,5.177,-1.5,0.058,105.0,blue,282,TRUE
294,1662002794.716,5884.031118275639,686.2214749181389,1000,3.688,-1.296,-1.205,146.6,red,282,TRUE
295,1662002794.865,5246.319607974344,2311.988020308108,1000,2.482,-1.456,-0.101,117.8,green,282,TRUE
296,1662002795.151,4328.222287168634,819.6939056638427,1000,5.933,-1.517,3.113,120.8,blue,282,TRUE
297,1662002795.284,5086.144529300973,1999.459971113811,1000,0.022,-1.676,-1.032,1117.6,red,282,TRUE
298,1662002795.284,5217.255801691104,2271.833182938046,1000,0.022,-1.676,-1.032,1119.6,green,282,TRUE
299,1662002795.284,5186.814235569292,2238.7097427073763,1000,0.022,-1.676,-1.032,1121.5,green,282,TRUE
300,1662002796.575,4184.481144414139,1225.1710530575574,1000,1.182,-1.378,2.547,112.9,blue,282,TRUE
301,1662002796.675,5471.355567784662,1520.7151581494236,1000,3.555,-1.262,-1.619,150.1,red,282,TRUE
302,1662002799.0,3993.9809488847436,1572.9502009186292,1000,1.44,-1.368,2.682,126.7,blue,282,TRUE
303,1662002799.099,5627.5608326903375,1313.4759444890349,1000,3.289,-1.247,-1.403,173.9,red,282,TRUE
304,1662002799.277,5142.338741968833,2233.738445201397,1000,2.367,-1.368,-0.985,100.7,green,282,TRUE
305,1662002799.559,3911.143288235046,1803.3283771774286,1000,1.599,-1.368,2.233,136.1,blue,282,TRUE
306,1662002799.683,5786.668873633051,1236.7443990953388,1000,3.231,-1.273,-1.58,95.4,red,282,TRUE
307,1662002799.779,5087.109033443202,2210.6409047651027,1000,2.407,-1.372,-0.892,110.0,green,282,TRUE
308,1662002800.069,3940.72929943529,2049.3015255264677,1000,1.397,-1.346,2.53,136.3,blue,282,TRUE
309,1662002800.193,5946.784703173044,1180.963590583734,1000,3.244,-1.289,-1.265,124.7,red,282,TRUE
310,1662002800.318,5018.631929875901,2248.575324995403,1000,2.213,-1.379,-0.988,125.5,green,282,TRUE
311,1662002800.625,4048.1645716305743,2204.4000857234496,1000,1.401,-1.393,2.246,105.7,blue,282,TRUE
312,1662002800.719,5920.12761941915,1117.2114744751937,1000,3.408,-1.302,-1.338,146.9,red,282,TRUE
313,1662002804.498,4138.643287841555,2205.096595341885,1000,1.394,-1.308,0.773,102.9,blue,282,TRUE
314,1662002804.587,6094.483482497889,918.035354032439,1000,3.604,-1.356,-1.264,91.8,red,282,TRUE
315,1662002804.682,5031.4880035527485,2255.2654728135567,1000,2.531,-1.493,3.078,99.2,green,282,TRUE
316,1662002804.975,4108.055147805909,2105.3957046653404,1000,1.427,-1.311,0.851,106.7,blue,282,TRUE
317,1662002805.068,6128.253049713959,927.5296990686207,1000,3.577,-1.344,-1.317,93.4,red,282,TRUE
318,1662002805.167,5016.270687111471,2277.4547738905003,1000,2.539,-1.492,3.07,112.5,green,282,TRUE
319,1662002805.473,4011.288424403608,2078.397023641171,1000,1.42,-1.32,0.849,107.4,blue,282,TRUE
320,1662002805.566,6104.478479240853,994.2869650818807,1000,3.47,-1.312,-0.911,152.2,red,282,TRUE
321,1662002805.721,4985.488646142824,2322.6259798067085,1000,2.548,-1.497,3.069,116.5,green,282,TRUE
322,1662002807.047,6033.556133532594,976.692023289524,1000,3.282,-1.343,-0.977,1168.6,red,282,TRUE
323,1662002810.364,3951.067897978892,2079.7551854727635,1000,1.468,-1.304,0.767,128.8,blue,282,TRUE
324,1662002810.472,5897.431285598145,1009.0625837016174,1000,3.773,-1.354,-1.09,155.7,red,282,TRUE
325,1662002810.629,5014.472871453206,2259.0329964910293,1000,2.352,-1.45,-0.371,103.4,green,282,TRUE
326,1662002812.001,5943.194949727662,1088.4356501110374,1000,3.93,-1.392,-1.098,1131.5,red,282,TRUE
327,1662002813.117,5063.199833428293,2260.1446361356625,1000,2.381,-1.453,-0.034,135.7,green,282,TRUE
328,1662002814.474,5955.017475696887,1110.3519772594273,1000,4.016,-1.343,-1.197,1145.7,red,282,TRUE
329,1662002815.588,5106.8532686321205,2233.2218534082544,1000,2.378,-1.442,-0.36,122.6,green,282,TRUE
330,1662002815.901,3912.8989928786746,2071.581772921523,1000,1.449,-1.286,0.742,127.1,blue,282,TRUE
331,1662002816.011,5987.83704985912,1089.6228046355166,1000,4.018,-1.346,-1.091,153.3,red,282,TRUE
332,1662002818.322,3930.098163658539,2111.8514761635943,1000,1.621,-1.289,0.821,118.9,blue,282,TRUE
333,1662002818.421,6028.859356427006,1031.5822353852448,1000,3.968,-1.331,-1.202,154.5,red,282,TRUE
334,1662002822.239,3964.9274794401485,2025.149018836445,1000,1.463,-1.312,0.861,103.1,blue,282,TRUE
335,1662002822.332,6044.233444478716,992.6509976971091,1000,3.553,-1.419,-2.059,93.3,red,282,TRUE
336,1662002822.426,5116.988440907136,2245.3987824866613,1000,2.116,-1.517,-0.047,144.8,green,282,TRUE
337,1662002822.74,3937.8358241024885,2081.400944198777,1000,1.449,-1.325,0.825,104.1,blue,282,TRUE
338,1662002822.83,6038.85807696838,920.2059320539902,1000,3.641,-1.401,-1.973,102.0,red,282,TRUE
339,1662002822.946,5147.863709167895,2230.9227747421337,1000,2.322,-1.506,0.038,120.9,green,282,TRUE
340,1662002823.239,4012.2008426090365,2072.903074134818,1000,1.493,-1.308,0.829,132.2,blue,282,TRUE
341,1662002823.358,5986.465892284531,827.9804928436588,1000,3.665,-1.402,-1.584,148.7,red,282,TRUE
342,1662002823.508,5230.274650579491,2185.1767108252893,1000,2.277,-1.525,3.098,104.0,green,282,TRUE
343,1662002823.783,4041.353290369773,2088.9874048174684,1000,1.485,-1.311,0.842,101.7,blue,282,TRUE
344,1662002823.872,5955.782746119126,827.3189935913166,1000,3.858,-1.402,-1.565,105.4,red,282,TRUE
345,1662002823.989,5249.043532972796,2179.150000741627,1000,2.322,-1.48,3.083,107.2,green,282,TRUE
346,1662002824.265,4074.209997894941,2004.4780879785885,1000,1.469,-1.317,0.836,104.2,blue,282,TRUE
347,1662002824.356,5900.327194966702,809.1126437151596,1000,3.724,-1.39,-1.644,96.6,red,282,TRUE
348,1662002824.454,5245.108661625646,2149.638832825118,1000,2.326,-1.476,3.088,110.9,green,282,TRUE
349,1662002824.735,4049.5062327646524,1899.0836412123474,1000,1.463,-1.319,0.839,103.4,blue,282,TRUE
350,1662002824.825,5875.601077961993,804.1523805597218,1000,3.829,-1.405,-1.594,164.8,red,282,TRUE
351,1662002825.002,5234.983762319517,2099.526254917818,1000,2.272,-1.482,3.107,107.1,green,282,TRUE
352,1662002825.281,4021.428303624574,1924.1357456202913,1000,1.463,-1.319,0.844,114.3,blue,282,TRUE
353,1662002825.381,5855.219640849996,846.4626796357364,1000,3.812,-1.382,-1.621,97.6,red,282,TRUE
354,1662002825.48,5248.1606622780455,2075.719843853062,1000,2.258,-1.479,3.108,111.0,green,282,TRUE
355,1662002826.785,5876.192062806655,861.9640705423899,1000,3.744,-1.428,-2.063,1149.7,red,282,TRUE
356,1662002827.919,5249.236105909716,2123.6561341013803,1000,2.186,-1.436,2.907,121.9,green,282,TRUE
357,1662002828.223,4003.6235980631573,1850.6268997055874,1000,1.457,-1.316,0.852,104.2,blue,282,TRUE
358,1662002828.315,5836.187637934461,898.6849335340559,1000,3.617,-1.41,-2.226,147.6,red,282,TRUE
359,1662002828.465,5237.9616145484715,2176.128430497373,1000,2.182,-1.45,2.837,101.1,green,282,TRUE
360,1662002828.738,3995.8806166833124,1847.861049454147,1000,1.46,-1.316,0.853,101.3,blue,282,TRUE
361,1662002828.825,5781.419537249062,866.0259455933823,1000,3.634,-1.409,-2.556,104.5,red,282,TRUE
362,1662002828.943,5209.601961329029,2264.6897852119896,1000,2.211,-1.451,2.767,122.9,green,282,TRUE
363,1662002829.239,3986.951907616967,1822.0416964833983,1000,1.452,-1.312,0.833,101.7,blue,282,TRUE
364,1662002829.327,5758.9161579560305,835.8180825475797,1000,3.727,-1.403,-2.274,92.8,red,282,TRUE
365,1662002829.644,3949.098868282877,1850.425462789675,1000,1.443,-1.311,0.803,106.5,blue,282,TRUE
366,1662002829.739,5736.028446049136,760.7295128170662,1000,3.731,-1.437,-2.195,148.2,red,282,TRUE
367,1662002829.9,5175.504923122729,2311.9442453127226,1000,2.248,-1.452,3.099,124.4,green,282,TRUE
368,1662002830.19,3959.5144913751137,1839.2584450142238,1000,1.417,-1.311,0.797,105.3,blue,282,TRUE
369,1662002830.284,5754.973328927361,725.614735370641,1000,3.558,-1.292,-1.102,87.5,red,282,TRUE
370,1662002830.372,5183.141293714523,2302.509952877293,1000,2.243,-1.452,3.099,101.2,green,282,TRUE
371,1662002830.642,3882.158154448906,1892.3703855198862,1000,1.408,-1.313,0.803,104.4,blue,282,TRUE
372,1662002830.734,5792.186749012722,708.5465518168224,1000,3.944,-1.278,-0.867,88.5,red,282,TRUE
373,1662002830.834,5186.959690475577,2264.278807451476,1000,2.227,-1.468,3.102,123.4,green,282,TRUE
374,1662002831.14,3963.3638949279357,1886.0082367833586,1000,1.36,-1.302,0.771,120.5,blue,282,TRUE
375,1662002831.232,5878.234757799331,730.0393422496571,1000,4.05,-1.388,-1.095,148.2,red,282,TRUE
376,1662002831.381,5206.363974165899,2262.339193882315,1000,2.256,-1.476,3.084,106.4,green,282,TRUE
377,1662002832.697,5933.581861837534,969.1082896006341,1000,3.918,-1.328,-1.22,1126.3,red,282,TRUE
378,1662002833.81,5191.154137471684,2251.173517162085,1000,2.346,-1.434,2.307,120.9,green,282,TRUE
379,1662002834.115,3971.368107147309,1881.7267517790742,1000,1.437,-1.343,0.77,149.3,blue,282,TRUE
380,1662002834.251,5960.016183145345,1053.5814162907898,1000,3.798,-1.336,-1.275,146.9,red,282,TRUE
381,1662002834.399,5196.656275725992,2253.8894815842027,1000,2.343,-1.434,2.346,106.4,green,282,TRUE
382,1662002834.721,3957.6306146940988,1949.314905259146,1000,1.522,-1.432,0.866,116.7,blue,282,TRUE
383,1662002834.826,5971.420367750557,1188.9833750435128,1000,3.778,-1.328,-1.321,89.9,red,282,TRUE
384,1662002834.925,5249.151388937051,2187.5897357706954,1000,2.321,-1.44,2.278,122.1,green,282,TRUE
385,1662002835.217,4008.308851011863,1980.3437852425113,1000,1.653,-1.412,1.218,104.0,blue,282,TRUE
386,1662002835.31,5953.467236762682,1271.217448539125,1000,3.252,-1.184,-1.487,90.1,red,282,TRUE
387,1662002835.401,5246.138225349195,2198.2924072254605,1000,2.332,-1.442,2.206,100.8,green,282,TRUE
388,1662002835.67,4010.738937060773,2101.7967505825923,1000,1.633,-1.421,1.434,103.1,blue,282,TRUE
389,1662002835.761,5929.892060299652,1304.0039402607479,1000,2.918,-1.21,-1.269,147.1,red,282,TRUE
390,1662002835.921,5270.322737673563,2201.8453439080326,1000,2.332,-1.442,2.227,123.4,green,282,TRUE
391,1662002836.213,4081.5019129284897,2166.3921626960723,1000,1.619,-1.428,1.457,103.7,blue,282,TRUE
392,1662002836.304,5900.913975957595,1181.9525781541697,1000,3.48,-1.345,-1.51,90.3,red,282,TRUE
393,1662002836.395,5256.361513928964,2206.3213055830515,1000,2.332,-1.448,2.128,102.5,green,282,TRUE
394,1662002836.665,4066.295716136949,2242.4882340026875,1000,1.63,-1.428,1.451,104.1,blue,282,TRUE
395,1662002836.758,5903.473412360542,946.3062829851918,1000,3.147,-1.257,-1.686,90.4,red,282,TRUE
396,1662002836.857,5262.5158275381245,2218.8544340278395,1000,2.342,-1.442,2.129,122.8,green,282,TRUE
397,1662002838.188,5735.915390508698,1150.809004406368,1000,2.286,-1.273,-1.958,1128.1,red,282,TRUE
398,1662002839.3,5245.428038054896,2252.9244437237744,1000,2.459,-1.493,0.067,121.6,green,282,TRUE
399,1662002839.604,4064.9526808589253,2326.6895577187765,1000,1.628,-1.344,0.939,104.5,blue,282,TRUE
400,1662002839.697,5512.0703168291075,892.400391097215,1000,3.978,-1.342,-1.748,146.7,red,282,TRUE
401,1662002839.845,5191.269491827247,2307.275863515784,1000,2.483,-1.488,0.075,119.6,green,282,TRUE
402,1662002841.169,5231.051871212921,943.153185226011,1000,4.76,-1.33,-1.362,1146.9,red,282,TRUE
403,1662002842.304,5140.622546203816,2308.429295195164,1000,2.751,-1.427,0.903,117.8,green,282,TRUE
404,1662002843.644,4920.917722954931,1039.4182104785573,1000,4.179,-1.301,-1.357,1132.3,red,282,TRUE
405,1662002844.764,5094.136382085732,2295.07496012135,1000,2.586,-1.403,0.017,115.6,green,282,TRUE
406,1662002847.238,5097.78821809628,2312.0389095883006,1000,2.292,-1.506,-3.083,1143.2,green,282,TRUE
407,1662002848.468,4072.7934388192284,2325.2424893517787,1000,1.614,-1.356,0.875,153.3,blue,282,TRUE
408,1662002848.599,4620.962663371211,1216.3202975849963,1000,4.86,-1.356,-1.127,160.0,red,282,TRUE
409,1662002855.431,4012.989802627077,832.5894764231645,1000,5.251,-1.288,-1.605,1053.7,red,282,TRUE
410,1662002856.657,4061.083118911345,2279.799792082907,1000,1.51,-1.36,0.8,114.0,blue,282,TRUE
411,1662002856.759,4177.162801371666,921.8233628531223,1000,5.536,-1.437,-1.698,147.7,red,282,TRUE
412,1662002856.909,5078.058937382972,2234.2500310370456,1000,2.281,-1.406,-0.692,120.3,green,282,TRUE
413,1662002857.197,4041.5926511300227,2173.8778941561673,1000,1.511,-1.342,0.717,103.6,blue,282,TRUE
414,1662002857.288,4182.069476694039,1015.4177450617484,1000,5.509,-1.453,-3.028,92.9,red,282,TRUE
415,1662002857.39,5090.840324197264,2195.903220752098,1000,2.219,-1.385,-0.711,123.7,green,282,TRUE
416,1662002857.681,4053.521458406872,2131.8964537016395,1000,1.523,-1.331,0.745,104.5,blue,282,TRUE
417,1662002857.777,4188.141579803275,1116.564010166645,1000,5.474,-1.467,-3.041,89.0,red,282,TRUE
418,1662002857.875,5069.095226374345,2211.8395018832084,1000,2.105,-1.293,-0.543,122.0,green,282,TRUE
419,1662002858.163,4107.382397965012,2134.8422225280506,1000,1.515,-1.333,0.77,104.8,blue,282,TRUE
420,1662002858.257,4165.872939863379,1159.341025415626,1000,5.429,-1.463,-3.046,146.6,red,282,TRUE
421,1662002858.416,5111.121951977232,2218.756078638122,1000,2.199,-1.293,-0.422,122.3,green,282,TRUE
422,1662002858.706,4162.586907938684,2106.5052117862997,1000,1.52,-1.335,0.767,120.6,blue,282,TRUE
423,1662002858.803,4163.180720549485,1177.0934291323913,1000,5.44,-1.448,-2.153,102.8,red,282,TRUE
424,1662002858.914,5118.589055653057,2257.3529527737583,1000,2.254,-1.293,-0.29,121.7,green,282,TRUE
425,1662002859.206,4202.705340343168,2116.2217207316608,1000,1.521,-1.335,0.771,119.1,blue,282,TRUE
426,1662002859.315,4187.783378204938,1246.7451989359859,1000,5.444,-1.46,-3.047,90.1,red,282,TRUE
427,1662002859.413,5122.307646555827,2185.8874195709654,1000,2.25,-1.246,-0.31,107.7,green,282,TRUE
428,1662002860.715,4195.9769071918345,1308.085291075492,1000,5.537,-1.444,-2.056,1141.3,red,282,TRUE
429,1662002865.455,4220.512329465724,2187.4484359512517,1000,1.474,-1.335,0.778,119.2,blue,282,TRUE
430,1662002865.556,4203.7132855652135,1342.060537496588,1000,5.522,-1.416,-1.791,96.1,red,282,TRUE
431,1662002867.801,4248.6099415491235,2252.294556304,1000,1.475,-1.334,0.774,122.2,blue,282,TRUE
432,1662002867.903,4178.370328637581,1300.8882341580509,1000,5.538,-1.437,-1.99,156.1,red,282,TRUE
433,1662002871.687,4176.44405725335,2254.7490310434914,1000,1.478,-1.333,0.767,133.3,blue,282,TRUE
434,1662002871.806,4190.289471766132,1315.8476177849989,1000,5.457,-1.419,-1.859,98.7,red,282,TRUE
435,1662002871.907,5112.581528319356,2313.489303250069,1000,1.93,-1.33,-0.563,124.0,green,282,TRUE
436,1662002873.236,4187.873104450203,1333.4472025205453,1000,5.501,-1.416,-1.994,1131.2,red,282,TRUE
437,1662002874.351,5071.122892677845,2331.401153967356,1000,2.018,-1.297,-0.252,120.3,green,282,TRUE
438,1662002875.648,4179.966151372066,1357.1407945813955,1000,5.504,-1.404,-1.583,151.1,red,282,TRUE
439,1662002875.809,5083.188525352627,2334.051578242827,1000,1.987,-1.277,-0.257,143.4,green,282,TRUE
440,1662002877.173,4085.0923311078254,1373.5536486516185,1000,5.481,-1.407,-1.693,1132.4,red,282,TRUE
441,1662002878.291,5053.387462385853,2348.8545879957214,1000,2.003,-1.269,-0.242,118.6,green,282,TRUE
442,1662002879.633,4071.3446105107846,1368.176770012322,1000,5.5,-1.408,-1.706,1162.0,red,282,TRUE
443,1662002884.382,4130.776076801624,2292.8656020629087,1000,1.488,-1.333,0.794,118.0,blue,282,TRUE
444,1662002884.485,4067.721017997986,1368.829620973045,1000,5.024,-1.362,-1.187,103.3,red,282,TRUE
445,1662002884.59,5148.608232264715,2343.4923729668476,1000,1.662,-1.321,-0.575,106.2,green,282,TRUE
446,1662002889.297,4075.1363216091195,1347.8808908992926,1000,5.186,-1.378,-1.24,168.9,red,282,TRUE
447,1662002889.472,5163.286695828731,2458.34621511298,1000,1.947,-1.456,-0.079,113.3,green,282,TRUE
448,1662002890.786,4091.9863881771257,1345.842964923874,1000,5.214,-1.385,-1.168,1149.2,red,282,TRUE
449,1662002895.109,4093.6236609674947,1266.0759614803515,1000,5.236,-1.378,-1.319,1140.3,red,282,TRUE
450,1662002896.227,5341.231743202828,2458.478042326195,1000,1.384,-1.29,-1.45,126.1,green,282,TRUE
451,1662002900.975,4164.958304154381,1213.2039036477797,1000,5.125,-1.364,-1.262,170.6,red,282,TRUE
452,1662002901.152,5399.092432847728,2493.6658185339347,1000,1.97,-1.38,-0.444,99.9,green,282,TRUE
453,1662002904.796,4099.601598456641,2346.6168083801567,1000,1.456,-1.436,1.772,127.8,blue,282,TRUE
454,1662002904.901,4164.337545822624,1193.0761927778321,1000,5.199,-1.389,-1.344,157.2,red,282,TRUE
455,1662002905.062,5228.154878832788,2354.74545020818,1000,2.234,-1.35,-0.065,101.3,green,282,TRUE
456,1662002905.332,4079.4939267320965,2371.6687342834457,1000,1.461,-1.44,1.67,101.8,blue,282,TRUE
457,1662002905.421,4190.908893082401,1236.4023329385836,1000,5.193,-1.389,-1.298,102.8,red,282,TRUE
458,1662002905.536,5221.897902495533,2389.8523646196822,1000,2.23,-1.338,-0.065,105.7,green,282,TRUE
459,1662002905.813,4056.2737914940667,2394.4233244833845,1000,1.493,-1.443,1.571,102.1,blue,282,TRUE
460,1662002905.903,4189.894917292737,1246.3977661542647,1000,5.167,-1.39,-1.278,92.2,red,282,TRUE
461,1662002905.998,5278.0308064713245,2425.640957046481,1000,2.225,-1.332,-0.064,129.8,green,282,TRUE
462,1662002907.338,4143.123481956019,1257.8287902484165,1000,4.902,-1.34,-1.393,1146.1,red,282,TRUE
463,1662002908.468,5293.120248235168,2466.547458595568,1000,2.174,-1.32,-0.089,120.4,green,282,TRUE
464,1662002908.756,4038.4023992636685,2377.018256671489,1000,1.473,-1.444,1.577,120.4,blue,282,TRUE
465,1662002908.864,4155.161672153282,1315.7785647367289,1000,5.349,-1.382,-1.42,147.7,red,282,TRUE
466,1662002909.013,5350.508078064105,2479.4487234924395,1000,2.111,-1.321,-0.157,104.1,green,282,TRUE
467,1662002910.32,4116.846606496795,1382.8985928803904,1000,5.252,-1.373,-1.409,1128.8,red,282,TRUE
468,1662002911.433,5372.2263487274295,2471.1753879504704,1000,2.185,-1.331,-0.085,121.2,green,282,TRUE
469,1662002912.776,4107.530639797925,1341.4656803919574,1000,5.196,-1.398,-1.35,1146.1,red,282,TRUE
470,1662002913.891,5378.195186126297,2439.7745046953323,1000,2.382,-1.328,-0.059,120.3,green,282,TRUE
471,1662002916.348,5629.882689245755,1929.0465185184923,1000,2.101,-1.302,-0.118,1150.2,green,282,TRUE
472,1662002917.58,4258.646208622381,2590.6159358706045,1000,1.169,-1.562,-3.141,117.8,blue,282,TRUE
473,1662002917.759,4098.163587995764,928.085142276115,1000,5.335,-1.396,-1.477,1052.9,red,282,TRUE
474,1662002918.986,4430.188001197862,2706.1517800007387,1000,3.8,-1.36,1.581,112.6,blue,282,TRUE
475,1662002919.086,4126.8301634956315,1116.1473157841683,1000,5.373,-1.402,-1.454,148.5,red,282,TRUE
476,1662002919.237,5632.824353098457,1887.8725016055862,1000,2.123,-1.284,-0.067,102.6,green,282,TRUE
477,1662002919.519,4582.491312655978,2865.5538369872306,1000,4.251,-1.275,1.589,106.1,blue,282,TRUE
478,1662002919.616,4153.370383285978,1164.7402417928063,1000,5.364,-1.401,-1.481,87.0,red,282,TRUE
479,1662002919.705,5656.670158500417,1829.6799159556795,1000,2.117,-1.284,-0.064,101.3,green,282,TRUE
480,1662002920.0,4714.227238251674,3039.883505088937,1000,4.259,-1.344,1.604,107.1,blue,282,TRUE
481,1662002920.093,4159.712031482168,1189.199863753619,1000,5.353,-1.398,-1.49,94.1,red,282,TRUE
482,1662002922.339,4735.070932789349,3334.534456205325,1000,4.962,-1.437,2.853,121.6,blue,282,TRUE
483,1662002922.441,4169.493430411162,1227.6592051034581,1000,5.097,-1.366,-1.388,155.5,red,282,TRUE
484,1662002922.597,5615.995166648311,1748.8493172569315,1000,2.379,-1.289,-0.147,103.2,green,282,TRUE
485,1662002922.869,4588.740245074837,3720.150208645333,1000,5.148,-1.346,1.293,101.5,blue,282,TRUE
486,1662002922.958,4168.061035873747,1239.7312151296476,1000,5.605,-1.425,-1.559,95.9,red,282,TRUE
487,1662002923.081,5335.4553186126395,2502.660345733333,1000,2.319,-1.307,-0.386,1096.9,green,282,TRUE
488,1662002924.255,4003.2551719172043,3881.2548866621896,1000,5.88,-1.517,0.045,122.9,blue,282,TRUE
489,1662002924.446,5189.883064163216,2481.3822945180964,1000,2.406,-1.306,-0.262,122.1,green,282,TRUE
490,1662002924.736,3388.4171294111015,4115.168010918945,1000,0.032,-1.36,1.418,102.0,blue,282,TRUE
491,1662002924.826,4253.747936109352,1431.7127469309703,1000,5.343,-1.397,-1.449,92.5,red,282,TRUE
492,1662002924.928,5115.8408594291395,2474.004182257099,1000,2.414,-1.311,-0.286,122.5,green,282,TRUE
493,1662002925.216,2821.3517507406564,4299.942677706844,1000,0.4,-1.37,1.697,103.5,blue,282,TRUE
494,1662002925.31,4229.636895003294,1344.3465504842984,1000,5.355,-1.398,-1.49,88.8,red,282,TRUE
495,1662002925.408,5147.641646105892,2488.7869560881572,1000,2.404,-1.308,-0.28,137.2,green,282,TRUE
496,1662002925.711,2321.572320575878,4416.198657271035,1000,1.103,-1.493,0.072,104.2,blue,282,TRUE
497,1662002925.801,4186.63030906736,1317.0231855144714,1000,5.31,-1.394,-1.443,152.5,red,282,TRUE
498,1662002925.955,5137.404963399518,2513.615355769235,1000,2.4,-1.301,-0.252,118.3,green,282,TRUE
499,1662002926.24,2055.0941149597256,4438.278046836781,1000,1.47,-1.5,3.096,103.5,blue,282,TRUE
500,1662002926.334,4172.154728558965,1309.2686016433677,1000,5.274,-1.39,-1.42,89.4,red,282,TRUE
501,1662002926.432,5102.53638013186,2505.6147646922973,1000,2.401,-1.294,-0.229,123.7,green,282,TRUE
502,1662002926.722,2076.17980854566,4351.3754043976905,1000,1.522,-1.418,1.274,104.4,blue,282,TRUE
503,1662002926.814,4185.755339274327,1294.1632205169049,1000,5.257,-1.385,-1.414,93.4,red,282,TRUE
504,1662002926.916,5057.533979955631,2533.142039011575,1000,2.417,-1.297,-0.213,122.9,green,282,TRUE
505,1662002927.207,2500.0565034992924,4218.545343263989,1000,1.728,-1.536,0.02,103.9,blue,282,TRUE
506,1662002927.298,4187.991125472569,1276.7129193321914,1000,5.293,-1.392,-1.444,148.0,red,282,TRUE
507,1662002927.447,5045.920113219839,2495.986609616441,1000,2.561,-1.336,-0.38,120.6,green,282,TRUE
508,1662002927.734,3064.1350796329466,4018.454639046719,1000,1.752,-1.413,0.713,103.3,blue,282,TRUE
509,1662002927.826,4189.097167580089,1285.9460692460527,1000,5.327,-1.395,-1.468,89.4,red,282,TRUE
510,1662002927.927,5071.387726972382,2443.957309308605,1000,2.693,-1.318,-0.341,123.5,green,282,TRUE
511,1662002928.217,3609.0020397143035,3784.7981772693347,1000,2.413,-1.536,-0.027,103.6,blue,282,TRUE
512,1662002928.312,4194.678735699871,1307.5733903684732,1000,5.34,-1.396,-1.463,87.5,red,282,TRUE
513,1662002928.409,4975.666799440817,2335.6300438194176,1000,2.487,-1.384,-0.223,153.1,green,282,TRUE
514,1662002928.728,4173.582325417777,3527.3486924849512,1000,2.647,-1.461,0.089,108.4,blue,282,TRUE
515,1662002928.824,4209.998669063093,1303.2573388184871,1000,5.339,-1.396,-1.46,144.4,red,282,TRUE
516,1662002928.982,4957.304639604558,2291.3375157996056,1000,2.086,-1.384,-0.503,122.5,green,282,TRUE
517,1662002929.273,4626.5641110680435,3171.7318374633633,1000,2.861,-1.478,0.091,120.1,blue,282,TRUE
518,1662002929.369,4214.44149110725,1292.498919525622,1000,5.38,-1.398,-1.427,102.7,red,282,TRUE
519,1662002929.481,4959.776180441003,2233.464763296762,1000,2.03,-1.359,-0.785,122.9,green,282,TRUE
520,1662002929.77,5021.411614337684,2800.2733114729763,1000,2.413,-1.487,3.073,120.5,blue,282,TRUE
521,1662002929.879,4193.320726138986,1300.22035150862,1000,5.247,-1.354,-1.386,92.2,red,282,TRUE
522,1662002929.98,4897.735543967116,2193.9238425462195,1000,1.992,-1.324,-1.011,121.9,green,282,TRUE
523,1662002931.307,4209.73552941905,1551.970291949189,1000,5.181,-1.357,-1.412,1146.3,red,282,TRUE
524,1662002932.421,4838.9826995939775,2211.5988204791242,1000,2.006,-1.31,-1.185,136.2,green,282,TRUE
525,1662002932.739,5253.801766330648,2554.053302376245,1000,2.711,-1.295,2.186,103.8,blue,282,TRUE
526,1662002932.832,4212.00309535556,1493.4203696646493,1000,5.262,-1.378,-1.36,145.9,red,282,TRUE
527,1662002932.992,4799.192355057696,2250.830117942444,1000,2.007,-1.308,-1.178,122.8,green,282,TRUE
528,1662002933.284,5344.042864420803,2368.4081777911415,1000,2.551,-1.297,2.184,102.3,blue,282,TRUE
529,1662002933.379,4203.583804189991,1433.1095309830616,1000,5.225,-1.368,-1.35,102.3,red,282,TRUE
530,1662002933.491,4799.077067561619,2337.4067732356834,1000,2.019,-1.31,-1.173,122.4,green,282,TRUE
531,1662002933.779,5421.519513805642,2208.0845915581267,1000,2.457,-1.298,2.177,105.0,blue,282,TRUE
532,1662002933.873,4223.500333099729,1426.1218231480827,1000,5.234,-1.368,-1.365,89.3,red,282,TRUE
533,1662002933.973,4762.557644291893,2359.756487375701,1000,2.289,-1.377,-0.988,123.5,green,282,TRUE
534,1662002934.262,5458.894606930354,2128.7400561604168,1000,2.379,-1.306,2.185,149.0,blue,282,TRUE
535,1662002934.401,4236.8437734533345,1403.7293596818988,1000,5.222,-1.368,-1.369,145.4,red,282,TRUE
536,1662002934.56,4714.918206291602,2417.493136874437,1000,2.23,-1.344,-0.85,108.1,green,282,TRUE
537,1662002934.835,5481.205734975058,2142.5787901412473,1000,2.304,-1.312,2.171,103.4,blue,282,TRUE
538,1662002934.924,4252.871308874756,1382.1196839279864,1000,5.166,-1.366,-1.329,103.6,red,282,TRUE
539,1662002935.04,4693.609721752323,2421.8862998887657,1000,2.143,-1.305,-0.901,107.8,green,282,TRUE
540,1662002935.321,5491.209620898426,2219.1274468064244,1000,2.256,-1.31,2.183,99.3,blue,282,TRUE
541,1662002935.407,4231.8353388778305,1130.15573798476,1000,5.168,-1.365,-1.383,103.2,red,282,TRUE
542,1662002935.524,4704.431892942626,2411.464045011626,1000,2.139,-1.293,-0.939,121.1,green,282,TRUE
543,1662002935.86,5544.496049456624,2222.6321708494725,1000,2.215,-1.309,2.182,1143.1,blue,282,TRUE
544,1662002937.004,4637.751477835281,2401.129983515908,1000,2.129,-1.293,-1.033,119.3,green,282,TRUE
545,1662002937.291,5497.120285737985,2204.808113917771,1000,2.124,-1.31,2.171,104.3,blue,282,TRUE
546,1662002937.385,4223.8375565259075,1132.5115713169278,1000,5.296,-1.347,-1.474,88.5,red,282,TRUE
547,1662002937.484,4621.695693100768,2415.957156632806,1000,2.122,-1.295,-1.032,122.6,green,282,TRUE
548,1662002937.773,5473.232291467534,2195.1522223336365,1000,2.094,-1.329,2.153,106.9,blue,282,TRUE
549,1662002937.866,4196.972185935693,1164.5426623330807,1000,5.26,-1.346,-1.426,87.8,red,282,TRUE
550,1662002937.965,4591.119382778099,2416.5235721635668,1000,2.135,-1.3,-1.04,123.7,green,282,TRUE
551,1662002938.256,5440.385591650982,2129.298675426099,1000,2.029,-1.331,2.199,102.6,blue,282,TRUE
552,1662002938.35,4193.369091136041,1163.1810992756598,1000,5.337,-1.354,-1.346,159.3,red,282,TRUE
553,1662002938.522,4572.97500862126,2404.159119237507,1000,2.17,-1.326,-0.987,120.9,green,282,TRUE
554,1662002938.811,5414.238435206634,2071.3330131238663,1000,2.01,-1.331,2.215,102.2,blue,282,TRUE
555,1662002938.903,4188.036760458287,1175.964958086767,1000,5.449,-1.341,-1.378,89.1,red,282,TRUE
556,1662002939.001,4587.432659920023,2391.4934898603046,1000,2.019,-1.311,-1.026,123.1,green,282,TRUE
557,1662002939.292,5412.0651235202395,2080.9199624735415,1000,2.005,-1.33,2.221,104.5,blue,282,TRUE
558,1662002939.387,4161.168963024562,1179.5635078792427,1000,5.357,-1.305,-1.203,87.6,red,282,TRUE
559,1662002939.486,4581.200192196164,2403.8550984066655,1000,2.015,-1.311,-1.118,124.8,green,282,TRUE
560,1662002939.775,5395.05163009744,2074.45046516727,1000,1.995,-1.329,2.222,103.9,blue,282,TRUE
561,1662002939.868,4139.830843830041,1196.1095202693493,1000,5.306,-1.309,-1.34,148.7,red,282,TRUE
562,1662002940.029,4592.999702156398,2407.9640862702067,1000,2.009,-1.308,-1.181,122.3,green,282,TRUE
563,1662002941.238,5388.2624803614735,2076.743713762342,1000,1.997,-1.328,2.22,103.6,blue,282,TRUE
564,1662002941.33,4141.052976542182,1230.5801436215204,1000,5.664,-1.386,-2.155,146.8,red,282,TRUE
565,1662002941.479,4608.481146227452,2374.1223218546543,1000,2.013,-1.308,-1.196,120.9,green,282,TRUE
566,1662002941.767,5375.95365386677,2089.3698763033153,1000,2.009,-1.323,2.23,104.4,blue,282,TRUE
567,1662002941.861,4171.681443509308,1238.285935135315,1000,5.676,-1.391,-2.15,90.5,red,282,TRUE
568,1662002941.96,4590.767566900149,2351.1789358655865,1000,2.014,-1.308,-1.196,122.7,green,282,TRUE
569,1662002942.249,5376.812147859869,2146.859950916941,1000,2.016,-1.322,2.232,102.7,blue,282,TRUE
570,1662002942.341,4164.215425661038,1251.72955136136,1000,5.673,-1.401,-2.117,93.0,red,282,TRUE
571,1662002942.442,4611.88607020946,2349.88760816718,1000,2.014,-1.308,-1.202,124.0,green,282,TRUE
572,1662002942.732,5363.761048867606,2225.2800896721205,1000,2.008,-1.323,2.234,105.2,blue,282,TRUE
573,1662002942.827,4186.745277856793,1276.5684091505252,1000,5.668,-1.403,-2.09,145.1,red,282,TRUE
574,1662002942.985,4611.983720269408,2349.5676401425953,1000,2.016,-1.308,-1.202,138.7,green,282,TRUE
575,1662002945.265,4272.947679662636,1257.2546447472807,1000,5.664,-1.391,-2.15,149.4,red,282,TRUE
576,1662002945.423,4624.898434352951,2360.222260343486,1000,2.01,-1.304,-1.214,111.9,green,282,TRUE
577,1662002945.719,5327.481460713367,2257.0992079969196,1000,2.007,-1.323,2.229,102.3,blue,282,TRUE
578,1662002945.809,4297.278957640184,1256.8242180324835,1000,5.668,-1.404,-2.138,94.5,red,282,TRUE
579,1662002945.904,4647.510500974945,2376.0009369853647,1000,2.013,-1.304,-1.217,142.8,green,282,TRUE
580,1662002946.228,5225.112937575097,2282.911868723809,1000,2.008,-1.324,2.226,104.8,blue,282,TRUE
581,1662002946.322,4288.005420468719,1246.583405446765,1000,5.652,-1.398,-2.119,89.7,red,282,TRUE
582,1662002946.413,4651.9135035754,2392.285682998249,1000,2.035,-1.316,-1.235,115.4,green,282,TRUE
583,1662002946.711,5200.511352265578,2289.717948565044,1000,2.006,-1.324,2.226,105.5,blue,282,TRUE
584,1662002946.803,4293.379142580344,1273.3930092839128,1000,5.663,-1.397,-2.138,149.9,red,282,TRUE
585,1662002946.954,4669.911254891373,2374.2923617170613,1000,2.083,-1.34,-1.131,118.1,green,282,TRUE
586,1662002947.24,5176.842394665876,2296.1129140323605,1000,2.004,-1.324,2.226,103.5,blue,282,TRUE
587,1662002947.334,4283.102854886274,1297.1884295556533,1000,5.666,-1.397,-2.153,88.0,red,282,TRUE
588,1662002947.432,4740.023732385854,2361.873467399259,1000,2.063,-1.371,-1.001,153.1,green,282,TRUE
589,1662002947.754,5171.960401584421,2303.302405595006,1000,2.004,-1.324,2.227,105.0,blue,282,TRUE
590,1662002947.849,4245.368646240149,1298.5320957601689,1000,5.671,-1.396,-2.17,90.1,red,282,TRUE
591,1662002947.946,4788.979047814736,2306.757858819437,1000,2.035,-1.366,-0.861,121.5,green,282,TRUE
592,1662002948.238,5228.210564560808,2304.2046968091845,1000,2.017,-1.325,2.213,104.4,blue,282,TRUE
593,1662002948.33,4194.006962049899,1346.5988588202683,1000,5.664,-1.386,-2.202,147.8,red,282,TRUE
594,1662002948.479,4805.007534632044,2284.2805403065854,1000,3.065,-1.538,3.109,121.8,green,282,TRUE
595,1662002948.768,5283.54091611289,2257.4802634723696,1000,2.097,-1.322,2.123,103.1,blue,282,TRUE
596,1662002948.861,4226.632528582089,1386.1433005178399,1000,5.681,-1.381,-2.32,90.4,red,282,TRUE
597,1662002948.959,4794.335384683011,2337.7198736459472,1000,3.759,-1.414,0.866,123.9,green,282,TRUE
598,1662002949.252,5384.391417997506,2163.2040996473147,1000,2.134,-1.328,2.076,104.5,blue,282,TRUE
599,1662002949.347,4266.301364474711,1366.8367764354819,1000,5.66,-1.376,-2.296,87.2,red,282,TRUE
600,1662002949.444,4806.811875146842,2451.5298226015198,1000,4.21,-1.479,0.053,122.3,green,282,TRUE
601,1662002949.735,5435.384043871946,2159.802630774813,1000,2.131,-1.325,2.113,102.2,blue,282,TRUE
