,timestamp,x,y,z,yaw,roll,pitch,latency,student,session,success
0,1662008978.007,919.9150708341936,-749.7657983133868,1000,5.195,-1.394,-1.947,183.5,red,283,TRUE
1,1662008980.462,876.6695169962533,-650.2790173342495,1000,5.27,-1.389,-1.594,126.2,red,283,TRUE
2,1662008983.895,955.3015594537719,-150.95685739511768,1000,3.371,-1.086,-1.999,1156.8,red,283,TRUE
3,1662008987.21,1809.2501327168254,1612.6179687353326,1000,5.09,-1.392,2.798,1148.6,blue,283,TRUE
4,1662008996.413,1903.2590416953926,1790.4749001085047,1000,5.604,-1.465,3.063,111.2,blue,283,TRUE
5,1662008996.511,1521.5805373654568,533.1949213127417,1000,3.68,-1.26,-0.912,134.6,red,283,TRUE
6,1662008997.881,2044.5821157551338,2130.327280081629,1000,5.592,-1.463,3.063,125.0,blue,283,TRUE
7,1662008997.983,1968.5564214800052,1365.9532344555082,1000,3.496,-1.247,-0.941,128.1,red,283,TRUE
8,1662009003.666,2129.0548578271864,2399.5672655971375,1000,5.718,-1.473,3.078,129.0,blue,283,TRUE
9,1662009003.776,2271.06735021959,2151.625296580643,1000,3.499,-1.238,-0.912,125.5,red,283,TRUE
10,1662009005.101,2317.2510613004492,2632.7134808414175,1000,5.708,-1.472,3.078,110.4,blue,283,TRUE
11,1662009005.201,2528.415775733352,2756.7508146874006,1000,3.517,-1.244,-0.886,115.5,red,283,TRUE
12,1662009010.855,2525.1563827385166,3070.290072402218,1000,5.743,-1.465,3.073,127.5,blue,283,TRUE
13,1662009010.966,2588.1881585284964,3021.5716536607993,1000,3.707,-1.24,-0.854,120.6,red,283,TRUE
14,1662009012.285,2493.355655638487,3181.3732193506908,1000,5.763,-1.46,3.072,113.1,blue,283,TRUE
15,1662009012.386,2574.8294503904785,3061.105072057724,1000,3.72,-1.236,-0.829,117.1,red,283,TRUE
16,1662009012.478,3475.5441571380793,-1617.5071063919268,1000,5.523,-1.188,0.431,92.1,yellow,283,TRUE
17,1662009013.71,2558.8693712654363,3252.540671423423,1000,5.766,-1.429,2.572,1147.5,blue,283,TRUE
18,1662009016.093,2583.858894210408,3274.0503322974764,1000,5.646,-1.449,2.478,108.8,blue,283,TRUE
19,1662009016.19,2584.2500898164767,3083.8345600367616,1000,3.682,-1.229,-0.852,119.4,red,283,TRUE
20,1662009017.5,2607.550038424433,3249.845048855128,1000,5.644,-1.453,3.065,111.2,blue,283,TRUE
21,1662009017.599,2584.43526891031,3099.429617778955,1000,3.677,-1.232,-0.853,132.4,red,283,TRUE
22,1662009027.94,2541.365175354997,3087.4213444255897,1000,3.835,-1.24,-0.836,1175.2,red,283,TRUE
23,1662009031.406,3537.4453074880494,-1927.6439102894171,1000,5.522,-1.196,0.418,1167.3,yellow,283,TRUE
24,1662009032.776,2631.018661406637,3238.732374336281,1000,5.315,-1.455,3.076,128.5,blue,283,TRUE
25,1662009032.909,2266.183143647188,2980.276957532432,1000,3.792,-1.236,-0.818,1146.2,red,283,TRUE
26,1662009034.039,2788.3165082080163,-2289.5527588470327,1000,6.19,-1.297,1.448,107.5,green,283,TRUE
27,1662009035.262,2612.0354368826747,3274.8961470257013,1000,5.157,-1.456,3.076,1131.0,blue,283,TRUE
28,1662009036.376,3558.6534842333363,-2253.7674276608723,1000,5.531,-1.185,0.425,135.5,yellow,283,TRUE
29,1662009036.48,2820.6084215939445,-2497.402825579907,1000,6.174,-1.307,1.361,137.3,green,283,TRUE
30,1662009036.784,2632.42236604085,3232.8344708183577,1000,5.157,-1.454,3.075,105.3,blue,283,TRUE
31,1662009036.875,2445.526665820732,3038.7027935985575,1000,3.784,-1.239,-0.818,104.9,red,283,TRUE
32,1662009036.969,3531.9945455962866,-2510.9838171820406,1000,5.534,-1.182,0.422,117.1,yellow,283,TRUE
33,1662009039.234,2657.4792194121824,3288.033256325847,1000,5.059,-1.452,3.094,1130.4,blue,283,TRUE
34,1662009040.356,3503.158773240924,-2730.5681193804,1000,5.539,-1.187,0.429,116.0,yellow,283,TRUE
35,1662009040.451,2811.047459082594,-2702.164748312329,1000,6.154,-1.318,1.425,126.0,green,283,TRUE
36,1662009045.077,2600.0186367762976,3272.889235681792,1000,5.012,-1.456,3.079,1146.1,blue,283,TRUE
37,1662009046.203,3564.3716504269337,-2726.0219365874013,1000,5.535,-1.185,0.406,127.4,yellow,283,TRUE
38,1662009048.464,2119.4514074956955,2785.447368179814,1000,5.013,-1.457,3.081,1144.2,blue,283,TRUE
39,1662009059.79,2168.054342500119,3583.128611405913,1000,3.788,-1.348,-1.96,1186.8,red,283,TRUE
40,1662009063.136,1916.0878858092483,3222.0306468378053,1000,4.302,-1.425,2.164,124.7,blue,283,TRUE
41,1662009063.24,2134.3902066163773,3833.2252836316766,1000,3.611,-1.198,-1.825,125.6,red,283,TRUE
42,1662009065.632,2116.470284963313,4004.6071824935816,1000,3.606,-1.215,-1.82,114.2,red,283,TRUE
43,1662009068.008,2069.973616402998,4113.385510345585,1000,3.634,-1.22,-1.829,127.1,red,283,TRUE
44,1662009068.116,3688.6533971186423,-2746.8860520922826,1000,5.531,-1.182,0.382,154.2,yellow,283,TRUE
45,1662009070.414,1807.0552059223162,3645.910472172964,1000,4.513,-1.401,2.26,1152.6,blue,283,TRUE
46,1662009073.803,2006.333360817994,4396.879561971186,1000,3.608,-1.214,-1.861,116.4,red,283,TRUE
47,1662009076.149,1877.7925225579027,4656.918761836107,1000,3.643,-1.234,-1.854,127.5,red,283,TRUE
48,1662009083.019,1904.913171769298,4633.694531194181,1000,3.611,-1.217,-1.88,1188.7,red,283,TRUE
49,1662009084.405,1555.7053431069326,4073.711205581478,1000,4.171,-1.401,1.865,103.7,blue,283,TRUE
50,1662009084.499,1907.1801225899164,4618.262281454253,1000,3.616,-1.226,-1.887,117.6,red,283,TRUE
51,1662009085.845,734.53249255428,5511.786388305164,1000,4.628,-1.389,1.832,1113.2,blue,283,TRUE
52,1662009090.302,1887.5542987597728,4498.270769547614,1000,3.594,-1.237,-1.782,1138.3,red,283,TRUE
53,1662009093.593,1403.065234784311,5526.588292377595,1000,4.288,-1.382,2.245,126.1,blue,283,TRUE
54,1662009093.701,1916.3616091991141,4498.16288075761,1000,3.51,-1.194,-1.861,124.3,red,283,TRUE
55,1662009101.818,1672.2890912885669,5561.776733567019,1000,4.203,-1.416,2.182,101.3,blue,283,TRUE
56,1662009101.907,1928.9914639605176,4485.878271774865,1000,3.52,-1.192,-1.888,118.1,red,283,TRUE
57,1662009103.289,1663.0619344921886,5473.5126958044475,1000,4.265,-1.433,1.947,98.1,blue,283,TRUE
58,1662009103.374,1926.4974500516307,4471.80738446015,1000,3.53,-1.203,-1.886,117.7,red,283,TRUE
59,1662009104.718,1398.0251750351965,5653.908854999673,1000,4.421,-1.398,2.225,1113.6,blue,283,TRUE
60,1662009107.081,1551.58645414011,5668.513993447498,1000,4.411,-1.389,2.38,95.1,blue,283,TRUE
61,1662009107.162,1978.374839481268,4488.521467487582,1000,3.505,-1.185,-1.888,132.8,red,283,TRUE
62,1662009108.503,1529.275215904777,5644.726270447768,1000,4.391,-1.396,2.332,105.0,blue,283,TRUE
63,1662009108.596,1939.94579332969,4494.344311546439,1000,3.613,-1.298,-1.418,116.5,red,283,TRUE
64,1662009120.265,1344.6822420051637,5719.416796947524,1000,4.581,-1.39,2.275,112.4,blue,283,TRUE
65,1662009120.362,1932.7298694844246,4621.325084882504,1000,3.558,-1.232,-1.868,122.2,red,283,TRUE
66,1662009126.028,1391.9257699621555,5795.1791028741445,1000,4.65,-1.385,2.229,126.9,blue,283,TRUE
67,1662009126.163,1813.26902662755,4922.016533882896,1000,4.081,-1.418,-1.835,1141.3,red,283,TRUE
68,1662009127.486,1447.015279950032,5839.329933713622,1000,4.652,-1.394,2.165,105.0,blue,283,TRUE
69,1662009127.579,1606.5188896451684,4818.706159895363,1000,4.062,-1.407,-1.975,115.3,red,283,TRUE
70,1662009132.206,1662.5735801105382,5914.122764757873,1000,5.18,-1.319,2.332,108.4,blue,283,TRUE
71,1662009132.303,1800.468427353002,5004.317709179141,1000,5.507,-1.478,-0.07,117.5,red,283,TRUE
72,1662009133.652,1937.1443485645054,5929.449183410851,1000,0.327,-1.345,2.592,112.1,blue,283,TRUE
73,1662009133.752,2025.4371589440116,5140.001515664189,1000,6.169,-1.299,-0.663,116.5,red,283,TRUE
74,1662009139.425,2366.07928377815,6110.971404247933,1000,0.801,-1.394,2.471,127.2,blue,283,TRUE
75,1662009139.535,2333.317414676151,5324.457572616627,1000,5.789,-1.386,-0.758,120.2,red,283,TRUE
76,1662009145.218,2499.827445444043,6166.781469027851,1000,1.088,-1.418,1.844,1176.9,blue,283,TRUE
77,1662009150.029,2628.3059517175443,6202.020534469629,1000,1.138,-1.422,1.706,1171.7,blue,283,TRUE
78,1662009151.444,2765.7382158632877,6201.763040853247,1000,1.151,-1.418,1.8,104.1,blue,283,TRUE
79,1662009151.537,2532.445708312148,5485.274978117479,1000,5.769,-1.282,-0.978,90.8,red,283,TRUE
80,1662009151.85,3017.8408159505866,6264.2424293019285,1000,1.172,-1.415,1.861,104.5,blue,283,TRUE
81,1662009151.94,2807.9311716303378,5697.458315679418,1000,5.769,-1.282,-0.977,97.7,red,283,TRUE
82,1662009152.269,3226.599827320955,6308.056798308308,1000,1.17,-1.41,1.943,107.6,blue,283,TRUE
83,1662009152.362,3149.743691090669,5886.006930413788,1000,5.766,-1.283,-0.98,150.9,red,283,TRUE
84,1662009155.237,3270.54335240239,6261.553474824207,1000,1.178,-1.414,1.858,103.0,blue,283,TRUE
85,1662009155.326,3363.640829270158,6025.100579670499,1000,5.742,-1.288,-1.007,92.3,red,283,TRUE
86,1662009155.445,2787.086845371772,-2664.3934594682923,1000,5.978,-1.248,0.434,106.4,green,283,TRUE
87,1662009158.199,3372.436396547178,6242.087880675211,1000,1.175,-1.407,1.907,113.0,blue,283,TRUE
88,1662009158.298,3499.6496037896377,6124.78809931983,1000,5.689,-1.266,-1.012,91.5,red,283,TRUE
89,1662009160.543,3452.804178112941,6244.433063199164,1000,1.186,-1.38,2.057,119.8,blue,283,TRUE
90,1662009160.642,3485.001534275785,6139.738331074602,1000,5.715,-1.282,-1.101,158.0,red,283,TRUE
91,1662009162.956,3467.9586512346855,6248.239442791434,1000,1.18,-1.383,2.008,122.9,blue,283,TRUE
92,1662009163.062,3480.563256923713,6138.676860018745,1000,5.726,-1.26,-1.055,150.4,red,283,TRUE
93,1662009166.897,3537.5055124076266,6261.754091348989,1000,1.176,-1.385,2.001,104.5,blue,283,TRUE
94,1662009166.987,3488.167715292406,6174.467503774594,1000,5.72,-1.258,-1.068,98.6,red,283,TRUE
95,1662009169.252,3533.272005218141,6292.578878102956,1000,1.224,-1.382,1.984,1178.5,blue,283,TRUE
96,1662009172.627,3537.2826010178783,6330.122666081326,1000,1.233,-1.384,1.972,1180.4,blue,283,TRUE
97,1662009175.967,3555.1492096200527,6349.098409784783,1000,1.235,-1.381,1.999,117.9,blue,283,TRUE
98,1662009176.065,3502.0124912163515,6241.506489850956,1000,5.677,-1.264,-1.078,154.4,red,283,TRUE
99,1662009178.381,3504.832350792294,6341.861443775569,1000,1.233,-1.385,1.968,121.3,blue,283,TRUE
100,1662009178.483,3500.645354791917,6246.066403947906,1000,5.663,-1.268,-1.074,159.1,red,283,TRUE
101,1662009182.34,3528.4751157626524,6342.712058862545,1000,1.208,-1.383,2.016,100.7,blue,283,TRUE
102,1662009182.427,3501.873779045045,6247.959298450946,1000,5.642,-1.269,-1.073,92.9,red,283,TRUE
103,1662009182.786,3498.0781545527866,6324.070428851793,1000,1.213,-1.377,2.006,106.1,blue,283,TRUE
104,1662009182.879,3510.8986674266284,6250.253953894436,1000,5.634,-1.27,-1.081,92.0,red,283,TRUE
105,1662009183.18,3500.517327290723,6315.068774953367,1000,1.216,-1.374,1.989,104.4,blue,283,TRUE
106,1662009183.271,3516.994092771591,6231.120603343013,1000,5.646,-1.271,-1.08,149.9,red,283,TRUE
107,1662009183.615,3493.1374361784783,6308.595515720891,1000,1.212,-1.374,2.008,122.1,blue,283,TRUE
108,1662009183.72,3510.584435165363,6184.363620107492,1000,5.637,-1.269,-1.089,106.5,red,283,TRUE
109,1662009184.102,3470.7914269313405,6330.90934966117,1000,1.218,-1.373,2.019,101.7,blue,283,TRUE
110,1662009184.192,3499.007215030357,6171.170913483609,1000,5.615,-1.271,-1.107,90.8,red,283,TRUE
111,1662009186.95,3543.9095356920484,6376.779242820521,1000,1.254,-1.361,2.094,102.7,blue,283,TRUE
112,1662009187.039,3505.0095051103854,6144.501771502735,1000,5.597,-1.268,-1.096,93.2,red,283,TRUE
113,1662009188.319,3508.160857988023,6401.178161715435,1000,1.263,-1.368,2.028,1171.5,blue,283,TRUE
114,1662009189.744,3548.2861223417062,6406.8800819666585,1000,1.262,-1.37,2.015,122.2,blue,283,TRUE
115,1662009189.85,3506.9865593004856,6143.232800593466,1000,5.591,-1.254,-1.08,95.1,red,283,TRUE
116,1662009191.072,3454.8533127166243,6450.356372487605,1000,1.266,-1.37,2.013,1194.4,blue,283,TRUE
117,1662009192.521,3458.134025691193,6452.794032425546,1000,1.236,-1.378,2.067,104.1,blue,283,TRUE
118,1662009192.614,3503.2812371008895,6103.8533456413315,1000,5.778,-1.322,-1.1,102.3,red,283,TRUE
119,1662009192.943,3439.037822708953,6419.2390777501,1000,1.246,-1.378,2.062,104.2,blue,283,TRUE
120,1662009193.033,3495.7750563117206,6016.648298721502,1000,5.685,-1.295,-1.055,98.3,red,283,TRUE
121,1662009193.322,3396.453782069888,6378.812685506068,1000,1.232,-1.38,2.059,103.4,blue,283,TRUE
122,1662009193.414,3502.3734352368106,5991.963475625537,1000,5.608,-1.309,-1.037,148.1,red,283,TRUE
123,1662009193.773,3412.942298006595,6374.577870627142,1000,1.239,-1.381,2.045,106.2,blue,283,TRUE
124,1662009193.866,3509.6179660261582,6003.2851417836355,1000,5.585,-1.3,-1.016,94.9,red,283,TRUE
125,1662009194.216,3395.8097348423275,6372.532144308266,1000,1.209,-1.386,2.093,104.9,blue,283,TRUE
126,1662009194.307,3510.8316704002063,5985.366480895831,1000,5.529,-1.29,-1.065,93.6,red,283,TRUE
127,1662009195.515,3487.541914646457,6326.767453015073,1000,1.209,-1.373,2.065,107.3,blue,283,TRUE
128,1662009195.608,3508.197189511999,6010.087612248021,1000,5.531,-1.289,-1.112,149.3,red,283,TRUE
129,1662009196.017,3483.2088965005155,6320.954206374252,1000,1.209,-1.373,2.062,104.4,blue,283,TRUE
130,1662009196.11,3500.037497185717,6092.1711335551745,1000,5.525,-1.289,-1.105,89.6,red,283,TRUE
131,1662009196.409,3495.4676772550683,6341.960205338804,1000,1.21,-1.373,2.058,105.9,blue,283,TRUE
132,1662009196.503,3505.7723812147474,6161.166329756567,1000,5.529,-1.289,-1.103,93.9,red,283,TRUE
133,1662009196.814,3493.449094784421,6348.845607995413,1000,1.211,-1.376,2.041,108.1,blue,283,TRUE
134,1662009196.909,3510.600989809381,6203.7974500441715,1000,5.521,-1.289,-1.107,90.9,red,283,TRUE
135,1662009197.221,3476.1959293991945,6341.516143122185,1000,1.21,-1.377,2.032,108.0,blue,283,TRUE
136,1662009197.315,3515.197968451401,6127.756796474713,1000,5.521,-1.289,-1.104,150.7,red,283,TRUE
137,1662009197.718,3454.598638879861,6343.236258290733,1000,1.21,-1.377,2.026,124.6,blue,283,TRUE
138,1662009197.824,3532.2648375219264,6182.804679438869,1000,5.52,-1.288,-1.095,94.8,red,283,TRUE
139,1662009198.127,3453.76662432117,6336.548402376294,1000,1.203,-1.382,2.014,123.5,blue,283,TRUE
140,1662009198.234,3531.7776075919332,6185.959436354663,1000,5.521,-1.287,-1.089,93.7,red,283,TRUE
141,1662009198.508,3462.6632695133208,6335.466733913704,1000,1.202,-1.383,2.013,103.8,blue,283,TRUE
142,1662009198.599,3538.88647344088,6147.794359565974,1000,5.517,-1.288,-1.083,89.5,red,283,TRUE
143,1662009198.912,3463.5013927133646,6315.820871449804,1000,1.204,-1.383,2.008,104.1,blue,283,TRUE
144,1662009199.002,3536.8660692577578,6186.430022250352,1000,5.516,-1.286,-1.084,148.4,red,283,TRUE
145,1662009199.407,3457.4158689083683,6311.251707980261,1000,1.205,-1.383,2.006,106.0,blue,283,TRUE
146,1662009199.501,3531.3665344413125,6165.857872793799,1000,5.525,-1.28,-1.093,91.4,red,283,TRUE
147,1662009199.812,3446.3922713795887,6311.021662211392,1000,1.205,-1.383,2.007,108.0,blue,283,TRUE
148,1662009199.906,3533.0845151469707,6222.577283518492,1000,5.521,-1.277,-1.082,92.4,red,283,TRUE
149,1662009200.205,3447.2952285303013,6316.3455348896905,1000,1.204,-1.383,2.017,107.0,blue,283,TRUE
150,1662009200.298,3521.8979915050427,6175.5720137817725,1000,5.519,-1.276,-1.085,90.5,red,283,TRUE
151,1662009200.582,3450.1267133575566,6328.342945488102,1000,1.203,-1.383,2.015,122.1,blue,283,TRUE
152,1662009200.687,3521.054395230907,6116.80500082824,1000,5.512,-1.277,-1.092,168.3,red,283,TRUE
153,1662009201.097,3437.7528572942024,6330.632618257668,1000,1.204,-1.383,2.006,119.6,blue,283,TRUE
154,1662009201.2,3528.874165245162,6081.777535291632,1000,5.512,-1.278,-1.091,96.2,red,283,TRUE
155,1662009201.474,3435.2447229421937,6342.216880138254,1000,1.203,-1.384,2.001,101.9,blue,283,TRUE
156,1662009201.565,3530.2350212688575,6033.363890626629,1000,5.512,-1.278,-1.082,90.6,red,283,TRUE
157,1662009201.896,3431.6893203958484,6329.445303508207,1000,1.205,-1.384,1.998,103.5,blue,283,TRUE
158,1662009201.986,3536.1189668978427,6015.248355662746,1000,5.512,-1.278,-1.08,95.4,red,283,TRUE
159,1662009202.288,3437.2106454531345,6334.064793662572,1000,1.205,-1.384,1.997,106.3,blue,283,TRUE
160,1662009202.38,3537.9689839726548,6000.623530131095,1000,5.503,-1.28,-1.088,149.3,red,283,TRUE
161,1662009202.797,3441.4036667443197,6346.099619226637,1000,1.203,-1.384,1.996,108.2,blue,283,TRUE
162,1662009202.891,3538.586040162721,6007.288066728067,1000,5.49,-1.281,-1.091,93.5,red,283,TRUE
163,1662009203.207,3433.5594518277553,6326.072002863618,1000,1.202,-1.385,1.987,106.0,blue,283,TRUE
164,1662009203.3,3543.6329676574933,6037.925554375222,1000,5.501,-1.277,-1.078,90.0,red,283,TRUE
165,1662009203.598,3425.408785979343,6311.8921979072,1000,1.204,-1.385,1.983,109.1,blue,283,TRUE
166,1662009203.693,3545.118102783947,6076.13525141187,1000,5.498,-1.276,-1.074,163.4,red,283,TRUE
167,1662009204.1,3417.370900464129,6310.327679112122,1000,1.202,-1.385,1.981,119.1,blue,283,TRUE
168,1662009204.202,3547.228616423041,6092.935803603868,1000,5.496,-1.276,-1.078,108.0,red,283,TRUE
169,1662009204.492,3416.478985666654,6310.917982266687,1000,1.202,-1.385,1.981,103.5,blue,283,TRUE
170,1662009204.583,3552.9649693740907,6117.959457167942,1000,5.502,-1.276,-1.078,91.2,red,283,TRUE
171,1662009204.899,3411.224213974829,6307.055652900669,1000,1.204,-1.386,1.978,106.3,blue,283,TRUE
172,1662009204.99,3548.2374647007514,6144.69350381277,1000,5.495,-1.278,-1.08,95.3,red,283,TRUE
173,1662009205.303,3400.5924293014027,6287.187920533368,1000,1.204,-1.386,1.967,107.2,blue,283,TRUE
174,1662009205.398,3550.074078017556,6167.0433740339295,1000,5.488,-1.276,-1.094,148.6,red,283,TRUE
175,1662009205.801,3400.3149856613577,6293.0762593028185,1000,1.203,-1.389,1.946,108.5,blue,283,TRUE
176,1662009205.895,3546.871296254629,6172.445446281381,1000,5.487,-1.277,-1.091,94.8,red,283,TRUE
177,1662009206.21,3398.891118310357,6282.318833092355,1000,1.199,-1.392,1.95,122.0,blue,283,TRUE
178,1662009206.316,3534.259036675476,6166.9538820521,1000,5.487,-1.278,-1.092,93.5,red,283,TRUE
179,1662009206.631,3398.0090169721348,6260.316515697676,1000,1.2,-1.393,1.961,123.5,blue,283,TRUE
180,1662009206.737,3526.6056265729108,6167.84712522921,1000,5.481,-1.281,-1.109,168.0,red,283,TRUE
181,1662009207.147,3395.0051423745304,6251.519802413615,1000,1.179,-1.394,1.992,120.4,blue,283,TRUE
182,1662009207.25,3510.2890806840987,6150.750817321164,1000,5.474,-1.284,-1.127,95.9,red,283,TRUE
183,1662009208.475,3420.8671318353136,6239.1279704159815,1000,1.18,-1.39,2.005,106.7,blue,283,TRUE
184,1662009208.57,3515.0313919666373,6155.406276677964,1000,5.492,-1.317,-1.109,145.3,red,283,TRUE
185,1662009208.974,3459.0741497550734,6242.456450285305,1000,1.17,-1.39,2.004,105.4,blue,283,TRUE
186,1662009209.068,3514.90716148019,6147.462729472329,1000,5.492,-1.313,-1.139,90.1,red,283,TRUE
187,1662009209.381,3461.3301144805832,6236.172188866996,1000,1.173,-1.393,1.971,102.7,blue,283,TRUE
188,1662009209.47,3515.397911523088,6134.6288042677415,1000,5.484,-1.316,-1.166,99.0,red,283,TRUE
189,1662009209.783,3456.7343958113165,6231.569190749785,1000,1.173,-1.392,2.015,106.7,blue,283,TRUE
190,1662009209.877,3526.4897728608407,6148.673277580656,1000,5.49,-1.319,-1.152,149.9,red,283,TRUE
191,1662009210.296,3465.9461604337503,6243.3742658023875,1000,1.172,-1.392,2.043,105.9,blue,283,TRUE
192,1662009210.388,3541.0513287540725,6160.4710049397645,1000,5.485,-1.317,-1.151,93.5,red,283,TRUE
193,1662009210.701,3461.6693932508174,6243.221292974359,1000,1.14,-1.392,2.089,123.0,blue,283,TRUE
194,1662009210.808,3551.883512942383,6162.636761136547,1000,5.478,-1.318,-1.142,93.9,red,283,TRUE
195,1662009211.107,3459.0693431582617,6236.125439404502,1000,1.151,-1.386,2.129,122.7,blue,283,TRUE
196,1662009211.214,3559.012959671441,6141.901391211104,1000,5.487,-1.318,-1.12,153.5,red,283,TRUE
197,1662009211.612,3444.739787666156,6239.8845575206615,1000,1.188,-1.367,2.218,119.4,blue,283,TRUE
198,1662009211.714,3560.290934644852,6142.666028708158,1000,5.491,-1.316,-1.105,106.4,red,283,TRUE
199,1662009212.032,3459.64289157188,6254.8330304627825,1000,1.203,-1.362,2.213,104.9,blue,283,TRUE
200,1662009212.126,3560.830421744457,6128.991455305429,1000,5.481,-1.316,-1.124,91.5,red,283,TRUE
201,1662009212.425,3497.05747951244,6276.243432945671,1000,1.2,-1.369,2.123,104.2,blue,283,TRUE
202,1662009212.516,3554.1812935474068,6103.729495744775,1000,5.481,-1.318,-1.118,96.6,red,283,TRUE
203,1662009212.815,3508.1816519026684,6284.284942425299,1000,1.209,-1.37,2.08,106.7,blue,283,TRUE
204,1662009212.909,3553.816254712134,6112.955193642822,1000,5.483,-1.318,-1.114,148.9,red,283,TRUE
205,1662009213.326,3538.226070431625,6299.23483373088,1000,1.213,-1.374,2.037,107.7,blue,283,TRUE
206,1662009213.421,3551.283695178902,6142.782853924648,1000,5.481,-1.32,-1.121,93.3,red,283,TRUE
207,1662009213.732,3546.431568162567,6312.782779474624,1000,1.223,-1.391,1.874,121.0,blue,283,TRUE
208,1662009213.837,3534.094036631839,6150.799670742188,1000,5.485,-1.32,-1.118,95.5,red,283,TRUE
209,1662009214.136,3561.413114103791,6289.687439273388,1000,1.308,-1.394,1.953,119.8,blue,283,TRUE
210,1662009214.24,3544.076962615338,6156.508910672567,1000,5.481,-1.321,-1.119,166.5,red,283,TRUE
211,1662009214.666,3554.9700493146775,6259.265649430458,1000,1.6,-1.286,2.35,118.6,blue,283,TRUE
212,1662009214.767,3538.8918590298567,6163.4058681807655,1000,5.477,-1.322,-1.125,105.1,red,283,TRUE
213,1662009215.069,3510.35752584922,6222.8283226355925,1000,1.793,-1.313,2.577,121.9,blue,283,TRUE
214,1662009215.174,3547.7808048881616,6180.878142126688,1000,5.478,-1.322,-1.122,105.7,red,283,TRUE
215,1662009215.492,3403.936211686185,6146.804083548511,1000,2.189,-1.347,2.37,119.8,blue,283,TRUE
216,1662009215.641,3514.0184001059197,6017.90090519329,1000,5.475,-1.324,-1.134,1057.0,red,283,TRUE
217,1662009216.775,3255.0618821788976,5988.761556166796,1000,2.709,-1.371,2.009,117.1,blue,283,TRUE
218,1662009216.87,3504.5124756876958,6063.457504655531,1000,5.459,-1.324,-1.143,157.1,red,283,TRUE
219,1662009217.282,3147.3637018501236,5762.793223483995,1000,2.361,-1.444,2.137,107.3,blue,283,TRUE
220,1662009217.377,3509.420105537976,6087.017541330676,1000,5.443,-1.323,-1.117,92.6,red,283,TRUE
221,1662009217.673,3013.6645757114798,5493.20007302194,1000,2.352,-1.426,2.634,124.6,blue,283,TRUE
222,1662009217.78,3511.581785772921,6134.381226774035,1000,5.427,-1.355,-1.118,98.3,red,283,TRUE
223,1662009218.081,2930.8722399511153,5237.294834248655,1000,2.435,-1.417,2.055,123.1,blue,283,TRUE
224,1662009218.187,3510.2534893878023,6111.824348531187,1000,5.66,-1.452,-3.024,167.4,red,283,TRUE
225,1662009218.617,2881.466275775811,4926.655971199904,1000,2.317,-1.39,1.972,115.0,blue,283,TRUE
226,1662009218.719,3498.0885263895384,6027.908876195001,1000,0.125,-1.436,-1.813,103.6,red,283,TRUE
227,1662009219.035,2910.4685901038915,4613.286369610561,1000,2.311,-1.462,3.073,105.6,blue,283,TRUE
228,1662009219.131,3522.3768376535313,5890.254842753883,1000,0.623,-1.336,-1.115,87.2,red,283,TRUE
229,1662009219.442,2955.7433705336152,4342.792357725363,1000,2.344,-1.424,2.693,104.2,blue,283,TRUE
230,1662009219.533,3626.711112687573,5649.076051247758,1000,1.034,-1.245,-1.12,148.3,red,283,TRUE
231,1662009219.954,2975.214592151644,4053.5705702032064,1000,1.993,-1.396,2.077,106.6,blue,283,TRUE
232,1662009220.047,3682.438543603361,5379.117027196792,1000,1.125,-1.353,-1.393,94.6,red,283,TRUE
233,1662009220.345,3052.4685656153288,3850.131743073114,1000,1.659,-1.378,2.328,106.4,blue,283,TRUE
234,1662009220.437,3743.4674598698,5031.951677327069,1000,1.069,-1.388,-1.334,92.4,red,283,TRUE
235,1662009220.724,3048.467917206359,3587.1542432033293,1000,1.566,-1.381,2.605,119.5,blue,283,TRUE
236,1662009220.826,3844.452762265237,4676.788239147284,1000,1.176,-1.324,-1.235,93.9,red,283,TRUE
237,1662009221.114,3063.9055313311906,3432.5244630617653,1000,1.684,-1.437,2.095,122.3,blue,283,TRUE
238,1662009221.22,4011.6630890957435,4368.198612907941,1000,1.368,-1.395,-1.12,166.8,red,283,TRUE
239,1662009221.63,3084.691282403012,3292.812104841,1000,1.732,-1.365,2.236,117.4,blue,283,TRUE
240,1662009221.731,4071.294962760052,4089.065437222793,1000,1.045,-1.36,-1.145,105.4,red,283,TRUE
241,1662009222.05,3122.414605871485,3164.4131221404136,1000,1.599,-1.393,2.207,105.6,blue,283,TRUE
242,1662009222.143,4055.060705070213,3898.385498545939,1000,0.918,-1.34,-1.036,90.2,red,283,TRUE
243,1662009222.458,3165.3101543780763,3137.7442128524744,1000,1.577,-1.413,2.376,105.3,blue,283,TRUE
244,1662009222.549,4089.3155639903703,3702.3496158332596,1000,1.057,-1.319,-1.076,150.2,red,283,TRUE
245,1662009222.956,3170.9028378069384,3054.021172205829,1000,1.622,-1.426,2.344,104.5,blue,283,TRUE
246,1662009223.047,4121.921109406286,3534.114597662483,1000,1.218,-1.376,-1.136,94.3,red,283,TRUE
247,1662009223.359,3198.309353378747,2948.9612824962646,1000,1.69,-1.427,2.407,107.8,blue,283,TRUE
248,1662009223.453,4151.462419393149,3429.7640223644266,1000,1.261,-1.393,-1.419,94.8,red,283,TRUE
249,1662009223.766,3172.3193384607875,2789.986943816825,1000,1.743,-1.42,2.486,122.6,blue,283,TRUE
250,1662009223.872,4097.596080992487,3334.859735981556,1000,1.238,-1.364,-1.508,154.2,red,283,TRUE
251,1662009224.279,3126.799479306908,2687.089692919485,1000,1.757,-1.427,2.5,108.0,blue,283,TRUE
252,1662009224.374,4104.255665149417,3283.643176036794,1000,1.238,-1.364,-1.497,91.4,red,283,TRUE
253,1662009224.686,3135.8156649786583,2634.838504223259,1000,1.736,-1.408,2.59,107.1,blue,283,TRUE
254,1662009224.78,4117.907155787463,3233.466180415385,1000,1.256,-1.365,-1.492,98.0,red,283,TRUE
255,1662009225.076,3095.534849132937,2490.472828548136,1000,1.753,-1.427,2.51,123.4,blue,283,TRUE
256,1662009225.183,4129.155753554764,3208.5728643401285,1000,1.241,-1.36,-1.486,167.4,red,283,TRUE
257,1662009225.614,3081.4571456473554,2471.6898916420014,1000,1.825,-1.456,3.051,100.1,blue,283,TRUE
258,1662009225.701,4236.8460023699545,3176.649151407273,1000,1.244,-1.362,-1.467,102.8,red,283,TRUE
259,1662009226.017,3084.41674800585,2538.9276388247213,1000,1.79,-1.462,3.055,104.1,blue,283,TRUE
260,1662009226.109,4207.662973310032,3175.077688334537,1000,1.228,-1.374,-1.407,89.4,red,283,TRUE
261,1662009226.422,3144.0741285738645,2599.486068434789,1000,1.774,-1.463,3.059,102.8,blue,283,TRUE
262,1662009226.511,4197.3441821472725,3226.2646202068595,1000,1.252,-1.492,-0.073,149.4,red,283,TRUE
263,1662009230.189,3418.7166531445487,3729.948664311956,1000,1.947,-1.422,2.526,1175.2,blue,283,TRUE
264,1662009231.657,3235.411319290164,3229.1456108217835,1000,1.9,-1.438,2.502,112.8,blue,283,TRUE
265,1662009231.758,4186.774663694066,3251.8564931582046,1000,1.418,-1.561,3.138,103.3,red,283,TRUE
266,1662009233.023,3250.040539648715,2988.608020576852,1000,1.908,-1.428,2.506,1173.0,blue,283,TRUE
267,1662009234.451,3179.028309237377,2843.780287905708,1000,1.87,-1.433,2.531,104.3,blue,283,TRUE
268,1662009234.542,4155.564304090298,3295.7049074545466,1000,1.419,-1.556,3.126,99.9,red,283,TRUE
269,1662009238.226,3122.1557167018263,2824.6645184019408,1000,1.902,-1.402,2.643,1173.9,blue,283,TRUE
270,1662009240.595,2931.1327693796425,2860.6274875458926,1000,1.802,-1.414,2.633,1177.6,blue,283,TRUE
271,1662009242.992,2827.3940853777895,2624.817013710781,1000,1.823,-1.429,2.561,1175.5,blue,283,TRUE
272,1662009245.359,2811.7811735712944,2594.239412864016,1000,1.882,-1.41,2.543,1196.5,blue,283,TRUE
273,1662009250.23,2765.743483941844,2732.3339407657136,1000,1.669,-1.434,2.301,1173.2,blue,283,TRUE
274,1662009252.615,2993.2031325598487,2929.7905931290315,1000,1.537,-1.395,2.41,1174.1,blue,283,TRUE
275,1662009254.982,3047.7689453063467,2950.066074168573,1000,1.537,-1.407,2.35,1177.1,blue,283,TRUE
276,1662009259.818,3245.4574789840917,2904.315019522525,1000,1.585,-1.422,2.221,1146.2,blue,283,TRUE
277,1662009260.948,3704.5916448706616,-2701.3981104883705,1000,5.545,-1.16,0.315,122.2,yellow,283,TRUE
278,1662009262.215,3308.961621943052,2994.9754646800006,1000,1.609,-1.422,2.199,1149.8,blue,283,TRUE
279,1662009265.514,4031.2931779199193,2776.2559305630693,1000,1.701,-1.382,2.291,1142.6,blue,283,TRUE
280,1662009272.233,4480.358881010944,1918.905199381936,1000,1.372,-1.395,2.277,1145.9,blue,283,TRUE
281,1662009285.761,4381.54573632845,1637.7608188388951,1000,1.592,-1.401,2.23,108.9,blue,283,TRUE
282,1662009285.862,4161.019034636743,3261.8542660507187,1000,0.167,-1.244,-0.926,145.4,red,283,TRUE
283,1662009287.202,4323.330149028274,1523.7642107550694,1000,1.417,-1.392,2.377,1176.0,blue,283,TRUE
284,1662009291.072,4403.355332365832,1365.4629195349107,1000,1.452,-1.46,3.053,114.5,blue,283,TRUE
285,1662009291.175,4020.473621270452,3243.280451820205,1000,0.299,-1.024,-2.351,90.0,red,283,TRUE
286,1662009291.535,4452.202564067344,1225.4584083764573,1000,1.509,-1.428,2.493,103.8,blue,283,TRUE
287,1662009291.628,3966.1431027555623,3168.397041251463,1000,0.383,-1.205,-2.22,90.3,red,283,TRUE
288,1662009291.93,3836.8969763125697,1398.6149208992622,1000,1.366,-1.445,2.511,101.5,blue,283,TRUE
289,1662009292.016,3957.784783896003,3034.2904954562637,1000,0.527,-1.384,-0.978,151.1,red,283,TRUE
290,1662009292.393,3506.429582693883,2006.365864919554,1000,1.259,-1.425,2.849,107.5,blue,283,TRUE
291,1662009292.488,3932.983321901025,2911.1887077705287,1000,0.471,-1.377,-0.878,90.6,red,283,TRUE
292,1662009292.818,3511.0711326854603,1951.7171185305417,1000,1.326,-1.374,2.757,104.5,blue,283,TRUE
293,1662009292.911,3934.5602493849706,2797.0645634154766,1000,0.333,-1.397,-1.028,89.9,red,283,TRUE
294,1662009296.602,3624.7284076613255,1902.6868734899078,1000,0.495,-1.451,2.134,1170.5,blue,283,TRUE
295,1662009301.427,3555.214007170973,1946.2707350507699,1000,6.041,-1.319,2.325,1177.6,blue,283,TRUE
296,1662009303.81,3626.4282788158507,1916.2739479669137,1000,6.11,-1.361,2.46,1177.4,blue,283,TRUE
297,1662009307.198,3634.912130423001,1852.9579307315396,1000,6.16,-1.355,2.345,1170.3,blue,283,TRUE
298,1662009310.509,3681.516789799795,1879.130875148804,1000,6.115,-1.355,2.399,1178.0,blue,283,TRUE
299,1662009313.864,3678.220296481086,1877.2986850891932,1000,6.112,-1.356,2.39,119.6,blue,283,TRUE
300,1662009317.752,3714.462066978124,1903.2218664059046,1000,6.278,-1.441,-3.124,99.8,blue,283,TRUE
301,1662009317.838,3918.0710114756716,2490.2477831446213,1000,5.794,-1.389,-1.397,103.4,red,283,TRUE
302,1662009322.587,3781.125600789643,1846.552081839912,1000,4.336,-1.235,3.045,1177.3,blue,283,TRUE
303,1662009330.444,3561.21302235777,-2652.8464302912926,1000,5.536,-1.158,0.328,1150.9,yellow,283,TRUE
304,1662009333.849,3543.532892164978,-2678.786282840228,1000,5.549,-1.156,0.37,1143.3,yellow,283,TRUE
305,1662009337.273,3648.814554323093,-2708.9386616264815,1000,5.538,-1.161,0.329,1141.0,yellow,283,TRUE
306,1662009338.644,3418.635116886626,3784.504326908162,1000,5.33,-1.389,-1.791,101.4,red,283,TRUE
307,1662009338.733,3598.839662939287,-2674.613998082784,1000,5.531,-1.162,0.314,133.2,yellow,283,TRUE
308,1662009341.111,3573.228890567431,-2644.6839774658006,1000,5.534,-1.158,0.312,128.1,yellow,283,TRUE
309,1662009341.222,2719.6997895519858,-2679.5717776689894,1000,6.136,-1.317,1.524,93.4,green,283,TRUE
310,1662009345.876,3444.8873371319037,4669.815865279907,1000,0.101,-1.261,-0.846,1127.8,red,283,TRUE
311,1662009346.993,2689.08836007096,-2531.7278696893895,1000,5.287,-1.169,2.73,130.4,green,283,TRUE
312,1662009357.518,3502.734982760121,5116.406490059764,1000,6.276,-1.233,-1.02,122.6,red,283,TRUE
313,1662009358.858,2047.9227810496102,8661.470847706274,1000,5.243,-1.383,2.51,121.3,blue,283,TRUE
314,1662009358.967,3655.4291070155136,5567.887555814522,1000,6.237,-1.261,-1.086,118.7,red,283,TRUE
315,1662009360.251,2303.837122898466,8180.003871023511,1000,2.256,-1.35,2.808,99.8,blue,283,TRUE
316,1662009360.341,3737.5633632658432,5778.36502303436,1000,6.231,-1.263,-1.081,114.0,red,283,TRUE
317,1662009361.641,2576.0371539881858,7819.4122376230725,1000,2.568,-1.271,2.682,101.6,blue,283,TRUE
318,1662009361.733,3685.001418832233,6414.058483447323,1000,6.229,-1.265,-1.05,115.4,red,283,TRUE
319,1662009363.016,2811.150793024015,7541.610854011976,1000,1.997,-1.332,2.911,102.5,blue,283,TRUE
320,1662009363.105,3824.9686075199097,6638.562807034407,1000,6.177,-1.278,-0.928,119.9,red,283,TRUE
321,1662009364.4,2953.6142838075766,7359.272020724148,1000,2.393,-1.209,2.847,111.9,blue,283,TRUE
322,1662009364.498,3858.4262650428755,6643.160484160412,1000,6.168,-1.281,-0.935,121.1,red,283,TRUE
323,1662009365.788,3044.004105407326,7257.635129203581,1000,2.265,-1.382,2.652,113.9,blue,283,TRUE
324,1662009365.889,3860.527772261652,6627.597271510976,1000,6.166,-1.289,-0.935,115.4,red,283,TRUE
325,1662009367.175,3292.0046211450212,6921.5593289216895,1000,2.295,-1.422,2.718,114.5,blue,283,TRUE
326,1662009367.277,3765.5151613231897,6450.2587816706355,1000,6.265,-1.288,-0.973,118.7,red,283,TRUE
327,1662009368.564,3469.7583419596535,6728.403393165627,1000,2.005,-1.328,3.053,99.7,blue,283,TRUE
328,1662009368.654,3702.1963485160463,6377.351336769934,1000,6.252,-1.287,-1.036,115.1,red,283,TRUE
329,1662009369.989,3542.3851229069337,6628.944818830855,1000,2.665,-1.374,2.706,111.0,blue,283,TRUE
330,1662009370.087,3726.5469093467086,6395.304400310281,1000,0.076,-1.27,-1.032,104.3,red,283,TRUE
331,1662009370.18,3475.0455170043547,-2597.5855735321206,1000,4.208,-1.078,2.826,89.0,yellow,283,TRUE
332,1662009370.478,3519.128050734485,6647.6646754464045,1000,3.411,-1.344,2.923,104.2,blue,283,TRUE
333,1662009370.57,3774.7579634892663,6421.417151556173,1000,0.077,-1.269,-1.035,119.3,red,283,TRUE
334,1662009370.664,3510.5987459631015,-2561.0379214539626,1000,4.225,-1.089,2.788,88.8,yellow,283,TRUE
335,1662009370.973,3453.566772280678,6759.4850304490965,1000,4.057,-1.334,3.001,108.0,blue,283,TRUE
336,1662009371.067,3826.9698118784395,6446.714262007052,1000,0.072,-1.264,-1.047,104.6,red,283,TRUE
337,1662009371.159,3419.6065418138946,-2475.0939968682687,1000,4.588,-1.026,2.734,133.7,yellow,283,TRUE
338,1662009371.474,3250.697759870274,6984.514414747921,1000,4.526,-1.325,-3.094,105.2,blue,283,TRUE
339,1662009371.569,3873.3611386652133,6482.207628946921,1000,0.061,-1.265,-1.053,130.8,red,283,TRUE
340,1662009371.687,3318.073808174813,-2348.412258963555,1000,4.705,-1.08,2.822,79.2,yellow,283,TRUE
341,1662009372.904,2935.3656765427872,7294.868197184068,1000,4.387,-1.398,2.37,1148.9,blue,283,TRUE
342,1662009374.037,3250.5302716093884,-2307.8012638571495,1000,5.364,-1.08,-3.124,152.4,yellow,283,TRUE
343,1662009374.388,2496.2119527622995,7584.5525434461115,1000,3.09,-1.395,2.623,102.6,blue,283,TRUE
344,1662009374.479,3939.5329222030887,6546.2604301141555,1000,0.064,-1.27,-1.101,117.1,red,283,TRUE
345,1662009375.789,2039.0516491035905,7865.982507103267,1000,2.818,-1.41,2.46,107.6,blue,283,TRUE
346,1662009375.885,3995.513120723183,6601.736980304268,1000,0.065,-1.271,-1.071,118.3,red,283,TRUE
347,1662009378.149,1611.8384813222483,8158.859649397182,1000,2.787,-1.404,2.346,1128.2,blue,283,TRUE
348,1662009379.262,3231.14538562993,-2336.1328658490906,1000,5.502,-1.191,0.252,154.1,yellow,283,TRUE
349,1662009380.562,1063.5228597378787,8251.6456680684,1000,2.819,-1.408,2.112,1133.0,blue,283,TRUE
350,1662009381.682,3302.7587650173846,-2430.717455826171,1000,5.504,-1.194,0.259,149.0,yellow,283,TRUE
351,1662009382.979,774.0399358677381,8220.1690214176,1000,2.88,-1.398,2.068,1163.2,blue,283,TRUE
352,1662009399.327,1313.6385496211888,8455.158082779253,1000,3.046,-1.136,-2.213,1147.5,red,283,TRUE
353,1662009402.629,253.80482815004663,8199.45936603092,1000,2.683,-1.434,2.188,128.6,blue,283,TRUE
354,1662009402.738,1296.1517543199077,8181.519796729173,1000,3.364,-1.181,-2.258,138.5,red,283,TRUE
355,1662009410.922,698.1850650804209,8151.637028280872,1000,3.038,-1.407,2.08,100.6,blue,283,TRUE
356,1662009411.008,2695.1451280397437,6473.581906842676,1000,1.407,-1.184,-1.158,120.2,red,283,TRUE
357,1662009413.405,3539.5885887519385,5516.027511876334,1000,1.083,-1.205,-1.917,130.8,red,283,TRUE
358,1662009415.789,3987.027075585948,4934.827617180088,1000,0.983,-1.235,-1.886,142.8,red,283,TRUE
359,1662009418.189,3957.25050664145,4718.332312411119,1000,3.586,-1.342,-1.765,141.5,red,283,TRUE
360,1662009419.522,702.7618286626894,8221.746873495145,1000,3.526,-1.349,2.784,105.3,blue,283,TRUE
361,1662009419.615,4039.943368221735,3965.8100317986064,1000,2.839,-0.893,-1.927,120.0,red,283,TRUE
362,1662009420.929,-1582.2010796394009,7586.6847640837805,1000,3.459,-1.359,2.715,1098.3,blue,283,TRUE
363,1662009424.299,4214.56585183444,3364.9086462971377,1000,2.553,-0.987,-1.84,124.3,red,283,TRUE
364,1662009431.169,4230.582049830068,3120.1869906952943,1000,5.574,-1.422,-1.432,1195.7,red,283,TRUE
365,1662009433.522,-775.5065671277696,7873.055061057699,1000,3.336,-1.408,2.635,1133.1,blue,283,TRUE
366,1662009434.639,3481.445864320174,-2505.105058241123,1000,5.536,-1.187,0.285,149.6,yellow,283,TRUE
367,1662009440.339,-324.1451515055664,7904.476350281405,1000,3.312,-1.413,2.746,115.0,blue,283,TRUE
368,1662009440.431,4143.68580859323,2934.4667400678995,1000,5.163,-1.474,-0.081,127.8,red,283,TRUE
369,1662009443.899,4116.3207353417665,2793.1077339533836,1000,4.992,-1.466,-0.1,1139.4,red,283,TRUE
370,1662009450.541,-90.50281021968962,7933.706731320907,1000,3.5,-1.305,2.59,1139.7,blue,283,TRUE
371,1662009453.948,4387.952723785016,2448.4451585175366,1000,5.228,-1.221,-1.89,115.7,red,283,TRUE
372,1662009456.307,4984.174226739844,2030.8794687302423,1000,4.94,-1.208,-1.786,126.0,red,283,TRUE
373,1662009457.666,-16.472679930821265,7959.868864739727,1000,3.556,-1.284,2.602,113.2,blue,283,TRUE
374,1662009457.768,5508.125501534447,1552.9233826878562,1000,5.066,-1.271,-1.946,116.8,red,283,TRUE
375,1662009460.022,91.73198949495502,8024.452075631433,1000,3.564,-1.296,2.603,1142.0,blue,283,TRUE
376,1662009464.525,5457.594055160388,1523.3222214634352,1000,4.898,-1.217,-2.169,1165.7,red,283,TRUE
377,1662009465.735,4561.047450876512,6967.687731457166,1000,0.011,-1.396,1.965,1128.4,green,283,TRUE
378,1662009467.877,243.70996431100284,7968.849353135155,1000,3.521,-1.349,2.62,1148.0,blue,283,TRUE
379,1662009478.189,5464.368522839987,1493.0822328947922,1000,5.156,-1.193,-1.951,126.9,red,283,TRUE
380,1662009479.48,365.17308389596775,7961.525838123039,1000,3.544,-1.286,2.635,100.1,blue,283,TRUE
381,1662009479.568,5461.058474708478,1429.8758956487552,1000,5.197,-1.227,-1.896,118.2,red,283,TRUE
382,1662009480.854,356.5013084296059,8000.66814745664,1000,3.551,-1.304,2.606,99.7,blue,283,TRUE
383,1662009480.941,5486.258209667365,1386.397726326515,1000,5.209,-1.215,-1.929,116.9,red,283,TRUE
384,1662009482.228,378.1738712763318,8068.721298179774,1000,3.543,-1.304,2.61,98.2,blue,283,TRUE
385,1662009482.313,5518.979572706382,1368.8260932810226,1000,5.216,-1.222,-1.929,120.1,red,283,TRUE
386,1662009482.41,3477.0533829878163,-2534.9034662270737,1000,5.549,-1.192,0.285,100.9,yellow,283,TRUE
387,1662009482.617,463.40383861850677,8147.066285472386,1000,3.543,-1.305,2.61,86.8,blue,283,TRUE
388,1662009482.693,5534.351712239524,1342.6032111228717,1000,5.2,-1.212,-1.946,116.5,red,283,TRUE
389,1662009483.975,431.75306053666554,8152.112220110658,1000,3.521,-1.317,2.601,102.7,blue,283,TRUE
390,1662009484.065,5588.626125653823,1320.9714679906228,1000,5.196,-1.216,-1.933,116.9,red,283,TRUE
391,1662009485.351,641.6149965919822,8334.436045312303,1000,3.512,-1.317,2.595,101.1,blue,283,TRUE
392,1662009485.44,5591.639837586849,1308.9004394301246,1000,5.179,-1.209,-1.951,116.8,red,283,TRUE
393,1662009485.528,3521.811654679352,-2647.260348690266,1000,5.557,-1.185,0.28,92.3,yellow,283,TRUE
394,1662009485.713,601.2203081334619,8374.126466604008,1000,3.515,-1.318,2.591,129.6,blue,283,TRUE
395,1662009485.826,5594.778381623936,1288.46152425362,1000,5.175,-1.208,-1.956,122.2,red,283,TRUE
396,1662009485.931,3584.5710849945813,-2715.5326570739685,1000,5.557,-1.186,0.281,104.7,yellow,283,TRUE
397,1662009486.172,464.64794894996527,8502.646471483038,1000,3.511,-1.319,2.592,1101.6,blue,283,TRUE
398,1662009488.439,521.1524435543183,8466.640013099342,1000,3.483,-1.331,2.677,100.6,blue,283,TRUE
399,1662009488.53,5593.194373430077,1286.9727933877225,1000,5.183,-1.214,-1.95,129.2,red,283,TRUE
400,1662009489.825,488.48975726289024,8385.937038037016,1000,3.507,-1.176,2.394,101.0,blue,283,TRUE
401,1662009489.912,5593.464071699526,1294.1216957379318,1000,5.168,-1.212,-1.953,133.6,red,283,TRUE
402,1662009491.211,546.0367202024647,8545.723826396988,1000,4.297,-1.258,2.164,111.7,blue,283,TRUE
403,1662009491.309,5597.8755802465175,1328.624369201388,1000,5.065,-1.235,-1.863,118.7,red,283,TRUE
404,1662009492.597,577.4744640470246,8650.118951918808,1000,4.355,-1.234,2.525,101.8,blue,283,TRUE
405,1662009492.685,5559.628372350003,1328.1833527366023,1000,4.957,-1.208,-1.905,118.7,red,283,TRUE
406,1662009493.97,631.2596968131426,8770.053006346194,1000,4.722,-1.385,2.618,99.1,blue,283,TRUE
407,1662009494.058,5563.332895843807,1338.8473443582845,1000,4.995,-1.228,-1.882,117.1,red,283,TRUE
408,1662009495.342,723.7381872842888,8906.267671290485,1000,4.934,-1.431,2.364,100.4,blue,283,TRUE
409,1662009495.43,5538.3916893025935,1341.2014736691262,1000,5.011,-1.212,-1.917,118.4,red,283,TRUE
410,1662009496.717,721.1144738155789,9017.658634275655,1000,4.682,-1.412,2.819,99.2,blue,283,TRUE
411,1662009496.802,5548.984664559798,1335.6709272818907,1000,5.188,-1.326,-2.014,135.4,red,283,TRUE
412,1662009498.106,817.1673223655013,9182.408648763196,1000,4.536,-1.271,2.529,98.8,blue,283,TRUE
413,1662009498.191,5527.813501671098,1329.8322124634158,1000,4.874,-1.389,-0.987,118.8,red,283,TRUE
414,1662009499.476,726.7750646538157,9087.667079925825,1000,4.094,-1.376,2.687,100.2,blue,283,TRUE
415,1662009499.565,5515.7680712511565,1335.7010402212027,1000,4.708,-1.405,-1.416,117.5,red,283,TRUE
416,1662009500.846,803.2431531596962,8937.626930510582,1000,3.274,-1.301,2.839,100.8,blue,283,TRUE
417,1662009500.933,5534.520549858246,1346.3418842199496,1000,4.8,-1.417,-1.486,132.2,red,283,TRUE
418,1662009502.217,860.8303143829754,8744.733618806362,1000,3.04,-1.172,2.47,113.6,blue,283,TRUE
419,1662009502.319,5506.883219408,1370.3429375877765,1000,5.141,-1.464,-0.104,133.5,red,283,TRUE
420,1662009503.619,900.4743671406392,8564.673015887747,1000,3.01,-1.197,2.455,100.1,blue,283,TRUE
421,1662009503.708,5540.73643276739,1422.209071654599,1000,4.407,-1.294,-2.075,116.2,red,283,TRUE
422,1662009504.992,996.634477468143,8437.81383996479,1000,2.991,-1.218,2.519,112.5,blue,283,TRUE
423,1662009505.091,5587.053742192755,1521.4702477464643,1000,4.068,-1.112,-1.91,104.5,red,283,TRUE
424,1662009505.182,3631.3959764219367,-2699.450676726147,1000,5.569,-1.156,0.236,94.7,yellow,283,TRUE
425,1662009505.448,1020.6201825823327,8287.24503561972,1000,3.007,-1.22,2.515,108.7,blue,283,TRUE
426,1662009505.542,5667.699379244364,1642.2753093546744,1000,4.123,-1.152,-1.869,117.4,red,283,TRUE
427,1662009506.828,1196.9324582003608,8265.741709966343,1000,3.074,-1.242,2.462,112.1,blue,283,TRUE
428,1662009506.927,5697.939369390406,1660.3019165398036,1000,3.828,-1.078,-1.835,134.8,red,283,TRUE
429,1662009508.313,1193.0995636102891,8264.065013428504,1000,3.622,-1.308,2.031,108.2,blue,283,TRUE
430,1662009508.408,5747.456829365408,1691.3805626775545,1000,3.809,-1.032,-1.83,119.8,red,283,TRUE
431,1662009514.049,1071.3464425463287,8188.561963280314,1000,3.247,-1.342,2.949,125.6,blue,283,TRUE
432,1662009514.153,5765.16961549029,1695.408644632824,1000,4.04,-1.353,-1.682,113.0,red,283,TRUE
433,1662009519.808,1043.1522036148556,8381.831343900092,1000,4.619,-1.388,2.437,111.8,blue,283,TRUE
434,1662009519.902,5772.356080548536,1681.9804837283993,1000,4.53,-1.332,-2.358,124.5,red,283,TRUE
435,1662009526.813,5775.396698915517,1643.2513377536136,1000,4.502,-1.478,-0.071,1141.1,red,283,TRUE
436,1662009530.085,935.1219247079779,8580.068697271048,1000,4.402,-1.391,2.134,1139.9,blue,283,TRUE
437,1662009535.881,571.4333852209752,8392.978169369117,1000,3.954,-1.208,2.627,111.7,blue,283,TRUE
438,1662009535.979,5422.921553461256,1836.9652739832227,1000,6.058,-1.357,-0.892,117.3,red,283,TRUE
439,1662009537.307,147.82594473872294,8172.837647943231,1000,3.953,-1.215,2.583,99.8,blue,283,TRUE
440,1662009537.393,5108.406425984528,2108.5097368026163,1000,6.075,-1.347,-0.85,134.4,red,283,TRUE
441,1662009539.673,-136.32009646855883,7950.10860656985,1000,3.96,-1.212,2.586,1144.0,blue,283,TRUE
442,1662009546.399,-352.4176672185681,7886.352766470533,1000,3.936,-1.232,2.571,127.3,blue,283,TRUE
443,1662009546.505,4804.794408410914,2348.8541141816004,1000,6.049,-1.414,-0.946,156.3,red,283,TRUE
444,1662009546.935,-540.0209170334666,7703.025652437879,1000,3.493,-1.341,2.769,105.9,blue,283,TRUE
445,1662009547.027,4528.455785837904,2605.805498900886,1000,5.959,-1.464,-3.035,92.5,red,283,TRUE
446,1662009547.297,-472.37510650075086,7480.817864867587,1000,3.467,-1.349,2.69,119.9,blue,283,TRUE
447,1662009547.4,4239.931289471568,2860.363036294542,1000,5.944,-1.449,-1.924,107.6,red,283,TRUE
448,1662009547.739,-463.53688925840385,7491.344630837866,1000,3.439,-1.337,2.784,100.0,blue,283,TRUE
449,1662009547.828,3905.1274748530373,3127.1199414469525,1000,5.985,-1.45,-1.911,147.0,red,283,TRUE
450,1662009548.202,-116.27583772222165,7657.205133780757,1000,3.283,-1.334,2.92,108.1,blue,283,TRUE
451,1662009548.298,3931.839690973791,3147.1742768446343,1000,6.044,-1.463,-3.037,88.1,red,283,TRUE
452,1662009548.597,145.09168964164093,7909.150669063564,1000,3.295,-1.359,2.854,104.5,blue,283,TRUE
453,1662009548.689,3949.6328945250157,3159.0955971572457,1000,6.07,-1.481,-0.088,94.9,red,283,TRUE
454,1662009548.959,439.4489825444421,8069.264032886501,1000,3.343,-1.357,2.809,104.5,blue,283,TRUE
455,1662009549.052,3947.3791084038808,3215.0051170715756,1000,6.133,-1.489,-0.081,93.1,red,283,TRUE
456,1662009549.352,604.143622778663,8070.2137667458765,1000,3.343,-1.368,2.785,120.9,blue,283,TRUE
457,1662009549.456,3977.2665994141066,3245.636278024001,1000,6.147,-1.485,-0.081,166.3,red,283,TRUE
458,1662009549.865,618.2951819585859,8091.346963844709,1000,3.338,-1.371,2.797,102.9,blue,283,TRUE
459,1662009549.954,3992.382352993118,3222.7191464211082,1000,6.158,-1.486,-0.077,98.0,red,283,TRUE
460,1662009550.242,955.7040294470567,8273.923740683449,1000,3.351,-1.37,2.789,104.7,blue,283,TRUE
461,1662009550.334,4003.5494524436112,3177.179776745101,1000,6.204,-1.488,-0.079,90.7,red,283,TRUE
462,1662009550.646,989.1902738829571,8321.200902945622,1000,3.349,-1.37,2.797,103.7,blue,283,TRUE
463,1662009550.736,4015.7818344765915,3105.0242994041287,1000,6.198,-1.485,-0.08,93.8,red,283,TRUE
464,1662009551.005,977.8151817706698,8311.634920701485,1000,3.334,-1.373,2.797,104.7,blue,283,TRUE
465,1662009551.098,4037.0268211268935,3035.1032791418966,1000,6.204,-1.48,-0.084,146.6,red,283,TRUE
466,1662009551.481,993.0228906671995,8306.066742636898,1000,3.313,-1.379,2.798,105.7,blue,283,TRUE
467,1662009551.578,4050.6716997291373,2971.1301817848866,1000,6.217,-1.479,-0.084,86.8,red,283,TRUE
468,1662009551.87,798.6175442140201,8239.398662244594,1000,3.392,-1.355,2.729,106.2,blue,283,TRUE
469,1662009551.967,4043.6938090206345,2917.945228660896,1000,6.212,-1.478,-0.085,88.7,red,283,TRUE
470,1662009552.264,597.0526866893312,8178.070486534369,1000,3.463,-1.37,2.663,104.7,blue,283,TRUE
471,1662009552.356,4040.738372507202,2916.9746155634743,1000,6.205,-1.48,-0.085,89.0,red,283,TRUE
472,1662009552.669,570.5143633667586,8169.889573312503,1000,3.422,-1.361,2.629,105.2,blue,283,TRUE
473,1662009552.76,4047.514132752507,2901.248438351444,1000,6.195,-1.482,-0.083,148.4,red,283,TRUE
474,1662009553.178,560.4495193819189,8131.217842346824,1000,3.588,-1.362,2.645,104.7,blue,283,TRUE
475,1662009553.268,4051.144331574987,2898.8616122574726,1000,6.199,-1.488,-0.076,94.4,red,283,TRUE
476,1662009553.566,472.1812868426314,8116.352959688353,1000,3.566,-1.355,2.697,107.5,blue,283,TRUE
477,1662009553.66,4010.825290575147,2977.8629742617813,1000,6.18,-1.513,-0.046,89.9,red,283,TRUE
478,1662009553.929,350.73618036203,8097.471327619901,1000,3.595,-1.366,2.485,105.9,blue,283,TRUE
479,1662009554.021,3968.9937056040194,3005.6028225462674,1000,6.177,-1.527,-0.007,93.4,red,283,TRUE
480,1662009555.22,469.7486514088496,8209.426077346352,1000,3.712,-1.371,2.487,107.4,blue,283,TRUE
481,1662009555.312,3928.52838111163,3034.3961767057203,1000,6.101,-1.517,-0.024,149.3,red,283,TRUE
482,1662009555.703,686.311156441942,8299.791426986145,1000,3.7,-1.361,2.545,105.1,blue,283,TRUE
483,1662009555.796,3870.930994228915,3145.752602770552,1000,6.016,-1.508,-0.039,89.9,red,283,TRUE
484,1662009556.082,671.693205879924,8274.110377556814,1000,3.708,-1.367,2.582,103.3,blue,283,TRUE
485,1662009556.171,3812.3559359776186,3223.0899183797105,1000,6.014,-1.501,-0.032,92.3,red,283,TRUE
486,1662009556.468,682.4001023574823,8345.124110645784,1000,3.656,-1.34,2.652,123.8,blue,283,TRUE
487,1662009556.574,3738.153549984158,3230.99612768025,1000,6.013,-1.489,-0.032,93.9,red,283,TRUE
488,1662009556.859,803.2690921727375,8381.284989031266,1000,3.619,-1.323,2.644,93.4,blue,283,TRUE
489,1662009556.937,3712.2533327326746,3181.353896842837,1000,6.026,-1.482,-0.025,149.1,red,283,TRUE
490,1662009559.299,954.827778386685,8378.726167516545,1000,2.918,-1.261,2.727,1176.5,blue,283,TRUE
491,1662009565.063,1022.1668621104341,8293.288896983513,1000,2.056,-1.513,3.129,106.2,blue,283,TRUE
492,1662009565.158,3827.081456880458,2874.657860452149,1000,3.834,-1.379,-1.6,147.9,red,283,TRUE
493,1662009569.966,1307.7821894664983,8125.312578246827,1000,1.174,-1.422,2.905,1178.2,blue,283,TRUE
494,1662009573.309,1665.3971089284405,8025.59292717231,1000,1.274,-1.493,3.095,116.6,blue,283,TRUE
495,1662009573.408,4173.4138055553685,2921.662009292338,1000,0.248,-0.898,-2.363,152.3,red,283,TRUE
496,1662009577.23,2019.4958584548137,7885.130634195728,1000,0.986,-1.427,3.067,119.8,blue,283,TRUE
497,1662009577.326,4581.322435397582,2828.9987864074737,1000,0.69,-1.006,-2.375,103.3,red,283,TRUE
498,1662009577.683,2340.4888382702943,7749.7283659713385,1000,0.846,-1.4,-3.071,105.7,blue,283,TRUE
499,1662009577.776,4978.293151353921,2742.4663258380774,1000,0.686,-1.005,-2.364,91.3,red,283,TRUE
500,1662009578.098,2662.448205712437,7688.652126149437,1000,0.624,-1.402,-2.933,112.6,blue,283,TRUE
501,1662009578.197,5389.722372243279,2666.2462674546227,1000,0.69,-1.096,-2.165,148.5,red,283,TRUE
502,1662009578.57,3020.947930307469,7618.772289220785,1000,0.535,-1.386,-2.904,107.6,blue,283,TRUE
503,1662009578.663,5787.625300818966,2598.2095347085938,1000,1.105,-1.299,-1.637,94.0,red,283,TRUE
504,1662009579.007,3111.5442210687384,7664.238595148666,1000,0.631,-1.377,-2.989,107.8,blue,283,TRUE
505,1662009579.103,5997.956941953198,2858.2445065354896,1000,1.974,-1.45,-1.296,90.9,red,283,TRUE
506,1662009579.4,3161.9681796911923,7668.692166822614,1000,0.779,-1.366,-3.095,122.8,blue,283,TRUE
507,1662009579.506,5898.271788330477,2729.089733754528,1000,2.722,-1.398,-1.396,152.5,red,283,TRUE
508,1662009579.837,3183.2818755037515,7670.26800781695,1000,0.872,-1.376,-3.1,122.9,blue,283,TRUE
509,1662009579.943,5659.180761875347,2799.6995834403865,1000,3.49,-1.297,-1.454,107.7,red,283,TRUE
510,1662009580.309,3179.4815138030085,7672.564004130109,1000,0.921,-1.362,-3.113,100.8,blue,283,TRUE
511,1662009580.397,5362.221909112264,2909.1903098889,1000,3.433,-1.34,-1.095,106.0,red,283,TRUE
512,1662009580.7,3163.2102686609487,7631.771117086133,1000,1.014,-1.38,3.115,105.3,blue,283,TRUE
513,1662009580.793,4962.979864158046,3025.5749785793355,1000,2.785,-1.468,-3.057,91.3,red,283,TRUE
514,1662009581.107,3215.9896393125873,7636.281216153498,1000,0.844,-1.38,-3.022,104.9,blue,283,TRUE
515,1662009581.198,4567.045373262404,3068.946684184506,1000,2.277,-1.355,-1.938,149.6,red,283,TRUE
516,1662009581.558,3176.070349192392,7613.910183641386,1000,0.812,-1.396,-3.029,108.3,blue,283,TRUE
517,1662009581.652,4204.379928993983,3007.559442720487,1000,1.695,-1.418,-2.05,93.7,red,283,TRUE
518,1662009581.772,3764.850278479193,2174.5811563032153,1000,6.07,-0.136,0.146,107.0,green,283,TRUE
519,1662009582.072,3194.4319062114187,7617.807043882002,1000,0.759,-1.391,-3.025,107.7,blue,283,TRUE
520,1662009582.166,3931.7911541039343,2901.0604405713784,1000,1.409,-1.366,-1.993,105.2,red,283,TRUE
521,1662009582.276,3497.091951981464,563.863381042008,1000,6.069,-0.136,0.148,99.1,green,283,TRUE
522,1662009582.555,3231.4155931738965,7610.50694134075,1000,0.737,-1.366,-3.012,107.1,blue,283,TRUE
523,1662009582.647,3806.441060080712,2604.6437334889406,1000,0.573,-1.369,-2.045,149.6,red,283,TRUE
524,1662009584.952,3241.9628213384403,7603.999205269113,1000,0.56,-1.308,-2.923,121.6,blue,283,TRUE
525,1662009585.057,4144.9414331484695,2218.171117779187,1000,5.995,-1.355,-1.626,153.6,red,283,TRUE
526,1662009587.372,3168.9597453479005,7609.486849959695,1000,2.11,-1.241,2.794,1178.4,blue,283,TRUE
527,1662009590.708,2964.0683380429477,7673.383362366057,1000,3.572,-1.332,-3.001,1188.3,blue,283,TRUE
528,1662009596.491,2689.3669347351747,7714.871749834078,1000,2.823,-1.293,-3.052,1172.5,blue,283,TRUE
529,1662009599.827,2317.4493792621156,7860.324739839129,1000,3.468,-1.176,2.793,1176.2,blue,283,TRUE
530,1662009604.671,1870.6925364025094,8124.19221451223,1000,4.302,-1.401,2.429,103.4,blue,283,TRUE
531,1662009604.761,4535.447548500585,1858.331969964629,1000,5.287,-1.491,-0.044,97.5,red,283,TRUE
532,1662009607.021,1205.4822303016156,8080.185139403528,1000,3.615,-1.166,2.515,121.8,blue,283,TRUE
533,1662009607.122,4944.077710325242,1532.8765219219538,1000,5.239,-1.481,-0.046,158.7,red,283,TRUE
534,1662009610.971,1247.8324797229384,7851.879558866788,1000,2.07,-1.319,-3.059,101.8,blue,283,TRUE
535,1662009611.06,5372.3130483722825,1304.3572485160848,1000,5.174,-1.499,-0.047,90.9,red,283,TRUE
536,1662009611.392,1429.0857493544734,7442.509361038189,1000,2.038,-1.309,2.849,105.2,blue,283,TRUE
537,1662009611.485,5784.972340285952,1161.9807060041517,1000,5.167,-1.475,-0.041,92.8,red,283,TRUE
538,1662009611.768,1713.685063114157,6961.928121231099,1000,2.301,-1.33,3.022,106.3,blue,283,TRUE
539,1662009611.861,6145.608351188664,1067.7050537051916,1000,5.148,-1.462,-0.043,147.0,red,283,TRUE
540,1662009612.221,2102.272847767366,6270.976542628178,1000,2.46,-1.353,2.923,104.5,blue,283,TRUE
541,1662009612.314,6111.481610919895,1069.4789554540364,1000,5.264,-1.462,-0.034,90.2,red,283,TRUE
542,1662009612.596,2563.7347591481575,5412.421197622564,1000,2.524,-1.344,2.449,106.7,blue,283,TRUE
543,1662009612.689,6124.476006134059,1059.3958026996431,1000,5.421,-1.44,-0.458,94.2,red,283,TRUE
544,1662009613.051,3300.7110947388787,4724.276196060467,1000,2.561,-1.383,-2.795,106.9,blue,283,TRUE
545,1662009613.144,6118.900900089645,1171.6991296172846,1000,5.34,-1.414,-0.664,96.2,red,283,TRUE
546,1662009613.448,3426.5819858931845,4179.295128462006,1000,2.565,-1.366,2.643,104.2,blue,283,TRUE
547,1662009613.54,6147.428405205742,1201.0314670309724,1000,5.133,-1.516,-0.004,147.8,red,283,TRUE
548,1662009613.881,3482.6952245443485,3626.6004989885937,1000,2.478,-1.37,2.817,123.7,blue,283,TRUE
549,1662009613.987,6191.441561888724,1195.602317690534,1000,5.035,-1.486,0.072,108.0,red,283,TRUE
550,1662009614.356,3642.0125807338277,3082.3785275300506,1000,2.111,-1.314,2.781,100.7,blue,283,TRUE
551,1662009614.445,6247.639948741125,1172.4346877325352,1000,4.972,-1.506,0.047,91.9,red,283,TRUE
552,1662009614.712,3731.6208330656614,2633.0435602866105,1000,1.703,-1.233,2.899,119.8,blue,283,TRUE
553,1662009614.822,6297.1214041851845,1143.6036292280744,1000,4.987,-1.501,0.048,88.4,red,283,TRUE
554,1662009615.121,3853.4973561645434,2142.721817454124,1000,1.473,-1.261,2.993,105.7,blue,283,TRUE
555,1662009615.213,6345.843166703966,1142.6117003155357,1000,4.984,-1.498,0.051,149.9,red,283,TRUE
556,1662009616.599,5849.793199950497,358.95811808536945,1000,5.042,-1.477,0.079,1175.3,red,283,TRUE
557,1662009617.989,4555.778497644401,1878.784439001942,1000,0.231,-1.318,3.133,117.2,blue,283,TRUE
558,1662009618.09,5869.803714305678,325.10509583930303,1000,5.017,-1.54,0.024,154.4,red,283,TRUE
559,1662009619.39,5125.240762059338,1528.2679518758093,1000,0.172,-1.378,-3.095,1178.7,blue,283,TRUE
560,1662009621.729,5477.895414569287,1321.7234563005998,1000,0.101,-1.405,2.97,121.6,blue,283,TRUE
561,1662009621.838,5841.562692599876,357.6554457787308,1000,4.97,-1.505,-0.038,162.4,red,283,TRUE
562,1662009622.272,5729.2726673265215,1265.3172274440674,1000,0.1,-1.321,2.949,150.8,blue,283,TRUE
563,1662009622.412,5787.148669376203,413.84189898349877,1000,4.925,-1.466,-0.045,90.6,red,283,TRUE
564,1662009622.696,6010.429538266002,1264.0842592042357,1000,0.104,-1.294,2.899,105.2,blue,283,TRUE
565,1662009622.788,5722.4066335249545,465.6063039715596,1000,4.967,-1.49,-0.007,95.7,red,283,TRUE
566,1662009626.522,5615.384654568011,758.7532040758679,1000,5.354,-1.305,-2.844,1176.8,red,283,TRUE
567,1662009627.894,6232.75419118449,1312.2633135237577,1000,6.102,-1.421,2.851,121.5,blue,283,TRUE
568,1662009627.997,6077.96013794035,1537.8031772478134,1000,5.4,-1.283,-2.851,167.9,red,283,TRUE
569,1662009628.365,5867.217212822933,1301.3415457990325,1000,6.073,-1.415,2.863,120.8,blue,283,TRUE
570,1662009628.468,5984.586506374471,1635.6306770840758,1000,5.423,-1.273,-2.884,96.9,red,283,TRUE
571,1662009628.742,5614.911144826299,1403.5388569838267,1000,6.073,-1.41,2.841,105.1,blue,283,TRUE
572,1662009628.837,5930.725860429866,1686.1285812100834,1000,5.418,-1.263,-2.879,87.4,red,283,TRUE
573,1662009629.135,5594.711969617208,1474.8519465404706,1000,6.076,-1.409,2.841,104.1,blue,283,TRUE
574,1662009629.224,5882.111516731101,1741.0069337111227,1000,5.403,-1.257,-2.86,98.5,red,283,TRUE
575,1662009629.588,5592.5871517099085,1482.8882847995585,1000,6.077,-1.407,2.844,101.0,blue,283,TRUE
576,1662009629.676,5864.022721829252,1791.421436652974,1000,5.406,-1.254,-2.85,149.3,red,283,TRUE
577,1662009630.035,5618.098526438168,1454.4710938954552,1000,6.221,-1.354,2.631,107.5,blue,283,TRUE
578,1662009630.129,5877.739859913093,1615.209739527708,1000,5.405,-1.237,-2.855,92.9,red,283,TRUE
579,1662009630.442,5649.126148339764,1514.8243563911817,1000,0.231,-1.254,2.514,107.6,blue,283,TRUE
580,1662009630.535,5885.288807543519,1599.0973741971357,1000,5.504,-1.213,-3.038,94.7,red,283,TRUE
581,1662009630.878,5715.9896037910585,1562.155509459412,1000,0.187,-1.226,2.462,122.1,blue,283,TRUE
582,1662009630.983,5896.309252689737,1586.1143516657094,1000,5.7,-1.214,3.002,152.1,red,283,TRUE
583,1662009632.35,5823.633527394271,1488.2102705231266,1000,0.601,-1.266,2.427,128.6,blue,283,TRUE
584,1662009632.466,5896.569425914263,1586.6944390428296,1000,5.572,-1.244,3.138,117.9,red,283,TRUE
585,1662009633.789,6224.937809493252,1491.7097297800692,1000,0.968,-1.386,2.151,94.1,blue,283,TRUE
586,1662009633.872,5922.849813303347,1586.5445660137966,1000,5.441,-1.437,-1.532,117.1,red,283,TRUE
587,1662009635.186,6585.339116195607,1512.5073999170247,1000,0.746,-1.427,2.465,99.8,blue,283,TRUE
588,1662009635.273,5942.33086048168,1581.1561702301103,1000,5.318,-1.398,-1.241,118.4,red,283,TRUE
589,1662009636.593,6909.636568683756,1551.8157620153215,1000,0.8,-1.426,2.525,109.5,blue,283,TRUE
590,1662009636.689,5891.201885101345,1531.1136666440564,1000,4.392,-1.449,-1.413,118.4,red,283,TRUE
591,1662009636.782,3664.4903385693574,-2672.14476452701,1000,5.584,-1.187,0.242,122.2,yellow,283,TRUE
592,1662009637.108,7239.942893960239,1523.0476346509931,1000,0.805,-1.427,2.522,107.8,blue,283,TRUE
593,1662009637.201,5851.41117550553,1504.4778771648892,1000,4.687,-1.524,-0.045,118.7,red,283,TRUE
594,1662009638.519,7545.149994061023,1500.0542153094345,1000,0.806,-1.425,2.547,113.7,blue,283,TRUE
595,1662009638.621,5808.245824526767,1482.7089211266712,1000,4.722,-1.508,-0.015,116.6,red,283,TRUE
596,1662009644.291,7608.078882016235,1457.1967802885417,1000,6.039,-1.319,2.446,123.3,blue,283,TRUE
597,1662009644.399,5771.1196056946055,1380.8249574486854,1000,4.897,-1.475,-3.053,119.7,red,283,TRUE
598,1662009646.668,7306.081639984892,1330.3758389616644,1000,5.572,-1.321,2.886,1139.8,blue,283,TRUE
599,1662009651.144,5682.038196281552,1254.9141230373848,1000,4.988,-1.504,-0.05,1140.7,red,283,TRUE
600,1662009654.414,7102.4745367681135,1250.6445699073859,1000,5.869,-1.373,2.854,114.8,blue,283,TRUE
601,1662009654.536,4231.635517263742,989.2468925260295,1000,3.203,-1.356,-1.852,1102.4,red,283,TRUE
602,1662009661.197,6727.006224111282,1177.30651094692,1000,5.597,-1.445,1.824,115.4,blue,283,TRUE
603,1662009661.293,3742.5461210290277,290.9352180724096,1000,1.564,-1.341,-0.669,125.0,red,283,TRUE
