,timestamp,x,y,z,yaw,roll,pitch,latency,student,session,success
0,1659925937.778,1429,3350,750,2.616,0.112,0.219,98.2,red,777,TRUE
1,1659925937.88,1534,7430,882,3.524,0.299,-0.079,85.7,yellow,777,TRUE
2,1659925937.965,4845,6164,2527,0.86,0.125,0.325,93.4,green,777,TRUE
3,1659925938.137,5365,2075,3351,2.932,-0.254,0.074,89.1,blue,777,TRUE
4,1659925938.226,1430,3353,750,2.616,0.112,0.219,93.4,red,777,TRUE
5,1659925938.336,1524,7462,882,3.524,0.299,-0.077,93.7,yellow,777,TRUE
6,1659925938.429,4846,6172,2527,0.86,0.125,0.325,108.7,green,777,TRUE
7,1659925938.863,1525,7464,882,3.524,0.298,-0.076,93.8,yellow,777,TRUE
8,1659925938.956,4847,6178,2527,0.86,0.125,0.325,93.6,green,777,TRUE
9,1659925939.131,5342,2082,3351,2.932,-0.254,0.074,95.7,blue,777,TRUE
10,1659925939.227,1404,3359,750,2.616,0.112,0.219,93.8,red,777,TRUE
11,1659925939.336,1506,7458,882,3.524,0.299,-0.076,94.9,yellow,777,TRUE
12,1659925939.431,4885,6175,2527,0.86,0.125,0.325,94.0,green,777,TRUE
13,1659925939.603,5341,2088,3351,2.932,-0.254,0.074,99.2,blue,777,TRUE
14,1659925939.71,1403,3363,750,2.616,0.112,0.219,94.5,red,777,TRUE
15,1659925939.804,1494,7467,882,3.548,0.298,-0.081,93.4,yellow,777,TRUE
16,1659925939.898,4882,6168,2527,0.86,0.125,0.325,94.1,green,777,TRUE
17,1659925940.079,5338,2087,3351,2.932,-0.254,0.074,93.8,blue,777,TRUE
18,1659925940.172,1401,3367,750,2.616,0.112,0.219,93.7,red,777,TRUE
19,1659925940.266,1494,7474,882,3.575,0.292,-0.068,94.1,yellow,777,TRUE
20,1659925940.376,4873,6157,2527,0.86,0.125,0.325,93.9,green,777,TRUE
21,1659925940.564,5342,2084,3351,2.932,-0.254,0.074,98.9,blue,777,TRUE
22,1659925940.664,1401,3371,750,2.616,0.112,0.219,93.9,red,777,TRUE
23,1659925940.899,4864,6150,2527,0.86,0.125,0.325,98.2,green,777,TRUE
24,1659925941.075,5337,2081,3351,2.932,-0.254,0.074,93.7,blue,777,TRUE
25,1659925941.169,1400,3373,750,2.616,0.112,0.219,95.1,red,777,TRUE
26,1659925941.265,1416,7298,882,3.547,0.299,-0.072,95.0,yellow,777,TRUE
27,1659925941.376,4874,6159,2527,0.86,0.125,0.325,93.7,green,777,TRUE
28,1659925941.548,5341,2081,3351,2.932,-0.254,0.074,98.5,blue,777,TRUE
29,1659925941.872,4873,6158,2527,0.86,0.125,0.325,92.5,green,777,TRUE
30,1659925942.043,5342,2080,3351,2.932,-0.254,0.074,93.5,blue,777,TRUE
31,1659925942.136,1406,3350,750,2.616,0.112,0.219,102.7,red,777,TRUE
32,1659925942.239,1386,7269,882,3.559,0.291,-0.076,93.7,yellow,777,TRUE
33,1659925942.348,4872,6149,2527,0.86,0.125,0.325,94.1,green,777,TRUE
34,1659925942.523,5340,2078,3351,2.932,-0.254,0.074,90.6,blue,777,TRUE
35,1659925942.723,1371,7215,882,3.598,0.288,-0.072,95.5,yellow,777,TRUE
36,1659925942.998,5342,2079,3351,2.932,-0.254,0.074,93.6,blue,777,TRUE
37,1659925943.091,1405,3356,750,2.616,0.112,0.219,92.2,red,777,TRUE
38,1659925943.184,1369,7209,882,3.571,0.298,-0.085,94.9,yellow,777,TRUE
39,1659925943.279,4835,6145,2527,0.86,0.125,0.325,94.1,green,777,TRUE
40,1659925943.459,5389,2124,3351,2.932,-0.254,0.074,93.8,blue,777,TRUE
41,1659925943.553,1405,3354,750,2.616,0.112,0.219,93.7,red,777,TRUE
42,1659925943.647,1362,7198,882,3.567,0.298,-0.073,95.4,yellow,777,TRUE
43,1659925943.746,4828,6134,2527,0.86,0.125,0.325,89.3,green,777,TRUE
44,1659925943.944,5388,2129,3351,2.932,-0.254,0.074,95.7,blue,777,TRUE
45,1659925944.041,1407,3349,750,2.616,0.112,0.219,92.8,red,777,TRUE
46,1659925944.134,1390,7173,882,3.568,0.297,-0.074,93.7,yellow,777,TRUE
47,1659925944.228,4827,6135,2527,0.86,0.125,0.325,99.0,green,777,TRUE
48,1659925944.437,5432,2171,3351,2.932,-0.254,0.074,94.0,blue,777,TRUE
49,1659925944.531,1433,3352,750,2.616,0.112,0.219,93.7,red,777,TRUE
50,1659925944.625,1398,7177,882,3.568,0.297,-0.073,102.0,yellow,777,TRUE
51,1659925944.742,4819,6123,2527,0.86,0.125,0.325,84.8,green,777,TRUE
52,1659925944.921,5435,2169,3351,2.932,-0.254,0.074,85.1,blue,777,TRUE
53,1659925945.006,1432,3348,750,2.616,0.112,0.219,93.7,red,777,TRUE
54,1659925945.1,1453,7192,882,3.568,0.297,-0.073,93.5,yellow,777,TRUE
55,1659925945.193,4816,6114,2527,0.86,0.125,0.325,96.5,green,777,TRUE
56,1659925945.399,5435,2167,3351,2.932,-0.254,0.074,93.6,blue,777,TRUE
57,1659925945.492,1430,3350,750,2.616,0.112,0.219,95.5,red,777,TRUE
58,1659925945.59,1466,7210,882,3.569,0.297,-0.072,96.1,yellow,777,TRUE
59,1659925945.686,4814,6116,2527,0.86,0.125,0.325,99.0,green,777,TRUE
60,1659925945.871,5439,2165,3351,2.932,-0.254,0.074,82.3,blue,777,TRUE
61,1659925945.969,1431,3349,750,2.616,0.112,0.219,95.4,red,777,TRUE
62,1659925946.064,1479,7209,882,3.569,0.295,-0.071,93.7,yellow,777,TRUE
63,1659925946.158,4826,6128,2527,0.86,0.125,0.325,92.3,green,777,TRUE
64,1659925947.313,5438,2165,3351,2.932,-0.254,0.074,95.9,blue,777,TRUE
65,1659925947.409,1432,3352,750,2.616,0.112,0.219,93.4,red,777,TRUE
66,1659925947.612,4829,6129,2527,0.86,0.125,0.325,98.8,green,777,TRUE
67,1659925947.917,1432,3347,750,2.616,0.112,0.219,93.8,red,777,TRUE
68,1659925948.01,1491,7223,882,3.569,0.295,-0.072,86.8,yellow,777,TRUE
69,1659925948.097,4833,6130,2527,0.86,0.125,0.325,93.7,green,777,TRUE
70,1659925948.285,5425,2183,3351,2.932,-0.254,0.074,93.2,blue,777,TRUE
71,1659925948.394,1428,3364,750,2.616,0.112,0.219,93.9,red,777,TRUE
72,1659925948.503,1530,7247,882,3.569,0.293,-0.071,93.7,yellow,777,TRUE
73,1659925948.597,4845,6143,2527,0.86,0.125,0.325,97.0,green,777,TRUE
74,1659925948.791,5423,2184,3351,2.932,-0.254,0.074,94.0,blue,777,TRUE
75,1659925948.885,1429,3370,750,2.616,0.112,0.219,95.8,red,777,TRUE
76,1659925948.997,1499,7235,882,3.569,0.293,-0.071,78.2,yellow,777,TRUE
77,1659925949.075,4847,6145,2527,0.86,0.125,0.325,93.6,green,777,TRUE
78,1659925949.267,5424,2183,3351,2.932,-0.254,0.074,87.8,blue,777,TRUE
79,1659925949.354,1432,3369,750,2.616,0.112,0.219,93.7,red,777,TRUE
80,1659925949.463,1561,7285,882,3.569,0.293,-0.071,78.4,yellow,777,TRUE
81,1659925949.542,4880,6111,2527,0.86,0.125,0.325,89.3,green,777,TRUE
82,1659925949.709,5423,2180,3351,2.932,-0.254,0.074,93.8,blue,777,TRUE
83,1659925949.803,1430,3367,750,2.616,0.112,0.219,98.6,red,777,TRUE
84,1659925949.911,1578,7290,882,3.569,0.293,-0.071,94.8,yellow,777,TRUE
85,1659925950.021,4886,6119,2527,0.86,0.125,0.325,93.7,green,777,TRUE
86,1659925950.196,5424,2182,3351,2.932,-0.254,0.074,87.1,blue,777,TRUE
87,1659925950.284,1429,3371,750,2.616,0.112,0.219,95.3,red,777,TRUE
88,1659925950.379,1598,7300,882,3.569,0.293,-0.071,93.4,yellow,777,TRUE
89,1659925950.488,4891,6131,2527,0.86,0.125,0.325,85.1,green,777,TRUE
90,1659925950.652,5419,2185,3351,2.932,-0.254,0.074,93.7,blue,777,TRUE
91,1659925950.745,1426,3375,750,2.616,0.112,0.219,94.7,red,777,TRUE
92,1659925950.84,1590,7297,882,3.569,0.293,-0.071,94.0,yellow,777,TRUE
93,1659925950.95,4900,6141,2527,0.86,0.125,0.325,93.7,green,777,TRUE
94,1659925951.244,1425,3370,750,2.616,0.112,0.219,93.7,red,777,TRUE
95,1659925951.338,1593,7300,882,3.569,0.293,-0.071,98.5,yellow,777,TRUE
96,1659925951.66,5416,2187,3351,2.932,-0.254,0.074,97.4,blue,777,TRUE
97,1659925951.761,1427,3369,750,2.616,0.112,0.219,89.5,red,777,TRUE
98,1659925951.85,1569,7291,882,3.569,0.293,-0.071,93.8,yellow,777,TRUE
99,1659925951.944,4922,6143,2527,0.86,0.125,0.325,95.7,green,777,TRUE
100,1659925952.134,5414,2190,3351,2.932,-0.254,0.074,94.9,blue,777,TRUE
101,1659925952.229,1428,3368,750,2.616,0.112,0.219,93.7,red,777,TRUE
102,1659925952.323,1581,7268,882,3.569,0.293,-0.071,95.5,yellow,777,TRUE
103,1659925952.418,4928,6144,2527,0.86,0.125,0.325,93.4,green,777,TRUE
104,1659925952.607,5412,2184,3351,2.932,-0.254,0.074,97.3,blue,777,TRUE
105,1659925952.706,1430,3369,750,2.616,0.112,0.219,98.9,red,777,TRUE
106,1659925952.915,4916,6134,2527,0.86,0.125,0.325,93.4,green,777,TRUE
107,1659925953.102,5410,2187,3351,2.932,-0.254,0.074,93.8,blue,777,TRUE
108,1659925953.196,1428,3370,750,2.616,0.112,0.219,98.6,red,777,TRUE
109,1659925953.301,1675,7440,882,3.569,0.293,-0.071,80.0,yellow,777,TRUE
110,1659925953.381,4916,6133,2527,0.86,0.125,0.325,93.7,green,777,TRUE
111,1659925953.552,5426,2164,3351,2.932,-0.254,0.074,92.8,blue,777,TRUE
112,1659925953.645,1427,3371,750,2.616,0.112,0.219,93.7,red,777,TRUE
113,1659925953.739,1677,7439,882,3.569,0.293,-0.071,93.7,yellow,777,TRUE
114,1659925953.833,4910,6132,2527,0.86,0.125,0.325,104.6,green,777,TRUE
115,1659925954.047,5430,2160,3351,2.932,-0.254,0.074,93.7,blue,777,TRUE
116,1659925954.14,1423,3371,750,2.616,0.112,0.219,106.7,red,777,TRUE
117,1659925954.247,1687,7438,882,3.569,0.293,-0.071,93.8,yellow,777,TRUE
118,1659925954.341,4906,6133,2527,0.86,0.125,0.325,93.7,green,777,TRUE
119,1659925954.528,5436,2159,3351,2.932,-0.254,0.074,91.5,blue,777,TRUE
120,1659925954.619,1422,3371,750,2.616,0.112,0.219,93.1,red,777,TRUE
121,1659925954.712,1727,7443,882,3.569,0.293,-0.071,93.7,yellow,777,TRUE
122,1659925954.806,4914,6140,2527,0.86,0.125,0.325,90.2,green,777,TRUE
123,1659925955.006,5437,2164,3351,2.932,-0.254,0.074,93.7,blue,777,TRUE
124,1659925955.115,1422,3371,750,2.616,0.112,0.219,91.5,red,777,TRUE
125,1659925955.207,1729,7441,882,3.569,0.293,-0.071,93.7,yellow,777,TRUE
126,1659925955.3,4922,6178,2527,0.86,0.125,0.325,93.8,green,777,TRUE
127,1659925955.485,5433,2169,3351,2.932,-0.254,0.074,93.8,blue,777,TRUE
128,1659925955.579,1423,3372,750,2.616,0.112,0.219,93.4,red,777,TRUE
129,1659925955.673,1733,7441,882,3.569,0.293,-0.071,89.4,yellow,777,TRUE
130,1659925955.765,4928,6182,2527,0.86,0.125,0.325,90.8,green,777,TRUE
131,1659925955.949,5432,2170,3351,2.932,-0.254,0.074,93.4,blue,777,TRUE
132,1659925956.059,1423,3373,750,2.616,0.112,0.219,83.6,red,777,TRUE
133,1659925956.158,1735,7434,882,3.569,0.293,-0.071,93.7,yellow,777,TRUE
134,1659925956.252,4921,6167,2527,0.86,0.125,0.325,93.8,green,777,TRUE
135,1659925956.442,5437,2170,3351,2.932,-0.254,0.074,93.8,blue,777,TRUE
136,1659925956.536,1428,3373,750,2.616,0.112,0.219,93.4,red,777,TRUE
137,1659925956.629,1735,7433,882,3.569,0.293,-0.071,107.7,yellow,777,TRUE
138,1659925956.737,4910,6155,2527,0.86,0.125,0.325,93.7,green,777,TRUE
139,1659925956.925,5434,2173,3351,2.932,-0.254,0.074,90.0,blue,777,TRUE
140,1659925957.015,1428,3373,750,2.616,0.112,0.219,93.7,red,777,TRUE
141,1659925957.124,1733,7426,882,3.569,0.293,-0.071,93.7,yellow,777,TRUE
142,1659925957.218,4900,6169,2527,0.86,0.125,0.325,92.3,green,777,TRUE
143,1659925957.404,5434,2177,3351,2.932,-0.254,0.074,93.7,blue,777,TRUE
144,1659925957.498,1427,3374,750,2.616,0.112,0.219,96.3,red,777,TRUE
145,1659925957.594,1732,7421,882,3.569,0.293,-0.071,86.7,yellow,777,TRUE
146,1659925957.681,4896,6169,2527,0.86,0.125,0.325,93.7,green,777,TRUE
147,1659925957.852,5433,2178,3351,2.932,-0.254,0.074,91.5,blue,777,TRUE
148,1659925957.944,1427,3376,750,2.616,0.112,0.219,93.5,red,777,TRUE
149,1659925959.124,4894,6166,2527,0.86,0.125,0.325,94.3,green,777,TRUE
150,1659925959.313,5431,2185,3351,2.932,-0.254,0.074,94.9,blue,777,TRUE
151,1659925959.41,1426,3378,750,2.616,0.112,0.219,93.5,red,777,TRUE
152,1659925959.504,1728,7419,882,3.569,0.293,-0.071,93.7,yellow,777,TRUE
153,1659925959.598,4894,6164,2527,0.86,0.125,0.325,93.7,green,777,TRUE
154,1659925959.79,5430,2186,3351,2.932,-0.254,0.074,93.7,blue,777,TRUE
155,1659925959.884,1428,3373,750,2.616,0.112,0.219,93.8,red,777,TRUE
156,1659925959.977,1728,7421,882,3.569,0.293,-0.071,98.7,yellow,777,TRUE
157,1659925960.076,4897,6168,2527,0.86,0.125,0.325,93.7,green,777,TRUE
158,1659925960.279,5424,2196,3351,2.932,-0.254,0.074,102.8,blue,777,TRUE
159,1659925960.382,1431,3374,750,2.616,0.112,0.219,93.8,red,777,TRUE
160,1659925960.476,1759,7412,882,3.569,0.293,-0.071,93.8,yellow,777,TRUE
161,1659925960.569,4892,6168,2527,0.86,0.125,0.325,96.9,green,777,TRUE
162,1659925960.759,5419,2201,3351,2.932,-0.254,0.074,97.5,blue,777,TRUE
163,1659925960.973,1764,7422,882,3.569,0.293,-0.071,88.1,yellow,777,TRUE
164,1659925961.061,4896,6166,2527,0.86,0.125,0.325,93.8,green,777,TRUE
165,1659925961.265,5411,2203,3351,2.932,-0.254,0.074,83.5,blue,777,TRUE
166,1659925961.349,1441,3352,750,2.616,0.112,0.219,93.8,red,777,TRUE
167,1659925961.443,1764,7419,882,3.569,0.293,-0.071,93.6,yellow,777,TRUE
168,1659925961.536,4898,6176,2527,0.86,0.125,0.325,97.1,green,777,TRUE
169,1659925961.728,5411,2200,3351,2.932,-0.254,0.074,93.7,blue,777,TRUE
170,1659925961.822,1440,3350,750,2.616,0.112,0.219,101.4,red,777,TRUE
171,1659925961.923,1767,7426,882,3.569,0.293,-0.071,93.7,yellow,777,TRUE
172,1659925962.239,5415,2198,3351,2.932,-0.254,0.074,93.8,blue,777,TRUE
173,1659925962.333,1439,3348,750,2.616,0.112,0.219,95.3,red,777,TRUE
174,1659925962.428,1737,7429,882,3.569,0.293,-0.071,96.7,yellow,777,TRUE
175,1659925963.683,5413,2195,3351,2.932,-0.254,0.074,96.4,blue,777,TRUE
176,1659925963.78,1439,3342,750,2.616,0.112,0.219,93.7,red,777,TRUE
177,1659925964.211,5414,2192,3351,2.932,-0.254,0.074,93.5,blue,777,TRUE
178,1659925964.304,1432,3341,750,2.616,0.112,0.219,96.4,red,777,TRUE
179,1659925964.401,1691,7398,882,3.569,0.293,-0.071,93.7,yellow,777,TRUE
180,1659925964.51,4915,6150,2527,0.86,0.125,0.325,93.7,green,777,TRUE
181,1659925964.703,5415,2191,3351,2.932,-0.254,0.074,94.1,blue,777,TRUE
182,1659925964.797,1431,3343,750,2.616,0.112,0.219,93.7,red,777,TRUE
183,1659925964.89,1692,7400,882,3.569,0.293,-0.071,96.1,yellow,777,TRUE
184,1659925965.207,5420,2186,3351,2.932,-0.254,0.074,98.9,blue,777,TRUE
185,1659925965.305,1431,3340,750,2.616,0.112,0.219,93.7,red,777,TRUE
186,1659925965.399,1695,7404,882,3.569,0.293,-0.071,93.8,yellow,777,TRUE
187,1659925965.493,4890,6160,2527,0.86,0.125,0.325,97.6,green,777,TRUE
188,1659925965.673,5425,2182,3351,2.932,-0.254,0.074,93.7,blue,777,TRUE
189,1659925965.766,1432,3336,750,2.616,0.112,0.219,95.0,red,777,TRUE
190,1659925965.864,1696,7406,882,3.569,0.293,-0.071,90.9,yellow,777,TRUE
191,1659925965.955,4897,6167,2527,0.86,0.125,0.325,93.7,green,777,TRUE
192,1659925966.143,5427,2184,3351,2.932,-0.254,0.074,101.4,blue,777,TRUE
193,1659925966.26,1434,3336,750,2.616,0.112,0.219,94.0,red,777,TRUE
194,1659925966.354,1700,7411,882,3.569,0.293,-0.071,93.7,yellow,777,TRUE
195,1659925966.447,4901,6173,2527,0.86,0.125,0.325,97.0,green,777,TRUE
196,1659925966.638,5430,2183,3351,2.932,-0.254,0.074,93.7,blue,777,TRUE
197,1659925966.732,1432,3337,750,2.616,0.112,0.219,106.3,red,777,TRUE
198,1659925966.838,1696,7399,882,3.569,0.293,-0.071,93.6,yellow,777,TRUE
199,1659925967.161,5431,2179,3351,2.932,-0.254,0.074,93.8,blue,777,TRUE
200,1659925967.27,1430,3331,750,2.616,0.112,0.219,93.8,red,777,TRUE
201,1659925967.364,1660,7397,882,3.569,0.293,-0.071,94.6,yellow,777,TRUE
202,1659925967.459,4907,6184,2527,0.86,0.125,0.325,95.2,green,777,TRUE
203,1659925967.648,5432,2181,3351,2.932,-0.254,0.074,96.5,blue,777,TRUE
204,1659925967.745,1420,3354,750,2.616,0.112,0.219,96.4,red,777,TRUE
205,1659925967.842,1654,7387,882,3.569,0.293,-0.071,95.1,yellow,777,TRUE
206,1659925967.937,4912,6187,2527,0.86,0.125,0.325,100.2,green,777,TRUE
207,1659925968.128,5434,2179,3351,2.932,-0.254,0.074,93.7,blue,777,TRUE
208,1659925968.237,1420,3363,750,2.616,0.112,0.219,100.6,red,777,TRUE
209,1659925968.337,1659,7394,882,3.569,0.293,-0.071,95.8,yellow,777,TRUE
210,1659925968.433,4910,6186,2527,0.86,0.125,0.325,93.7,green,777,TRUE
211,1659925968.621,5433,2180,3351,2.932,-0.254,0.074,92.2,blue,777,TRUE
212,1659925968.713,1418,3363,750,2.616,0.112,0.219,94.1,red,777,TRUE
213,1659925968.807,1657,7399,882,3.569,0.293,-0.071,98.4,yellow,777,TRUE
214,1659925969.113,5431,2179,3351,2.932,-0.254,0.074,95.3,blue,777,TRUE
215,1659925969.209,1417,3366,750,2.616,0.112,0.219,99.8,red,777,TRUE
216,1659925969.324,1659,7401,882,3.569,0.293,-0.071,94.0,yellow,777,TRUE
217,1659925969.418,4890,6215,2527,0.86,0.125,0.325,93.7,green,777,TRUE
218,1659925969.736,1418,3371,750,2.616,0.112,0.219,93.7,red,777,TRUE
219,1659925969.83,1708,7435,882,3.569,0.293,-0.071,91.9,yellow,777,TRUE
220,1659925969.922,4852,6213,2527,0.86,0.125,0.325,94.0,green,777,TRUE
221,1659925970.109,5385,2141,3351,2.932,-0.254,0.074,104.8,blue,777,TRUE
222,1659925970.214,1420,3370,750,2.616,0.112,0.219,93.7,red,777,TRUE
223,1659925970.324,1708,7440,882,3.569,0.293,-0.071,93.7,yellow,777,TRUE
224,1659925970.417,4853,6210,2527,0.86,0.125,0.325,106.4,green,777,TRUE
225,1659925970.619,5386,2140,3351,2.932,-0.254,0.074,93.7,blue,777,TRUE
226,1659925970.713,1420,3375,750,2.616,0.112,0.219,97.0,red,777,TRUE
227,1659925970.914,4889,6207,2527,0.86,0.125,0.325,93.7,green,777,TRUE
228,1659925971.221,1423,3379,750,2.616,0.112,0.219,93.4,red,777,TRUE
229,1659925971.33,1705,7440,882,3.569,0.293,-0.071,95.6,yellow,777,TRUE
230,1659925971.426,4891,6209,2527,0.86,0.125,0.325,94.5,green,777,TRUE
231,1659925971.614,5357,2109,3351,2.932,-0.254,0.074,98.6,blue,777,TRUE
232,1659925971.715,1423,3382,750,2.616,0.112,0.219,91.3,red,777,TRUE
233,1659925971.806,1705,7443,882,3.569,0.293,-0.071,93.5,yellow,777,TRUE
234,1659925971.899,4883,6198,2527,0.86,0.125,0.325,98.2,green,777,TRUE
235,1659925972.081,5357,2109,3351,2.932,-0.254,0.074,94.1,blue,777,TRUE
236,1659925972.175,1421,3378,750,2.616,0.112,0.219,93.6,red,777,TRUE
237,1659925972.284,1706,7444,882,3.569,0.293,-0.071,96.5,yellow,777,TRUE
238,1659925972.381,4876,6188,2527,0.86,0.125,0.325,93.1,green,777,TRUE
239,1659925972.568,5354,2110,3351,2.932,-0.254,0.074,94.2,blue,777,TRUE
240,1659925972.663,1420,3376,750,2.616,0.112,0.219,83.0,red,777,TRUE
241,1659925972.746,1710,7449,882,3.569,0.293,-0.071,93.7,yellow,777,TRUE
242,1659925972.84,4874,6182,2527,0.86,0.125,0.325,95.4,green,777,TRUE
243,1659925973.03,5350,2113,3351,2.932,-0.254,0.074,93.7,blue,777,TRUE
244,1659925973.252,1713,7451,882,3.569,0.293,-0.071,83.1,yellow,777,TRUE
245,1659925973.351,4870,6180,2527,0.86,0.125,0.325,93.7,green,777,TRUE
246,1659925973.543,5349,2108,3351,2.932,-0.254,0.074,95.3,blue,777,TRUE
247,1659925973.795,1711,7450,882,3.569,0.293,-0.071,98.4,yellow,777,TRUE
248,1659925973.893,4873,6180,2527,0.86,0.125,0.325,93.8,green,777,TRUE
249,1659925974.081,5346,2111,3351,2.932,-0.254,0.074,101.2,blue,777,TRUE
250,1659925974.182,1441,3409,750,2.616,0.112,0.219,93.7,red,777,TRUE
251,1659925974.275,1707,7450,882,3.569,0.293,-0.071,93.8,yellow,777,TRUE
252,1659925974.385,4874,6181,2527,0.86,0.125,0.325,108.6,green,777,TRUE
253,1659925974.587,5345,2112,3351,2.932,-0.254,0.074,95.6,blue,777,TRUE
254,1659925974.682,1442,3410,750,2.616,0.112,0.219,93.7,red,777,TRUE
255,1659925974.777,1707,7442,882,3.569,0.293,-0.071,83.9,yellow,777,TRUE
256,1659925974.861,4901,6168,2527,0.86,0.125,0.325,93.7,green,777,TRUE
257,1659925975.033,5344,2113,3351,2.932,-0.254,0.074,94.1,blue,777,TRUE
258,1659925975.127,1443,3406,750,2.616,0.112,0.219,93.5,red,777,TRUE
259,1659925975.221,1706,7447,882,3.569,0.293,-0.071,93.7,yellow,777,TRUE
260,1659925975.33,4892,6158,2527,0.86,0.125,0.325,85.8,green,777,TRUE
261,1659925975.51,5389,2156,3351,2.932,-0.254,0.074,93.7,blue,777,TRUE
262,1659925975.604,1441,3402,750,2.616,0.112,0.219,95.9,red,777,TRUE
263,1659925975.701,1706,7444,882,3.569,0.293,-0.071,95.8,yellow,777,TRUE
264,1659925975.796,4890,6151,2527,0.86,0.125,0.325,93.7,green,777,TRUE
265,1659925975.968,5385,2159,3351,2.932,-0.254,0.074,94.4,blue,777,TRUE
266,1659925976.063,1441,3406,750,2.616,0.112,0.219,94.0,red,777,TRUE
267,1659925976.157,1704,7441,882,3.569,0.293,-0.071,93.4,yellow,777,TRUE
268,1659925976.25,4885,6147,2527,0.86,0.125,0.325,101.7,green,777,TRUE
269,1659925976.461,5381,2161,3351,2.932,-0.254,0.074,93.5,blue,777,TRUE
270,1659925976.555,1439,3398,750,2.616,0.112,0.219,95.2,red,777,TRUE
271,1659925976.65,1704,7443,882,3.569,0.293,-0.071,90.5,yellow,777,TRUE
272,1659925976.74,4872,6135,2527,0.86,0.125,0.325,93.9,green,777,TRUE
273,1659925977.02,1437,3400,750,2.616,0.112,0.219,93.8,red,777,TRUE
274,1659925977.114,1706,7444,882,3.569,0.293,-0.071,93.7,yellow,777,TRUE
275,1659925977.208,4862,6126,2527,0.86,0.125,0.325,85.2,green,777,TRUE
276,1659925977.388,5413,2242,3351,2.932,-0.254,0.074,93.7,blue,777,TRUE
277,1659925977.481,1454,3415,750,2.616,0.112,0.219,91.2,red,777,TRUE
278,1659925977.573,1706,7441,882,3.569,0.293,-0.071,93.7,yellow,777,TRUE
279,1659925977.666,4875,6141,2527,0.86,0.125,0.325,95.1,green,777,TRUE
280,1659925977.856,5411,2241,3351,2.932,-0.254,0.074,87.7,blue,777,TRUE
281,1659925977.944,1453,3416,750,2.616,0.112,0.219,93.8,red,777,TRUE
282,1659925978.038,1739,7443,882,3.569,0.293,-0.071,93.7,yellow,777,TRUE
283,1659925978.131,4879,6148,2527,0.86,0.125,0.325,89.8,green,777,TRUE
284,1659925978.315,5410,2241,3351,2.932,-0.254,0.074,93.8,blue,777,TRUE
285,1659925978.424,1454,3414,750,2.616,0.112,0.219,91.1,red,777,TRUE
286,1659925978.515,1736,7443,882,3.569,0.293,-0.071,93.7,yellow,777,TRUE
287,1659925978.609,4879,6148,2527,0.86,0.125,0.325,94.0,green,777,TRUE
288,1659925978.808,5415,2243,3351,2.932,-0.254,0.074,93.5,blue,777,TRUE
289,1659925978.902,1459,3377,750,2.616,0.112,0.219,95.9,red,777,TRUE
290,1659925978.998,1735,7440,882,3.569,0.293,-0.071,99.8,yellow,777,TRUE
291,1659925979.1,4869,6136,2527,0.86,0.125,0.325,94.9,green,777,TRUE
292,1659925979.273,5415,2245,3351,2.932,-0.254,0.074,93.7,blue,777,TRUE
293,1659925979.382,1434,3378,750,2.616,0.112,0.219,96.3,red,777,TRUE
294,1659925979.478,1732,7440,882,3.569,0.293,-0.071,93.7,yellow,777,TRUE
295,1659925979.572,4853,6121,2527,0.86,0.125,0.325,93.7,green,777,TRUE
296,1659925979.75,5418,2247,3351,2.932,-0.254,0.074,94.1,blue,777,TRUE
297,1659925979.844,1432,3375,750,2.616,0.112,0.219,93.6,red,777,TRUE
298,1659925979.938,1732,7436,882,3.569,0.293,-0.071,93.2,yellow,777,TRUE
299,1659925980.033,4835,6105,2527,0.86,0.125,0.325,95.1,green,777,TRUE
300,1659925980.206,5419,2248,3351,2.932,-0.254,0.074,93.9,blue,777,TRUE
301,1659925980.3,1431,3372,750,2.616,0.112,0.219,98.5,red,777,TRUE
302,1659925980.414,1730,7433,882,3.569,0.293,-0.071,93.7,yellow,777,TRUE
303,1659925980.508,4834,6102,2527,0.86,0.125,0.325,93.7,green,777,TRUE
304,1659925980.683,5420,2248,3351,2.932,-0.254,0.074,93.8,blue,777,TRUE
305,1659925980.776,1427,3370,750,2.616,0.112,0.219,93.7,red,777,TRUE
306,1659925980.87,1725,7417,882,3.569,0.293,-0.071,96.6,yellow,777,TRUE
307,1659925980.967,4847,6120,2527,0.86,0.125,0.325,93.5,green,777,TRUE
308,1659925981.138,5420,2252,3351,2.932,-0.254,0.074,95.5,blue,777,TRUE
309,1659925981.237,1425,3371,750,2.616,0.112,0.219,96.0,red,777,TRUE
310,1659925981.333,1725,7420,882,3.569,0.293,-0.071,93.7,yellow,777,TRUE
311,1659925981.442,4841,6113,2527,0.86,0.125,0.325,95.5,green,777,TRUE
312,1659925981.617,5422,2249,3351,2.932,-0.254,0.074,93.7,blue,777,TRUE
313,1659925981.71,1423,3369,750,2.616,0.112,0.219,93.8,red,777,TRUE
314,1659925981.804,1726,7416,882,3.569,0.293,-0.071,102.1,yellow,777,TRUE
315,1659925981.906,4839,6116,2527,0.86,0.125,0.325,95.8,green,777,TRUE
316,1659925982.095,5423,2251,3351,2.932,-0.254,0.074,104.3,blue,777,TRUE
317,1659925982.2,1423,3365,750,2.616,0.112,0.219,93.5,red,777,TRUE
318,1659925982.293,1724,7412,882,3.569,0.293,-0.071,94.0,yellow,777,TRUE
319,1659925982.403,4843,6126,2527,0.86,0.125,0.325,94.0,green,777,TRUE
320,1659925982.59,5413,2209,3351,2.932,-0.254,0.074,98.5,blue,777,TRUE
321,1659925982.778,1721,7405,882,3.569,0.293,-0.071,85.1,yellow,777,TRUE
322,1659925982.863,4843,6122,2527,0.86,0.125,0.325,94.5,green,777,TRUE
323,1659925983.035,5415,2208,3351,2.932,-0.254,0.074,90.4,blue,777,TRUE
324,1659925983.126,1374,3319,750,2.616,0.112,0.219,93.7,red,777,TRUE
325,1659925983.22,1720,7405,882,3.569,0.293,-0.071,93.7,yellow,777,TRUE
326,1659925983.313,4831,6110,2527,0.86,0.125,0.325,95.9,green,777,TRUE
327,1659925983.528,5415,2209,3351,2.932,-0.254,0.074,93.7,blue,777,TRUE
328,1659925983.622,1373,3320,750,2.616,0.112,0.219,95.7,red,777,TRUE
329,1659925983.718,1684,7394,882,3.569,0.293,-0.071,89.1,yellow,777,TRUE
330,1659925983.807,4823,6100,2527,0.86,0.125,0.325,93.8,green,777,TRUE
331,1659925984.0,5416,2210,3351,2.932,-0.254,0.074,91.8,blue,777,TRUE
332,1659925984.092,1373,3325,750,2.616,0.112,0.219,93.5,red,777,TRUE
333,1659925984.186,1686,7398,882,3.569,0.293,-0.071,94.9,yellow,777,TRUE
334,1659925984.28,4829,6115,2527,0.86,0.125,0.325,89.6,green,777,TRUE
335,1659925984.479,5414,2207,3351,2.932,-0.254,0.074,93.7,blue,777,TRUE
336,1659925984.573,1373,3321,750,2.616,0.112,0.219,89.5,red,777,TRUE
337,1659925984.663,1686,7396,882,3.569,0.293,-0.071,95.6,yellow,777,TRUE
338,1659925984.758,4832,6116,2527,0.86,0.125,0.325,93.7,green,777,TRUE
339,1659925984.947,5415,2208,3351,2.932,-0.254,0.074,86.6,blue,777,TRUE
340,1659925985.034,1373,3323,750,2.616,0.112,0.219,93.7,red,777,TRUE
341,1659925985.128,1688,7393,882,3.569,0.293,-0.071,93.7,yellow,777,TRUE
342,1659925985.221,4845,6126,2527,0.86,0.125,0.325,90.3,green,777,TRUE
343,1659925985.406,5444,2194,3351,2.932,-0.254,0.074,78.4,blue,777,TRUE
344,1659925985.5,1372,3327,750,2.616,0.112,0.219,88.4,red,777,TRUE
345,1659925985.588,1689,7396,882,3.569,0.293,-0.071,95.5,yellow,777,TRUE
346,1659925985.683,4857,6137,2527,0.86,0.125,0.325,93.8,green,777,TRUE
347,1659925986.191,4865,6143,2527,0.86,0.125,0.325,94.0,green,777,TRUE
348,1659925986.378,5442,2197,3351,2.932,-0.254,0.074,95.2,blue,777,TRUE
349,1659925986.475,1381,3356,750,2.616,0.112,0.219,84.5,red,777,TRUE
350,1659925986.575,1659,7394,882,3.569,0.293,-0.071,93.8,yellow,777,TRUE
351,1659925986.669,4853,6129,2527,0.86,0.125,0.325,93.7,green,777,TRUE
352,1659925986.856,5442,2196,3351,2.932,-0.254,0.074,95.3,blue,777,TRUE
353,1659925986.951,1383,3353,750,2.616,0.112,0.219,101.2,red,777,TRUE
354,1659925987.052,1655,7390,882,3.569,0.293,-0.071,93.2,yellow,777,TRUE
355,1659925987.145,4852,6129,2527,0.86,0.125,0.325,93.7,green,777,TRUE
356,1659925987.317,5441,2194,3351,2.932,-0.254,0.074,96.5,blue,777,TRUE
357,1659925987.415,1386,3356,750,2.616,0.112,0.219,82.3,red,777,TRUE
358,1659925987.513,1656,7390,882,3.569,0.293,-0.071,93.7,yellow,777,TRUE
359,1659925987.622,4847,6119,2527,0.86,0.125,0.325,95.5,green,777,TRUE
360,1659925987.809,5444,2189,3351,2.932,-0.254,0.074,93.4,blue,777,TRUE
361,1659925988.114,4844,6111,2527,0.86,0.125,0.325,93.8,green,777,TRUE
362,1659925988.287,5444,2191,3351,2.932,-0.254,0.074,96.3,blue,777,TRUE
363,1659925988.384,1413,3421,750,2.616,0.112,0.219,93.8,red,777,TRUE
364,1659925988.477,1653,7388,882,3.569,0.293,-0.071,93.7,yellow,777,TRUE
365,1659925988.587,4837,6106,2527,0.86,0.125,0.325,82.7,green,777,TRUE
366,1659925988.763,5446,2190,3351,2.932,-0.254,0.074,94.0,blue,777,TRUE
367,1659925988.857,1416,3425,750,2.616,0.112,0.219,98.1,red,777,TRUE
368,1659925988.957,1655,7396,882,3.569,0.293,-0.071,93.3,yellow,777,TRUE
369,1659925989.05,4834,6102,2527,0.86,0.125,0.325,95.0,green,777,TRUE
370,1659925989.241,5447,2187,3351,2.932,-0.254,0.074,95.2,blue,777,TRUE
371,1659925989.336,1417,3427,750,2.616,0.112,0.219,93.7,red,777,TRUE
372,1659925989.54,4845,6114,2527,0.86,0.125,0.325,99.9,green,777,TRUE
373,1659925989.743,5449,2189,3351,2.932,-0.254,0.074,93.8,blue,777,TRUE
374,1659925989.837,1419,3435,750,2.616,0.112,0.219,88.7,red,777,TRUE
375,1659925989.926,1609,7384,882,3.569,0.293,-0.071,93.8,yellow,777,TRUE
376,1659925990.02,4831,6097,2527,0.86,0.125,0.325,93.4,green,777,TRUE
377,1659925990.22,5447,2189,3351,2.932,-0.254,0.074,93.8,blue,777,TRUE
378,1659925990.314,1424,3441,750,2.616,0.112,0.219,93.7,red,777,TRUE
379,1659925990.407,1637,7381,882,3.569,0.293,-0.071,94.6,yellow,777,TRUE
380,1659925990.503,4830,6098,2527,0.86,0.125,0.325,87.2,green,777,TRUE
381,1659925990.702,5447,2190,3351,2.932,-0.254,0.074,96.2,blue,777,TRUE
382,1659925990.799,1425,3435,750,2.616,0.112,0.219,86.8,red,777,TRUE
383,1659925990.886,1638,7385,882,3.569,0.293,-0.071,93.8,yellow,777,TRUE
384,1659925990.98,4824,6091,2527,0.86,0.125,0.325,95.4,green,777,TRUE
385,1659925991.181,5419,2200,3351,2.932,-0.254,0.074,94.0,blue,777,TRUE
386,1659925991.275,1425,3431,750,2.616,0.112,0.219,93.8,red,777,TRUE
387,1659925991.493,4814,6076,2527,0.86,0.125,0.325,93.8,green,777,TRUE
388,1659925991.68,5422,2194,3351,2.932,-0.254,0.074,90.1,blue,777,TRUE
389,1659925991.771,1426,3405,750,2.616,0.112,0.219,93.8,red,777,TRUE
390,1659925991.864,1555,7229,882,3.569,0.293,-0.071,93.7,yellow,777,TRUE
391,1659925991.958,4815,6078,2527,0.86,0.125,0.325,95.6,green,777,TRUE
392,1659925992.148,5419,2194,3351,2.932,-0.254,0.074,93.8,blue,777,TRUE
393,1659925992.241,1421,3401,750,2.616,0.112,0.219,95.1,red,777,TRUE
394,1659925992.337,1592,7243,882,3.569,0.293,-0.071,86.9,yellow,777,TRUE
395,1659925992.423,4818,6082,2527,0.86,0.125,0.325,93.8,green,777,TRUE
396,1659925992.627,5423,2192,3351,2.932,-0.254,0.074,90.5,blue,777,TRUE
397,1659925992.717,1419,3409,750,2.616,0.112,0.219,94.1,red,777,TRUE
398,1659925992.811,1585,7235,882,3.569,0.293,-0.071,93.7,yellow,777,TRUE
399,1659925992.905,4821,6089,2527,0.86,0.125,0.325,92.9,green,777,TRUE
400,1659925993.091,5422,2192,3351,2.932,-0.254,0.074,93.7,blue,777,TRUE
401,1659925993.185,1418,3409,750,2.616,0.112,0.219,96.2,red,777,TRUE
402,1659925993.383,4822,6090,2527,0.86,0.125,0.325,93.7,green,777,TRUE
403,1659925993.575,5419,2196,3351,2.932,-0.254,0.074,87.1,blue,777,TRUE
404,1659925993.677,1423,3375,750,2.616,0.112,0.219,95.4,red,777,TRUE
405,1659925993.773,1548,7221,882,3.569,0.293,-0.071,93.7,yellow,777,TRUE
406,1659925993.866,4821,6088,2527,0.86,0.125,0.325,89.3,green,777,TRUE
407,1659925994.092,5418,2196,3351,2.932,-0.254,0.074,99.1,blue,777,TRUE
408,1659925994.192,1420,3371,750,2.616,0.112,0.219,89.0,red,777,TRUE
409,1659925994.281,1552,7224,882,3.569,0.293,-0.071,93.7,yellow,777,TRUE
410,1659925994.375,4838,6099,2527,0.86,0.125,0.325,93.7,green,777,TRUE
411,1659925994.556,5415,2195,3351,2.932,-0.254,0.074,93.7,blue,777,TRUE
412,1659925994.666,1418,3369,750,2.616,0.112,0.219,93.7,red,777,TRUE
413,1659925994.76,1552,7222,882,3.569,0.293,-0.071,90.7,yellow,777,TRUE
414,1659925994.85,4839,6104,2527,0.86,0.125,0.325,94.0,green,777,TRUE
415,1659925995.03,5413,2199,3351,2.932,-0.254,0.074,100.2,blue,777,TRUE
416,1659925995.132,1419,3371,750,2.616,0.112,0.219,88.0,red,777,TRUE
417,1659925995.235,1598,7240,882,3.569,0.293,-0.071,93.8,yellow,777,TRUE
418,1659925995.329,4840,6106,2527,0.86,0.125,0.325,95.9,green,777,TRUE
419,1659925995.512,5410,2194,3351,2.932,-0.254,0.074,93.8,blue,777,TRUE
420,1659925995.606,1417,3361,750,2.616,0.112,0.219,99.0,red,777,TRUE
421,1659925995.715,1600,7246,882,3.569,0.293,-0.071,91.7,yellow,777,TRUE
422,1659925995.807,4857,6126,2527,0.86,0.125,0.325,93.8,green,777,TRUE
423,1659925995.979,5413,2194,3351,2.932,-0.254,0.074,101.9,blue,777,TRUE
424,1659925996.081,1416,3356,750,2.616,0.112,0.219,93.8,red,777,TRUE
425,1659925996.174,1568,7244,882,3.569,0.293,-0.071,93.7,yellow,777,TRUE
426,1659925996.268,4861,6133,2527,0.86,0.125,0.325,95.5,green,777,TRUE
427,1659925996.441,5411,2196,3351,2.932,-0.254,0.074,93.7,blue,777,TRUE
428,1659925996.535,1417,3354,750,2.616,0.112,0.219,93.8,red,777,TRUE
429,1659925996.628,1564,7243,882,3.569,0.293,-0.071,85.5,yellow,777,TRUE
430,1659925996.73,4865,6137,2527,0.86,0.125,0.325,93.8,green,777,TRUE
431,1659925996.901,5409,2199,3351,2.932,-0.254,0.074,96.7,blue,777,TRUE
432,1659925996.998,1418,3356,750,2.616,0.112,0.219,105.2,red,777,TRUE
433,1659925997.213,4869,6142,2527,0.86,0.125,0.325,103.7,green,777,TRUE
434,1659925997.41,5408,2200,3351,2.932,-0.254,0.074,93.4,blue,777,TRUE
435,1659925997.503,1416,3356,750,2.616,0.112,0.219,95.5,red,777,TRUE
436,1659925997.599,1599,7387,882,3.569,0.293,-0.071,94.5,yellow,777,TRUE
437,1659925997.711,4862,6140,2527,0.86,0.125,0.325,81.4,green,777,TRUE
438,1659925997.886,5408,2200,3351,2.932,-0.254,0.074,93.2,blue,777,TRUE
439,1659925997.979,1415,3355,750,2.616,0.112,0.219,93.7,red,777,TRUE
440,1659925998.073,1599,7391,882,3.569,0.293,-0.071,94.0,yellow,777,TRUE
441,1659925998.167,4858,6138,2527,0.86,0.125,0.325,104.4,green,777,TRUE
442,1659925998.366,5406,2199,3351,2.932,-0.254,0.074,93.7,blue,777,TRUE
443,1659925998.459,1417,3355,750,2.616,0.112,0.219,94.2,red,777,TRUE
444,1659925998.556,1599,7391,882,3.569,0.293,-0.071,95.1,yellow,777,TRUE
445,1659925998.651,4866,6140,2527,0.86,0.125,0.325,86.7,green,777,TRUE
446,1659925998.847,5408,2198,3351,2.932,-0.254,0.074,93.2,blue,777,TRUE
447,1659925998.94,1418,3354,750,2.616,0.112,0.219,92.6,red,777,TRUE
448,1659925999.033,1638,7404,882,3.569,0.293,-0.071,104.8,yellow,777,TRUE
449,1659925999.345,5408,2200,3351,2.932,-0.254,0.074,96.1,blue,777,TRUE
450,1659925999.442,1417,3353,750,2.616,0.112,0.219,93.6,red,777,TRUE
451,1659925999.638,4885,6167,2527,0.86,0.125,0.325,93.7,green,777,TRUE
452,1659925999.825,5411,2197,3351,2.932,-0.254,0.074,93.8,blue,777,TRUE
453,1659925999.919,1417,3353,750,2.616,0.112,0.219,93.7,red,777,TRUE
454,1659926000.013,1642,7417,882,3.569,0.293,-0.071,89.7,yellow,777,TRUE
455,1659926000.102,4874,6162,2527,0.86,0.125,0.325,93.8,green,777,TRUE
456,1659926000.29,5411,2198,3351,2.932,-0.254,0.074,93.9,blue,777,TRUE
457,1659926000.49,1642,7421,882,3.569,0.293,-0.071,95.3,yellow,777,TRUE
458,1659926000.586,4880,6162,2527,0.86,0.125,0.325,99.0,green,777,TRUE
459,1659926000.783,5413,2196,3351,2.932,-0.254,0.074,93.8,blue,777,TRUE
460,1659926000.877,1415,3377,750,2.616,0.112,0.219,93.6,red,777,TRUE
461,1659926000.97,1639,7413,882,3.569,0.293,-0.071,97.2,yellow,777,TRUE
462,1659926001.067,4880,6160,2527,0.86,0.125,0.325,93.7,green,777,TRUE
463,1659926001.271,5418,2201,3351,2.932,-0.254,0.074,99.5,blue,777,TRUE
464,1659926001.37,1417,3379,750,2.616,0.112,0.219,94.0,red,777,TRUE
465,1659926001.464,1641,7409,882,3.569,0.293,-0.071,93.7,yellow,777,TRUE
466,1659926001.558,4866,6144,2527,0.86,0.125,0.325,100.4,green,777,TRUE
467,1659926001.768,5417,2205,3351,2.932,-0.254,0.074,93.5,blue,777,TRUE
468,1659926001.861,1417,3382,750,2.616,0.112,0.219,95.0,red,777,TRUE
469,1659926001.956,1645,7414,882,3.569,0.293,-0.071,93.4,yellow,777,TRUE
470,1659926002.05,4860,6136,2527,0.86,0.125,0.325,94.0,green,777,TRUE
471,1659926002.261,5418,2204,3351,2.932,-0.254,0.074,94.0,blue,777,TRUE
472,1659926002.355,1416,3381,750,2.616,0.112,0.219,97.6,red,777,TRUE
473,1659926002.452,1644,7411,882,3.569,0.293,-0.071,94.1,yellow,777,TRUE
474,1659926002.548,4856,6131,2527,0.86,0.125,0.325,92.4,green,777,TRUE
475,1659926002.734,5418,2202,3351,2.932,-0.254,0.074,93.7,blue,777,TRUE
476,1659926002.844,1416,3383,750,2.616,0.112,0.219,86.6,red,777,TRUE
477,1659926002.93,1691,7418,882,3.569,0.293,-0.071,94.9,yellow,777,TRUE
478,1659926003.025,4857,6129,2527,0.86,0.125,0.325,103.6,green,777,TRUE
479,1659926003.215,5415,2200,3351,2.932,-0.254,0.074,95.3,blue,777,TRUE
480,1659926003.326,1418,3385,750,2.616,0.112,0.219,93.7,red,777,TRUE
481,1659926003.42,1689,7425,882,3.569,0.293,-0.071,92.4,yellow,777,TRUE
482,1659926003.512,4864,6136,2527,0.86,0.125,0.325,93.8,green,777,TRUE
483,1659926003.711,5419,2200,3351,2.932,-0.254,0.074,107.3,blue,777,TRUE
484,1659926003.834,1421,3393,750,2.616,0.112,0.219,93.8,red,777,TRUE
485,1659926003.928,1694,7423,882,3.569,0.293,-0.071,93.7,yellow,777,TRUE
486,1659926004.022,4867,6138,2527,0.86,0.125,0.325,107.7,green,777,TRUE
487,1659926004.223,5419,2196,3351,2.932,-0.254,0.074,93.7,blue,777,TRUE
488,1659926004.332,1421,3389,750,2.616,0.112,0.219,93.8,red,777,TRUE
489,1659926004.53,4856,6134,2527,0.86,0.125,0.325,93.8,green,777,TRUE
490,1659926004.846,1422,3393,750,2.616,0.112,0.219,93.8,red,777,TRUE
491,1659926004.94,1647,7413,882,3.569,0.293,-0.071,96.1,yellow,777,TRUE
492,1659926005.037,4849,6124,2527,0.86,0.125,0.325,89.3,green,777,TRUE
493,1659926005.22,5394,2149,3351,2.932,-0.254,0.074,96.1,blue,777,TRUE
494,1659926005.329,1424,3394,750,2.616,0.112,0.219,87.1,red,777,TRUE
495,1659926005.416,1645,7400,882,3.569,0.293,-0.071,93.7,yellow,777,TRUE
496,1659926005.51,4850,6122,2527,0.86,0.125,0.325,93.7,green,777,TRUE
497,1659926005.687,5394,2147,3351,2.932,-0.254,0.074,86.5,blue,777,TRUE
498,1659926005.789,1426,3390,750,2.616,0.112,0.219,93.7,red,777,TRUE
499,1659926005.898,1648,7400,882,3.569,0.293,-0.071,105.1,yellow,777,TRUE
500,1659926006.003,4848,6123,2527,0.86,0.125,0.325,93.8,green,777,TRUE
501,1659926006.191,5393,2146,3351,2.932,-0.254,0.074,113.0,blue,777,TRUE
502,1659926006.304,1431,3361,750,2.616,0.112,0.219,93.7,red,777,TRUE
503,1659926006.413,1648,7399,882,3.569,0.293,-0.071,93.6,yellow,777,TRUE
504,1659926006.507,4845,6123,2527,0.86,0.125,0.325,97.1,green,777,TRUE
505,1659926006.682,5396,2148,3351,2.932,-0.254,0.074,95.0,blue,777,TRUE
506,1659926006.777,1435,3363,750,2.616,0.112,0.219,97.0,red,777,TRUE
507,1659926006.886,1646,7403,882,3.569,0.293,-0.071,97.0,yellow,777,TRUE
508,1659926006.983,4837,6118,2527,0.86,0.125,0.325,93.6,green,777,TRUE
509,1659926007.18,5395,2149,3351,2.932,-0.254,0.074,88.8,blue,777,TRUE
510,1659926007.269,1432,3362,750,2.616,0.112,0.219,95.0,red,777,TRUE
511,1659926007.38,1646,7408,882,3.569,0.293,-0.071,94.9,yellow,777,TRUE
512,1659926007.476,4846,6125,2527,0.86,0.125,0.325,94.4,green,777,TRUE
513,1659926007.779,1430,3367,750,2.616,0.112,0.219,91.8,red,777,TRUE
514,1659926007.887,1645,7407,882,3.569,0.293,-0.071,95.0,yellow,777,TRUE
515,1659926007.982,4849,6125,2527,0.86,0.125,0.325,94.0,green,777,TRUE
516,1659926008.162,5352,2097,3351,2.932,-0.254,0.074,93.8,blue,777,TRUE
517,1659926009.321,1645,7403,882,3.569,0.293,-0.071,95.0,yellow,777,TRUE
518,1659926009.416,4852,6130,2527,0.86,0.125,0.325,93.8,green,777,TRUE
519,1659926009.603,5354,2096,3351,2.932,-0.254,0.074,99.4,blue,777,TRUE
520,1659926009.812,1648,7406,882,3.569,0.293,-0.071,93.7,yellow,777,TRUE
521,1659926009.921,4852,6134,2527,0.86,0.125,0.325,83.4,green,777,TRUE
522,1659926010.099,5358,2098,3351,2.932,-0.254,0.074,94.0,blue,777,TRUE
523,1659926010.193,1433,3369,750,2.616,0.112,0.219,98.1,red,777,TRUE
524,1659926010.291,1653,7409,882,3.569,0.293,-0.071,95.5,yellow,777,TRUE
525,1659926010.403,4857,6132,2527,0.86,0.125,0.325,93.7,green,777,TRUE
526,1659926010.596,5359,2098,3351,2.932,-0.254,0.074,94.9,blue,777,TRUE
527,1659926010.692,1429,3368,750,2.616,0.112,0.219,82.1,red,777,TRUE
528,1659926010.774,1645,7399,882,3.569,0.293,-0.071,104.5,yellow,777,TRUE
529,1659926010.878,4868,6140,2527,0.86,0.125,0.325,93.7,green,777,TRUE
530,1659926011.066,5358,2103,3351,2.932,-0.254,0.074,95.3,blue,777,TRUE
531,1659926011.163,1430,3363,750,2.616,0.112,0.219,89.5,red,777,TRUE
532,1659926011.253,1695,7414,882,3.569,0.293,-0.071,93.5,yellow,777,TRUE
533,1659926011.346,4870,6137,2527,0.86,0.125,0.325,93.9,green,777,TRUE
534,1659926011.543,5381,2153,3351,2.932,-0.254,0.074,93.8,blue,777,TRUE
535,1659926011.636,1430,3360,750,2.616,0.112,0.219,92.2,red,777,TRUE
536,1659926011.729,1682,7439,882,3.569,0.293,-0.071,94.2,yellow,777,TRUE
537,1659926011.823,4882,6149,2527,0.86,0.125,0.325,93.6,green,777,TRUE
538,1659926012.026,5383,2152,3351,2.932,-0.254,0.074,87.8,blue,777,TRUE
539,1659926012.114,1430,3356,750,2.616,0.112,0.219,93.7,red,777,TRUE
540,1659926012.207,1678,7439,882,3.569,0.293,-0.071,93.7,yellow,777,TRUE
541,1659926012.301,4882,6148,2527,0.86,0.125,0.325,95.4,green,777,TRUE
542,1659926012.489,5382,2152,3351,2.932,-0.254,0.074,93.7,blue,777,TRUE
543,1659926012.583,1432,3359,750,2.616,0.112,0.219,93.8,red,777,TRUE
544,1659926012.677,1677,7439,882,3.569,0.293,-0.071,100.8,yellow,777,TRUE
545,1659926012.777,4880,6143,2527,0.86,0.125,0.325,93.8,green,777,TRUE
546,1659926012.965,5382,2153,3351,2.932,-0.254,0.074,94.2,blue,777,TRUE
547,1659926013.059,1430,3361,750,2.616,0.112,0.219,93.9,red,777,TRUE
548,1659926013.153,1676,7432,882,3.569,0.293,-0.071,93.5,yellow,777,TRUE
549,1659926013.246,4880,6138,2527,0.86,0.125,0.325,101.7,green,777,TRUE
550,1659926013.457,5383,2151,3351,2.932,-0.254,0.074,93.7,blue,777,TRUE
551,1659926013.551,1428,3360,750,2.616,0.112,0.219,95.1,red,777,TRUE
552,1659926013.646,1676,7431,882,3.569,0.293,-0.071,94.5,yellow,777,TRUE
553,1659926013.741,4880,6135,2527,0.86,0.125,0.325,93.8,green,777,TRUE
554,1659926013.944,5381,2148,3351,2.932,-0.254,0.074,83.3,blue,777,TRUE
555,1659926014.027,1426,3364,750,2.616,0.112,0.219,93.9,red,777,TRUE
556,1659926014.121,1677,7433,882,3.569,0.293,-0.071,85.6,yellow,777,TRUE
557,1659926014.206,4882,6133,2527,0.86,0.125,0.325,88.3,green,777,TRUE
558,1659926014.388,5428,2196,3351,2.932,-0.254,0.074,93.8,blue,777,TRUE
559,1659926014.498,1428,3364,750,2.616,0.112,0.219,90.7,red,777,TRUE
560,1659926014.588,1678,7432,882,3.569,0.293,-0.071,95.1,yellow,777,TRUE
561,1659926014.684,4890,6138,2527,0.86,0.125,0.325,93.7,green,777,TRUE
562,1659926014.976,1432,3356,750,2.616,0.112,0.219,93.4,red,777,TRUE
563,1659926015.069,1680,7436,882,3.569,0.293,-0.071,95.3,yellow,777,TRUE
564,1659926015.167,4886,6132,2527,0.86,0.125,0.325,86.5,green,777,TRUE
565,1659926015.331,5401,2158,3351,2.932,-0.254,0.074,93.7,blue,777,TRUE
566,1659926015.425,1430,3358,750,2.616,0.112,0.219,106.0,red,777,TRUE
567,1659926015.546,1678,7434,882,3.569,0.293,-0.071,94.0,yellow,777,TRUE
568,1659926015.64,4895,6135,2527,0.86,0.125,0.325,93.4,green,777,TRUE
569,1659926015.83,5397,2157,3351,2.932,-0.254,0.074,93.6,blue,777,TRUE
570,1659926015.923,1430,3358,750,2.616,0.112,0.219,93.9,red,777,TRUE
571,1659926016.017,1634,7417,882,3.569,0.293,-0.071,94.7,yellow,777,TRUE
572,1659926016.113,4887,6133,2527,0.86,0.125,0.325,81.7,green,777,TRUE
573,1659926016.32,5393,2157,3351,2.932,-0.254,0.074,97.9,blue,777,TRUE
574,1659926016.418,1433,3359,750,2.616,0.112,0.219,97.2,red,777,TRUE
575,1659926016.531,1647,7436,882,3.569,0.293,-0.071,78.1,yellow,777,TRUE
576,1659926016.609,4881,6125,2527,0.86,0.125,0.325,94.3,green,777,TRUE
577,1659926016.782,5393,2158,3351,2.932,-0.254,0.074,93.7,blue,777,TRUE
578,1659926016.876,1434,3359,750,2.616,0.112,0.219,94.0,red,777,TRUE
579,1659926016.985,1648,7441,882,3.569,0.293,-0.071,98.3,yellow,777,TRUE
580,1659926017.083,4880,6127,2527,0.86,0.125,0.325,93.8,green,777,TRUE
581,1659926017.271,5394,2155,3351,2.932,-0.254,0.074,100.7,blue,777,TRUE
582,1659926017.481,1660,7414,882,3.569,0.293,-0.071,93.5,yellow,777,TRUE
583,1659926017.59,4871,6112,2527,0.86,0.125,0.325,98.1,green,777,TRUE
584,1659926017.776,5392,2156,3351,2.932,-0.254,0.074,93.7,blue,777,TRUE
585,1659926017.978,1664,7418,882,3.569,0.293,-0.071,94.0,yellow,777,TRUE
586,1659926018.072,4863,6104,2527,0.86,0.125,0.325,93.8,green,777,TRUE
587,1659926018.255,5391,2159,3351,2.932,-0.254,0.074,94.0,blue,777,TRUE
588,1659926018.349,1379,3316,750,2.616,0.112,0.219,93.5,red,777,TRUE
589,1659926018.443,1664,7419,882,3.569,0.293,-0.071,99.1,yellow,777,TRUE
590,1659926018.552,4871,6111,2527,0.86,0.125,0.325,85.0,green,777,TRUE
591,1659926018.731,5391,2160,3351,2.932,-0.254,0.074,99.8,blue,777,TRUE
592,1659926018.838,1380,3321,750,2.616,0.112,0.219,84.8,red,777,TRUE
593,1659926018.922,1664,7418,882,3.569,0.293,-0.071,93.8,yellow,777,TRUE
594,1659926019.016,4878,6124,2527,0.86,0.125,0.325,93.5,green,777,TRUE
595,1659926019.196,5388,2158,3351,2.932,-0.254,0.074,93.7,blue,777,TRUE
596,1659926019.29,1379,3322,750,2.616,0.112,0.219,93.8,red,777,TRUE
597,1659926019.524,4878,6124,2527,0.86,0.125,0.325,93.8,green,777,TRUE
598,1659926019.712,5389,2158,3351,2.932,-0.254,0.074,101.0,blue,777,TRUE
599,1659926019.813,1377,3316,750,2.616,0.112,0.219,93.6,red,777,TRUE
600,1659926020.016,4866,6116,2527,0.86,0.125,0.325,98.7,green,777,TRUE
601,1659926020.199,5387,2152,3351,2.932,-0.254,0.074,92.3,blue,777,TRUE
602,1659926020.291,1377,3319,750,2.616,0.112,0.219,98.3,red,777,TRUE
603,1659926020.396,1587,7266,882,3.569,0.293,-0.071,96.0,yellow,777,TRUE
604,1659926020.492,4866,6121,2527,0.86,0.125,0.325,94.0,green,777,TRUE
605,1659926020.682,5412,2194,3351,2.932,-0.254,0.074,88.7,blue,777,TRUE
606,1659926020.771,1375,3320,750,2.616,0.112,0.219,93.7,red,777,TRUE
607,1659926020.974,4873,6134,2527,0.86,0.125,0.325,90.0,green,777,TRUE
608,1659926021.158,5415,2197,3351,2.932,-0.254,0.074,86.8,blue,777,TRUE
609,1659926021.245,1374,3320,750,2.616,0.112,0.219,100.1,red,777,TRUE
610,1659926021.345,1550,7254,882,3.569,0.293,-0.071,93.8,yellow,777,TRUE
611,1659926021.439,4865,6129,2527,0.86,0.125,0.325,93.5,green,777,TRUE
612,1659926021.644,5419,2199,3351,2.932,-0.254,0.074,93.7,blue,777,TRUE
613,1659926021.738,1373,3320,750,2.616,0.112,0.219,93.7,red,777,TRUE
614,1659926021.832,1595,7270,882,3.569,0.293,-0.071,99.0,yellow,777,TRUE
615,1659926022.133,5421,2197,3351,2.932,-0.254,0.074,97.5,blue,777,TRUE
616,1659926022.237,1374,3318,750,2.616,0.112,0.219,90.2,red,777,TRUE
617,1659926022.327,1586,7256,882,3.569,0.293,-0.071,93.7,yellow,777,TRUE
618,1659926022.629,5420,2198,3351,2.932,-0.254,0.074,93.5,blue,777,TRUE
619,1659926022.722,1375,3319,750,2.616,0.112,0.219,93.9,red,777,TRUE
620,1659926022.816,1587,7256,882,3.569,0.293,-0.071,99.7,yellow,777,TRUE
621,1659926023.351,1590,7262,882,3.569,0.293,-0.071,99.0,yellow,777,TRUE
622,1659926023.677,5397,2152,3351,2.932,-0.254,0.074,97.3,blue,777,TRUE
623,1659926023.877,1589,7259,882,3.569,0.293,-0.071,94.0,yellow,777,TRUE
624,1659926024.185,5397,2150,3351,2.932,-0.254,0.074,93.5,blue,777,TRUE
625,1659926024.278,1426,3359,750,2.616,0.112,0.219,95.6,red,777,TRUE
626,1659926024.375,1587,7252,882,3.569,0.293,-0.071,87.5,yellow,777,TRUE
627,1659926024.462,4805,6161,2527,0.86,0.125,0.325,93.7,green,777,TRUE
628,1659926024.665,5397,2145,3351,2.932,-0.254,0.074,89.7,blue,777,TRUE
629,1659926024.755,1423,3356,750,2.616,0.112,0.219,93.7,red,777,TRUE
630,1659926024.849,1589,7259,882,3.569,0.293,-0.071,93.6,yellow,777,TRUE
631,1659926025.159,5398,2146,3351,2.932,-0.254,0.074,93.5,blue,777,TRUE
632,1659926025.391,1668,7410,882,3.569,0.293,-0.071,93.6,yellow,777,TRUE
633,1659926025.718,5402,2146,3351,2.932,-0.254,0.074,93.9,blue,777,TRUE
634,1659926025.812,1405,3320,750,2.616,0.112,0.219,99.6,red,777,TRUE
635,1659926025.912,1662,7402,882,3.569,0.293,-0.071,96.6,yellow,777,TRUE
636,1659926026.009,4764,6199,2527,0.86,0.125,0.325,109.2,green,777,TRUE
637,1659926026.212,5404,2145,3351,2.932,-0.254,0.074,103.2,blue,777,TRUE
638,1659926026.315,1403,3315,750,2.616,0.112,0.219,93.4,red,777,TRUE
639,1659926026.408,1660,7402,882,3.569,0.293,-0.071,93.8,yellow,777,TRUE
640,1659926026.502,4755,6190,2527,0.86,0.125,0.325,97.4,green,777,TRUE
641,1659926026.708,5405,2142,3351,2.932,-0.254,0.074,89.3,blue,777,TRUE
642,1659926026.798,1401,3314,750,2.616,0.112,0.219,86.8,red,777,TRUE
643,1659926026.884,1660,7404,882,3.569,0.293,-0.071,93.7,yellow,777,TRUE
644,1659926026.978,4747,6181,2527,0.86,0.125,0.325,93.9,green,777,TRUE
645,1659926027.172,5404,2144,3351,2.932,-0.254,0.074,91.0,blue,777,TRUE
646,1659926027.372,1700,7416,882,3.569,0.293,-0.071,98.3,yellow,777,TRUE
647,1659926027.473,4753,6190,2527,0.86,0.125,0.325,96.1,green,777,TRUE
648,1659926027.663,5403,2146,3351,2.932,-0.254,0.074,93.7,blue,777,TRUE
649,1659926028.122,5404,2147,3351,2.932,-0.254,0.074,93.7,blue,777,TRUE
650,1659926028.215,1409,3294,750,2.616,0.112,0.219,93.7,red,777,TRUE
651,1659926028.309,1696,7417,882,3.569,0.293,-0.071,96.1,yellow,777,TRUE
652,1659926028.649,5402,2149,3351,2.932,-0.254,0.074,91.6,blue,777,TRUE
653,1659926028.756,1405,3291,750,2.616,0.112,0.219,93.9,red,777,TRUE
654,1659926028.85,1696,7418,882,3.569,0.293,-0.071,93.6,yellow,777,TRUE
655,1659926028.943,4794,6135,2527,0.86,0.125,0.325,103.4,green,777,TRUE
656,1659926029.14,5423,2198,3351,2.932,-0.254,0.074,93.5,blue,777,TRUE
657,1659926029.36,1690,7411,882,3.569,0.293,-0.071,94.0,yellow,777,TRUE
658,1659926029.454,4785,6118,2527,0.86,0.125,0.325,93.6,green,777,TRUE
659,1659926029.745,1414,3269,750,2.616,0.112,0.219,93.5,red,777,TRUE
660,1659926029.838,1687,7407,882,3.569,0.293,-0.071,99.8,yellow,777,TRUE
661,1659926029.939,4783,6111,2527,0.86,0.125,0.325,84.4,green,777,TRUE
662,1659926030.133,5414,2210,3351,2.932,-0.254,0.074,93.7,blue,777,TRUE
663,1659926030.226,1416,3268,750,2.616,0.112,0.219,93.1,red,777,TRUE
664,1659926030.319,1720,7407,882,3.569,0.293,-0.071,93.7,yellow,777,TRUE
665,1659926030.413,4788,6115,2527,0.86,0.125,0.325,93.7,green,777,TRUE
666,1659926030.642,5416,2214,3351,2.932,-0.254,0.074,94.0,blue,777,TRUE
667,1659926030.751,1418,3270,750,2.616,0.112,0.219,93.7,red,777,TRUE
668,1659926030.845,1720,7408,882,3.569,0.293,-0.071,96.6,yellow,777,TRUE
669,1659926030.942,4809,6086,2527,0.86,0.125,0.325,93.5,green,777,TRUE
670,1659926031.144,5413,2213,3351,2.932,-0.254,0.074,84.3,blue,777,TRUE
671,1659926031.229,1438,3309,750,2.616,0.112,0.219,93.8,red,777,TRUE
672,1659926031.323,1720,7407,882,3.569,0.293,-0.071,93.9,yellow,777,TRUE
673,1659926031.416,4830,6071,2527,0.86,0.125,0.325,96.9,green,777,TRUE
674,1659926031.638,5409,2216,3351,2.932,-0.254,0.074,88.2,blue,777,TRUE
675,1659926031.727,1440,3311,750,2.616,0.112,0.219,106.8,red,777,TRUE
676,1659926031.833,1725,7416,882,3.569,0.293,-0.071,93.5,yellow,777,TRUE
677,1659926031.927,4828,6069,2527,0.86,0.125,0.325,94.0,green,777,TRUE
678,1659926032.221,1441,3316,750,2.616,0.112,0.219,95.4,red,777,TRUE
679,1659926032.451,4834,6073,2527,0.86,0.125,0.325,93.8,green,777,TRUE
680,1659926032.638,5395,2242,3351,2.932,-0.254,0.074,99.0,blue,777,TRUE
681,1659926032.838,1644,7257,882,3.569,0.293,-0.071,93.7,yellow,777,TRUE
682,1659926032.932,4836,6077,2527,0.86,0.125,0.325,100.9,green,777,TRUE
683,1659926033.255,1444,3320,750,2.616,0.112,0.219,98.8,red,777,TRUE
684,1659926033.359,1645,7257,882,3.569,0.293,-0.071,85.0,yellow,777,TRUE
685,1659926033.444,4824,6068,2527,0.86,0.125,0.325,93.4,green,777,TRUE
686,1659926033.616,5393,2236,3351,2.932,-0.254,0.074,88.2,blue,777,TRUE
687,1659926033.704,1443,3320,750,2.616,0.112,0.219,93.7,red,777,TRUE
688,1659926033.814,1647,7262,882,3.569,0.293,-0.071,93.8,yellow,777,TRUE
689,1659926033.907,4828,6080,2527,0.86,0.125,0.325,91.9,green,777,TRUE
690,1659926034.202,1443,3313,750,2.616,0.112,0.219,96.8,red,777,TRUE
691,1659926034.425,4848,6118,2527,0.86,0.125,0.325,93.7,green,777,TRUE
692,1659926034.744,1445,3316,750,2.616,0.112,0.219,93.7,red,777,TRUE
693,1659926034.854,1680,7260,882,3.569,0.293,-0.071,98.6,yellow,777,TRUE
694,1659926034.952,4843,6118,2527,0.86,0.125,0.325,93.7,green,777,TRUE
695,1659926035.254,1438,3337,750,2.616,0.112,0.219,93.7,red,777,TRUE
696,1659926035.456,4841,6113,2527,0.86,0.125,0.325,99.5,green,777,TRUE
697,1659926035.665,5359,2216,3351,2.932,-0.254,0.074,93.7,blue,777,TRUE
698,1659926035.759,1435,3336,750,2.616,0.112,0.219,99.1,red,777,TRUE
699,1659926035.874,1598,7110,882,3.569,0.293,-0.071,94.0,yellow,777,TRUE
700,1659926035.968,4854,6126,2527,0.86,0.125,0.325,93.4,green,777,TRUE
701,1659926036.156,5358,2215,3351,2.932,-0.254,0.074,93.4,blue,777,TRUE
702,1659926036.479,4845,6117,2527,0.86,0.125,0.325,93.9,green,777,TRUE
703,1659926036.667,5352,2217,3351,2.932,-0.254,0.074,107.2,blue,777,TRUE
704,1659926036.774,1433,3340,750,2.616,0.112,0.219,93.8,red,777,TRUE
705,1659926036.883,1568,7118,882,3.569,0.293,-0.071,93.7,yellow,777,TRUE
706,1659926036.977,4854,6127,2527,0.86,0.125,0.325,96.7,green,777,TRUE
707,1659926037.262,1431,3336,750,2.616,0.112,0.219,95.9,red,777,TRUE
708,1659926037.455,4856,6134,2527,0.86,0.125,0.325,93.7,green,777,TRUE
709,1659926037.65,5342,2229,3351,2.932,-0.254,0.074,90.0,blue,777,TRUE
710,1659926037.74,1427,3332,750,2.616,0.112,0.219,93.6,red,777,TRUE
711,1659926037.849,1603,7120,882,3.569,0.293,-0.071,93.5,yellow,777,TRUE
712,1659926037.943,4856,6133,2527,0.86,0.125,0.325,99.9,green,777,TRUE
713,1659926038.136,5351,2217,3351,2.932,-0.254,0.074,93.9,blue,777,TRUE
714,1659926038.23,1427,3334,750,2.616,0.112,0.219,96.7,red,777,TRUE
715,1659926038.436,4861,6137,2527,0.86,0.125,0.325,93.8,green,777,TRUE
716,1659926038.617,5351,2211,3351,2.932,-0.254,0.074,93.4,blue,777,TRUE
717,1659926038.71,1420,3354,750,2.616,0.112,0.219,93.7,red,777,TRUE
718,1659926038.82,1688,7288,882,3.569,0.293,-0.071,95.0,yellow,777,TRUE
719,1659926039.224,1422,3354,750,2.616,0.112,0.219,95.4,red,777,TRUE
720,1659926039.452,4830,6140,2527,0.86,0.125,0.325,100.0,green,777,TRUE
721,1659926039.646,5356,2208,3351,2.932,-0.254,0.074,89.3,blue,777,TRUE
722,1659926039.735,1424,3354,750,2.616,0.112,0.219,96.8,red,777,TRUE
723,1659926039.946,4831,6137,2527,0.86,0.125,0.325,93.8,green,777,TRUE
724,1659926040.23,1424,3360,750,2.616,0.112,0.219,94.0,red,777,TRUE
725,1659926040.324,1687,7287,882,3.569,0.293,-0.071,93.7,yellow,777,TRUE
726,1659926040.418,4819,6126,2527,0.86,0.125,0.325,101.7,green,777,TRUE
727,1659926040.613,5392,2200,3351,2.932,-0.254,0.074,99.5,blue,777,TRUE
728,1659926040.72,1424,3358,750,2.616,0.112,0.219,96.3,red,777,TRUE
729,1659926040.816,1651,7284,882,3.569,0.293,-0.071,93.9,yellow,777,TRUE
730,1659926040.926,4818,6122,2527,0.86,0.125,0.325,93.5,green,777,TRUE
731,1659926041.108,5380,2156,3351,2.932,-0.254,0.074,93.8,blue,777,TRUE
732,1659926041.311,1653,7285,882,3.569,0.293,-0.071,95.8,yellow,777,TRUE
733,1659926041.61,5379,2155,3351,2.932,-0.254,0.074,96.5,blue,777,TRUE
734,1659926041.706,1420,3391,750,2.616,0.112,0.219,93.4,red,777,TRUE
735,1659926041.8,1736,7440,882,3.569,0.293,-0.071,94.0,yellow,777,TRUE
736,1659926041.909,4772,6120,2527,0.86,0.125,0.325,94.6,green,777,TRUE
737,1659926042.085,5383,2156,3351,2.932,-0.254,0.074,93.6,blue,777,TRUE
738,1659926042.179,1420,3389,750,2.616,0.112,0.219,96.5,red,777,TRUE
739,1659926042.276,1740,7443,882,3.569,0.293,-0.071,93.9,yellow,777,TRUE
740,1659926042.37,4767,6118,2527,0.86,0.125,0.325,93.5,green,777,TRUE
741,1659926042.573,5385,2154,3351,2.932,-0.254,0.074,98.0,blue,777,TRUE
742,1659926042.671,1421,3391,750,2.616,0.112,0.219,93.4,red,777,TRUE
743,1659926042.764,1735,7441,882,3.569,0.293,-0.071,93.7,yellow,777,TRUE
744,1659926042.874,4765,6119,2527,0.86,0.125,0.325,84.0,green,777,TRUE
745,1659926043.052,5398,2136,3351,2.932,-0.254,0.074,93.7,blue,777,TRUE
746,1659926043.26,1732,7439,882,3.569,0.293,-0.071,94.0,yellow,777,TRUE
747,1659926043.354,4761,6109,2527,0.86,0.125,0.325,93.8,green,777,TRUE
748,1659926043.543,5401,2135,3351,2.932,-0.254,0.074,93.8,blue,777,TRUE
749,1659926043.637,1418,3421,750,2.616,0.112,0.219,93.6,red,777,TRUE
750,1659926043.731,1692,7437,882,3.569,0.293,-0.071,98.2,yellow,777,TRUE
751,1659926044.043,5401,2130,3351,2.932,-0.254,0.074,98.8,blue,777,TRUE
752,1659926044.144,1419,3418,750,2.616,0.112,0.219,84.3,red,777,TRUE
753,1659926044.228,1691,7433,882,3.569,0.293,-0.071,93.7,yellow,777,TRUE
754,1659926044.322,4712,6115,2527,0.86,0.125,0.325,93.7,green,777,TRUE
755,1659926044.508,5401,2131,3351,2.932,-0.254,0.074,93.8,blue,777,TRUE
756,1659926044.601,1416,3420,750,2.616,0.112,0.219,93.9,red,777,TRUE
757,1659926044.695,1685,7419,882,3.569,0.293,-0.071,87.5,yellow,777,TRUE
758,1659926044.783,4738,6104,2527,0.86,0.125,0.325,93.8,green,777,TRUE
759,1659926044.986,5399,2133,3351,2.932,-0.254,0.074,93.1,blue,777,TRUE
760,1659926045.08,1416,3419,750,2.616,0.112,0.219,93.7,red,777,TRUE
761,1659926045.174,1688,7421,882,3.569,0.293,-0.071,94.0,yellow,777,TRUE
762,1659926045.268,4745,6112,2527,0.86,0.125,0.325,110.7,green,777,TRUE
763,1659926045.463,5394,2132,3351,2.932,-0.254,0.074,93.9,blue,777,TRUE
764,1659926045.557,1413,3418,750,2.616,0.112,0.219,93.5,red,777,TRUE
765,1659926045.65,1690,7419,882,3.569,0.293,-0.071,92.8,yellow,777,TRUE
766,1659926045.743,4748,6117,2527,0.86,0.125,0.325,93.7,green,777,TRUE
767,1659926045.946,5420,2178,3351,2.932,-0.254,0.074,91.0,blue,777,TRUE
768,1659926046.037,1413,3415,750,2.616,0.112,0.219,93.7,red,777,TRUE
769,1659926046.131,1687,7415,882,3.569,0.293,-0.071,93.6,yellow,777,TRUE
770,1659926046.225,4754,6121,2527,0.86,0.125,0.325,106.0,green,777,TRUE
771,1659926046.424,5422,2180,3351,2.932,-0.254,0.074,93.7,blue,777,TRUE
772,1659926046.518,1410,3413,750,2.616,0.112,0.219,94.1,red,777,TRUE
773,1659926046.719,4762,6122,2527,0.86,0.125,0.325,93.8,green,777,TRUE
774,1659926046.912,5423,2181,3351,2.932,-0.254,0.074,84.0,blue,777,TRUE
775,1659926047.011,1415,3386,750,2.616,0.112,0.219,93.8,red,777,TRUE
776,1659926047.105,1726,7429,882,3.569,0.293,-0.071,78.1,yellow,777,TRUE
777,1659926047.183,4796,6114,2527,0.86,0.125,0.325,93.8,green,777,TRUE
778,1659926047.371,5423,2183,3351,2.932,-0.254,0.074,93.8,blue,777,TRUE
779,1659926047.583,1728,7436,882,3.569,0.293,-0.071,93.6,yellow,777,TRUE
780,1659926047.677,4807,6128,2527,0.86,0.125,0.325,99.0,green,777,TRUE
781,1659926047.882,5423,2179,3351,2.932,-0.254,0.074,93.7,blue,777,TRUE
782,1659926047.991,1416,3380,750,2.616,0.112,0.219,93.8,red,777,TRUE
783,1659926048.085,1723,7427,882,3.569,0.293,-0.071,105.2,yellow,777,TRUE
784,1659926048.191,4821,6143,2527,0.86,0.125,0.325,93.7,green,777,TRUE
785,1659926048.363,5424,2180,3351,2.932,-0.254,0.074,96.6,blue,777,TRUE
786,1659926048.462,1414,3380,750,2.616,0.112,0.219,90.9,red,777,TRUE
787,1659926048.553,1728,7430,882,3.569,0.293,-0.071,93.6,yellow,777,TRUE
788,1659926048.646,4814,6132,2527,0.86,0.125,0.325,93.8,green,777,TRUE
789,1659926048.857,5424,2181,3351,2.932,-0.254,0.074,93.7,blue,777,TRUE
790,1659926048.966,1421,3356,750,2.616,0.112,0.219,95.4,red,777,TRUE
791,1659926049.063,1729,7425,882,3.569,0.293,-0.071,94.2,yellow,777,TRUE
792,1659926049.157,4815,6135,2527,0.86,0.125,0.325,93.9,green,777,TRUE
793,1659926049.569,1734,7424,882,3.569,0.293,-0.071,93.9,yellow,777,TRUE
794,1659926049.663,4869,6143,2527,0.86,0.125,0.325,100.0,green,777,TRUE
795,1659926049.841,5399,2140,3351,2.932,-0.254,0.074,93.4,blue,777,TRUE
796,1659926049.934,1412,3390,750,2.616,0.112,0.219,96.2,red,777,TRUE
797,1659926050.046,1735,7427,882,3.569,0.293,-0.071,93.6,yellow,777,TRUE
798,1659926050.14,4866,6138,2527,0.86,0.125,0.325,93.7,green,777,TRUE
799,1659926050.331,5397,2145,3351,2.932,-0.254,0.074,95.7,blue,777,TRUE
800,1659926050.427,1410,3386,750,2.616,0.112,0.219,109.5,red,777,TRUE
801,1659926050.536,1733,7423,882,3.569,0.293,-0.071,93.8,yellow,777,TRUE
802,1659926050.631,4867,6135,2527,0.86,0.125,0.325,96.5,green,777,TRUE
803,1659926050.822,5396,2147,3351,2.932,-0.254,0.074,96.3,blue,777,TRUE
804,1659926050.92,1410,3390,750,2.616,0.112,0.219,94.7,red,777,TRUE
805,1659926051.03,1731,7419,882,3.569,0.293,-0.071,93.7,yellow,777,TRUE
806,1659926051.124,4874,6139,2527,0.86,0.125,0.325,99.1,green,777,TRUE
807,1659926051.447,1415,3389,750,2.616,0.112,0.219,98.1,red,777,TRUE
808,1659926051.547,1728,7415,882,3.569,0.293,-0.071,86.8,yellow,777,TRUE
809,1659926051.634,4870,6130,2527,0.86,0.125,0.325,93.5,green,777,TRUE
810,1659926051.821,5387,2166,3351,2.932,-0.254,0.074,89.0,blue,777,TRUE
811,1659926051.91,1416,3385,750,2.616,0.112,0.219,93.8,red,777,TRUE
812,1659926052.02,1730,7418,882,3.569,0.293,-0.071,93.7,yellow,777,TRUE
813,1659926052.114,4872,6135,2527,0.86,0.125,0.325,89.7,green,777,TRUE
814,1659926052.297,5382,2168,3351,2.932,-0.254,0.074,93.9,blue,777,TRUE
815,1659926052.511,1724,7407,882,3.569,0.293,-0.071,93.7,yellow,777,TRUE
816,1659926052.605,4874,6138,2527,0.86,0.125,0.325,106.2,green,777,TRUE
817,1659926052.798,5382,2169,3351,2.932,-0.254,0.074,93.7,blue,777,TRUE
818,1659926052.892,1393,3388,750,2.616,0.112,0.219,93.4,red,777,TRUE
819,1659926052.985,1691,7408,882,3.569,0.293,-0.071,96.2,yellow,777,TRUE
820,1659926053.094,4878,6141,2527,0.86,0.125,0.325,94.3,green,777,TRUE
821,1659926053.282,5385,2168,3351,2.932,-0.254,0.074,97.7,blue,777,TRUE
822,1659926053.384,1392,3392,750,2.616,0.112,0.219,95.7,red,777,TRUE
823,1659926053.588,4873,6136,2527,0.86,0.125,0.325,96.2,green,777,TRUE
824,1659926053.776,5384,2170,3351,2.932,-0.254,0.074,93.8,blue,777,TRUE
825,1659926053.87,1394,3393,750,2.616,0.112,0.219,93.8,red,777,TRUE
826,1659926053.964,1692,7402,882,3.569,0.293,-0.071,86.2,yellow,777,TRUE
827,1659926054.066,4865,6113,2527,0.86,0.125,0.325,78.1,green,777,TRUE
828,1659926054.237,5382,2171,3351,2.932,-0.254,0.074,94.0,blue,777,TRUE
829,1659926054.331,1397,3391,750,2.616,0.112,0.219,93.9,red,777,TRUE
830,1659926055.49,4863,6112,2527,0.86,0.125,0.325,96.8,green,777,TRUE
831,1659926055.696,5382,2172,3351,2.932,-0.254,0.074,93.8,blue,777,TRUE
832,1659926055.909,1696,7414,882,3.569,0.293,-0.071,93.7,yellow,777,TRUE
833,1659926056.002,4872,6118,2527,0.86,0.125,0.325,94.0,green,777,TRUE
834,1659926056.191,5407,2216,3351,2.932,-0.254,0.074,93.8,blue,777,TRUE
835,1659926056.285,1412,3330,750,2.616,0.112,0.219,94.0,red,777,TRUE
836,1659926056.379,1696,7418,882,3.569,0.293,-0.071,94.8,yellow,777,TRUE
837,1659926056.476,4871,6117,2527,0.86,0.125,0.325,93.5,green,777,TRUE
838,1659926056.679,5408,2218,3351,2.932,-0.254,0.074,99.0,blue,777,TRUE
839,1659926056.779,1412,3330,750,2.616,0.112,0.219,91.9,red,777,TRUE
840,1659926056.871,1693,7414,882,3.569,0.293,-0.071,93.7,yellow,777,TRUE
841,1659926057.175,5406,2215,3351,2.932,-0.254,0.074,109.1,blue,777,TRUE
842,1659926057.284,1416,3333,750,2.616,0.112,0.219,93.9,red,777,TRUE
